prefecture,city,number,address,name,lat,long,note
愛媛県,今治市,1,北宝来町1-1-11地先今治駅前バス停留所,今治駅前バス停留所,34.064662,132.9942532,
愛媛県,今治市,2,別宮町1-4-1市役所第2別館前植込,市役所第2別館前植込,34.071996,132.9921142,緯度経度は怪しい
愛媛県,今治市,3,別宮町1-4-1公会堂東側植込,公会堂東側植込,34.0667335,132.9977536,
愛媛県,今治市,4,別宮町2-3-2森見公園大正町側,森見公園大正町側,34.0688294,132.9973189,
愛媛県,今治市,5,共栄町4-6-3先旧ニ-ヴィア-ネ歩道橋前ガ-ドパイプ,旧ニーヴィアーネ歩道橋前ガードパイプ,34.0704502,132.9974112,
愛媛県,今治市,6,別宮町6-2-1今治中央体育館前,今治中央体育館前,34.0723493,132.9929124,
愛媛県,今治市,7,別宮町5-1-7別宮小学校南門横,別宮小学校南門横,34.0712976,132.9923916,
愛媛県,今治市,8,別宮町9-6-50コンド-装飾横ガ-ドパイプ,コンドー装飾横ガードパイプ,34.071996,132.9921142,
愛媛県,今治市,9,高地町1-甲1740-1元町山離製前ガ-ドパイプ,元町山離製前ガードパイプ,34.0762005,132.9733152,緯度経度は怪しい
愛媛県,今治市,10,別宮町9-7-28地先八幡地攤北角ガ-ドレ-ル,八幡地攤北角ガードレール,34.0720306,132.9921546,緯度経度は怪しい
愛媛県,今治市,11,宝屋町6-3-21北乳児保育所横,北乳児保育所横,34.0662024,132.9977906,
愛媛県,今治市,12,共栄町5-2-1先四国ガス工場前ガ-ドパイプ,四国ガス工場前ガードパイプ,34.0716249,132.9975659,
愛媛県,今治市,13,美保町2-1-22美保公園入口フェンス,美保公園入口フェンス,34.0746912,132.9997998,
愛媛県,今治市,14,本町5-2-24慶応公園西角,慶応公園西角,34.07382279999999,132.9974198,
愛媛県,今治市,15,本町6-4-30先宮崎ス子氏宅横ガ-ドパイプ,masked,34.0739476,132.9982304,緯度経度は怪しい
愛媛県,今治市,16,片原町3丁目2番地先みなと交流センタ-駐車場1付近植込,みなと交流センター駐車場1付近植込,34.07148400000001,133.0029385,
愛媛県,今治市,17,通町1-1-4辰之口公園入口フェンス,辰之口公園入口フェンス,34.0673653,133.0040195,
愛媛県,今治市,18,黄金町1-9-1旧美須賀小学校裏門横,旧美須賀小学校裏門横,34.065532,133.0027394,
愛媛県,今治市,19,黄金町1-9-1旧美須賀小学校裏門横ブロック塀,旧美須賀小学校裏門横ブロック塀,34.065532,133.0027394,
愛媛県,今治市,20,黄金町3-3-3吹揚小学校正門横,吹揚小学校正門横,34.0621516,133.0045434,
愛媛県,今治市,21,通町3-1-1地先吹揚駐車場横,吹揚駐車場横,34.0627763,133.0066939,
愛媛県,今治市,22,旭町5-1-2地先東洋紡維協同組合横,東洋紡維協同組合横,34.0626679,133.0006604,緯度経度は怪しい
愛媛県,今治市,23,旭町5-2-2地先ハリソン電気横ガ-ドパイプ,ハリソン電気横ガードパイプ,34.0626679,133.0006604,緯度経度は怪しい
愛媛県,今治市,24,蔵敷町2-12-2蔵敷公園入口,蔵敷公園入口,34.0569289,133.0016778,
愛媛県,今治市,25,南宝来町1-6-1旧日吉小学校正門横,旧日吉小学校正門横,34.0615417,132.9990057,
愛媛県,今治市,26,南宝来町1-6-1旧日吉小学校裏門横(向って右),旧日吉小学校裏門横(向って右),34.0615417,132.9990057,
愛媛県,今治市,27,中日吉町2-6-55常盤小学校正門横(向って右),常盤小学校正門横(向って右),34.059809,132.989272,
愛媛県,今治市,28,北日吉町1-10北高線北駒橋角ガ-ドパイプ(向かって右),北高線北駒橋角ガードパイプ(向かって右),34.0622418,132.9885088,緯度経度は怪しい
愛媛県,今治市,29,常盤町5-7-6地先鷲之町公園(電話BOX横),鷲之町公園(電話BOX横),34.0554215,132.9885088,緯度経度は怪しい
愛媛県,今治市,30,中日吉町1-3-70日吉中学校正門横(向って右),日吉中学校正門横(向って右),34.061493,132.992672,
愛媛県,今治市,31,中日吉町1-3-70日吉中学校裏門横(向って左),日吉中学校裏門横(向って左),34.061493,132.992672,
愛媛県,今治市,32,中日吉町2-1-5市営南日吉団地フェンス,市営南日吉団地フェンス,34.0580508,132.9935091,緯度経度は怪しい
愛媛県,今治市,33,常盤町7-2-1南高等学校北角ガ-ドパイプ,南高等学校北角ガードパイプ,34.0559796,132.9892681,
愛媛県,今治市,34,鯉池町2-408市営鯉池住宅入口,masked,34.0533312,132.9891228,
愛媛県,今治市,35,鯉池町3-2-16地先村上氏宅前蒼壮川土手,masked,34.0520113,132.9885088,
愛媛県,今治市,36,南日吉町2-1-29地先三木病院駐車場前ガ-ドパイプ,三木病院駐車場前ガードパイプ,34.0568444,132.9947287,
愛媛県,今治市,1,吉海町仁江15番地元関西酒造(株)吉海工場西側,元関西酒造㈱吉海工場西側,34.14878,133.0441124,緯度経度は怪しい
愛媛県,今治市,2,吉海町八幡137番地吉海支所正門前,吉海支所正門前,34.14574,133.0442,
愛媛県,今治市,3,吉海町仁江2033番地矢野朱美氏宅前,masked,34.1357794,133.0632145,緯度経度は怪しい
愛媛県,今治市,4,吉海町仁江2453番地地先仁江バス停前三叉路,仁江バス停前三叉路,34.1440235,133.0631953,緯度経度は怪しい
愛媛県,今治市,5,吉海町本庄601番地津本消防ポンプ小屋横,津本消防ポンプ小屋横,34.1463676,133.0316339,緯度経度は怪しい
愛媛県,今治市,6,吉海町幸新田461番地地先水門バス停前,水門バス停前,34.1479405,133.0349877,緯度経度は怪しい
愛媛県,今治市,7,吉海町福田324番地地先名切川、北谷川間,名切川、北谷川間,34.1582084,133.0462031,
愛媛県,今治市,8,吉海町津島219番地津島公民館,津島公民館,34.1535226,133.0060819,緯度経度は怪しい
愛媛県,今治市,9,吉海町泊2118番地1先相田商マンホ-ルポンプ操作盤横,相田商マンホールポンプ操作盤横,34.1739341,133.0413472,
愛媛県,今治市,10,吉海町泊498番地泊小学校跡,泊小学校跡,34.1731151,133.0319245,緯度経度は怪しい
愛媛県,今治市,11,吉海町田浦908番地村上仁志氏宅横,masked,34.1802776,133.0299597,緯度経度は怪しい
愛媛県,今治市,12,吉海町田浦378番地織田泰太郎氏宅前,masked,34.1851958,133.0294053,緯度経度は怪しい
愛媛県,今治市,13,吉海町椋名185番地恵比寿神社,恵比寿神社,34.1392303,133.0190821,緯度経度は怪しい
愛媛県,今治市,14,吉海町椋名619番地美佐田陽子氏宅前(パラペット),masked,34.1368927,133.01967,緯度経度は怪しい
愛媛県,今治市,15,吉海町名駒362番地矢野幸氏宅前,masked,34.1107875,133.0282671,緯度経度は怪しい
愛媛県,今治市,16,吉海町名5584番地今井照美氏宅横,masked,34.1192205,133.0211829,緯度経度は怪しい
愛媛県,今治市,17,吉海町臥間2番地1下田水駐輪場,下田水駐輪場,34.1283213,133.0198788,緯度経度は怪しい
愛媛県,今治市,18,吉海町名1161番地元ごはん処あかしや前,元ごはん処あかしや前,34.1348876,133.0440747,緯度経度は怪しい
愛媛県,今治市,19,吉海町名3029番地亀山バス停横,亀山バス停横,34.1325438,133.0381369,緯度経度は怪しい
愛媛県,今治市,20,吉海町名2833番地武田陽子氏宅横,masked,34.1270433,133.0398881,
愛媛県,今治市,21,吉海町南浦374番地1南浦バス停横,南浦バス停横,34.1140527,133.0393391,
愛媛県,今治市,22,宮窪町宮窪6107番地先県道大島環状線江ノ入停横緑地帯,県道大島環状線江ﾉ入停横緑地帯,34.1778315,133.0755196,緯度経度は怪しい
愛媛県,今治市,23,宮窪町宮窪1897番地3県道大島環状線ガ-ドパイプ,県道大島環状線ガードパイプ,34.1708523,133.0804176,緯度経度は怪しい
愛媛県,今治市,24,宮窪町宮窪2886番地宮窪中学校跡体育館裏ブロック塀,宮窪中学校跡体育館裏ブロック塀,34.1726103,133.074893,緯度経度は怪しい
愛媛県,今治市,25,宮窪町宮窪2909番地宮窪認定こども園金網フェンス,宮窪認定こども園金網フェンス,34.1711556,133.0750694,緯度経度は怪しい
愛媛県,今治市,26,宮窪町宮窪4162番地先市道宮窪中央線GR,市道宮窪中央線GR,34.168121,133.0688935,緯度経度は怪しい
愛媛県,今治市,27,宮窪町宮窪4753番地1先国道317号ガ-ドパイプ,国道317号ガードパイプ,34.1716572,133.0706297,緯度経度は怪しい
愛媛県,今治市,28,宮窪町宮窪1121番地市道宮窪戸代線スト-ンガ-ド,市道宮窪戸代線ストーンガード,34.1733199,133.0926516,緯度経度は怪しい
愛媛県,今治市,29,宮窪町宮窪6700番地2鵜島集会所前石垣,鵜島集会所前石垣,34.1831287,133.0868108,緯度経度は怪しい
愛媛県,今治市,30,宮窪町友浦3225番地2市道久米線スト-ンガ-ド,市道久米線ストーンガード,34.1619295,133.0898857,緯度経度は怪しい
愛媛県,今治市,31,宮窪町友浦2575番地1友浦農村環境改善センタ-入口,友浦農村環境改善センター入口,34.1591221,133.0877473,緯度経度は怪しい
愛媛県,今治市,32,宮窪町友浦1152番地5友浦フェリ-待合所前,友浦フェリー待合所前,34.1528651,133.0819456,緯度経度は怪しい
愛媛県,今治市,33,宮窪町友浦477番地1県道大島環状線GR,県道大島環状線GR,34.1619295,133.0898857,緯度経度は怪しい
愛媛県,今治市,34,宮窪町余所国1372番地1余所国農村環境改善センタ-入口,余所国農村環境改善センター入口,34.1918497,133.0579533,緯度経度は怪しい
愛媛県,今治市,35,宮窪町余所国585番地先県道大島環状線GR,県道大島環状線GR,34.1908528,133.0619754,緯度経度は怪しい
愛媛県,今治市,36,宮窪町余所国647番地2市道余所国山手線GR,市道余所国山手線GR,34.1857647,133.0559136,
愛媛県,今治市,37,宮窪町早川502番地県道大島環状線GR,県道大島環状線GR,34.1875508,133.0413472,
愛媛県,今治市,1,天保山町2-3-1有津橋公園御石前歩廊前フェンス,有津橋公園御石前歩廊前フェンス,34.2026842,133.1036462,緯度経度は怪しい
愛媛県,今治市,2,天保山町2-3-1せとうち整備有津橋公園フェンス,せとうち整備有津橋公園フェンス,34.0651359,133.0119271,
愛媛県,今治市,3,東門町2-1-1地先御厩公園,御厩公園,34.0611203,133.0122206,緯度経度は怪しい
愛媛県,今治市,4,東門町4-3-16旧城東小学校正門横(向かって右),旧城東小学校正門横（向かって右）,34.059776,133.0126628,
愛媛県,今治市,5,東鳥生町1-2-23市営東鳥生住宅フェンス,masked,34.0581756,133.0174401,
愛媛県,今治市,6,東鳥生町5-17立花中継ポンプ場フェンス,立花中継ポンプ場フェンス,34.05456059999999,133.0207043,
愛媛県,今治市,7,立花町2-8-7立花中学校体育館横,立花中学校体育館横,34.0497093,132.9970577,
愛媛県,今治市,8,立花町2-8-7立花中学校南角フェンス,立花中学校南角フェンス,34.0497093,132.9970577,
愛媛県,今治市,9,河南町3-2-2河南公民館横フェンス,河南公民館横フェンス,34.0501322,132.9930066,
愛媛県,今治市,10,郷本町3-5-2三島神社,三島神社,34.0458647,132.9940047,
愛媛県,今治市,11,八町西1-2-58地先郷橋南土手公園,郷橋南土手公園,34.048797,132.990695,
愛媛県,今治市,12,立花町4-3-1立花小学校正門横,立花小学校正門横,34.0480236,133.0010722,
愛媛県,今治市,13,郷六ケ内町2-4-49河合石油前ガ-ドパイプ,河合石油前ガードパイプ,34.0439662,132.9977101,
愛媛県,今治市,14,辻堂4-73-5辻堂バス停付近ガ-ドパイプ,辻堂バス停付近ガードパイプ,34.0395805,133.0067352,緯度経度は怪しい
愛媛県,今治市,15,立花町4-3-1立花小学校体育館裏フェンス,立花小学校体育館裏フェンス,34.0480236,133.0010722,
愛媛県,今治市,16,八町東4-3-34地先八町畑地広場,八町畑地広場,34.0378108,132.9993289,
愛媛県,今治市,17,北鳥生町4-7-7地先ふれあい農園ガ-ドパイプ,ふれあい農園ガードパイプ,34.05322,133.0067352,
愛媛県,今治市,18,祇園町3-1-24地先高山氏宅前春社川土手,masked,34.0542715,133.0043054,
愛媛県,今治市,19,北鳥生町5-3-17立花中学校第2運動場金網,立花中学校第２運動場金網,34.05322,133.0067352,緯度経度は怪しい
愛媛県,今治市,20,祇園町3-2-36藤本氏宅前ガ-ドパイプ,masked,34.0542715,133.0043054,
愛媛県,今治市,21,南鳥生町1-5-3南鳥生団地前ガ-ドパイプ,南鳥生団地前ガードパイプ,34.0528896,133.0094685,緯度経度は怪しい
愛媛県,今治市,22,北島生町1-2-33地先城東橋南側公園,城東橋南側公園,34.0580776,133.0135496,緯度経度は怪しい
愛媛県,今治市,23,衣干町4-6-31地先コインランドリ-ドデポ前ガ-ドパイプ,コインランドリードデポ前ガードパイプ,34.0463371,133.0121927,
愛媛県,今治市,24,南高下町3-4-46晴心幼稚園前ガ-ドパイプ,晴心幼稚園前ガードパイプ,34.0495553,133.011161,
愛媛県,今治市,25,南高下町2-2-65門田一正氏宅前ガ-ドパイプ,masked,34.0520884,133.012961,緯度経度は怪しい
愛媛県,今治市,26,横田町1-1-4地先長野研設横ガ-ドパイプ,長野研設横ガードパイプ,34.0479278,133.0092856,
愛媛県,今治市,27,南高下町3-3-71鳥生小学校正門横,鳥生小学校正門横,34.0491004,133.0127141,
愛媛県,今治市,28,南高下町3-3-71鳥生小学校東門横ガ-ドレ-ル,鳥生小学校東門横ガードレール,34.0491004,133.0127141,
愛媛県,今治市,29,大新田町2-4-5四国電力資材置場フェンス,四国電力資材置場フェンス,34.0791868,132.9947539,緯度経度は怪しい
愛媛県,今治市,30,大新田町5-1-11地先市営築場入口ガ-ドパイプ,市営築場入口ガードパイプ,34.0787646,132.9897241,
愛媛県,今治市,31,大新田町3-7北部共同調理場フェンス,北部共同調理場フェンス,34.0809781,132.9941293,
愛媛県,今治市,32,近見町2丁目102-2矢野酒店横ガ-ドパイプ,矢野酒店横ガードパイプ,34.0877892,132.9862078,
愛媛県,今治市,33,大新田町1-3-27中土堤バス停横ガ-ドレ-ル,中土堤バス停横ガードレール,34.08575,132.99288,
愛媛県,今治市,34,湊町2-3-56地先ゲ-トボ-ル場フェンス,ゲートボール場フェンス,34.089908,132.991547,
愛媛県,今治市,35,石井町1-3-1出雲大社今治分院前ガ-ドレ-ル,出雲大社今治分院前ガードレール,34.0748332,132.9884615,
愛媛県,今治市,36,石井町2-7-54先市営石井住宅入口ガ-ドパイプ,masked,34.0832673,132.9841426,緯度経度は怪しい
愛媛県,今治市,37,石井町3-3-5地先河原川近見電気上ガ-ドパイプ,河原川近見電気上ガードパイプ,34.0812857,132.9862809,
愛媛県,今治市,38,石井町5-417石井公民館横ガ-ドパイプ,石井公民館横ガードパイプ,34.0810879,132.9830397,緯度経度は怪しい
愛媛県,今治市,39,石井町4-5-5県立今治病院入口ガ-ドパイプ,県立今治病院入口ガードパイプ,34.0855421,132.9875466,
愛媛県,今治市,1,関前岡村甲1524番地第3白鬚物揚場,白鬚物揚場,34.1772397,132.8796574,緯度経度は怪しい
愛媛県,今治市,2,関前岡村甲984番地姫子島神社北側,姫子島神社北側,34.1822618,132.8820002,緯度経度は怪しい
愛媛県,今治市,3,関前岡村甲697番地第1岡村へき地集会室横フェンス,岡村へき地集会室横フェンス,34.18471,132.8837784,緯度経度は怪しい
愛媛県,今治市,4,関前岡村甲2番地第5関前開発総合センタ-裏フェンス,関前開発総合センター裏フェンス,34.1772397,132.8796574,緯度経度は怪しい
愛媛県,今治市,5,関前小大下乙1352番地第2小大下地区住民センタ-前,小大下地区住民センター前,34.1899892,132.8996607,
愛媛県,今治市,6,関前大下甲1856番地2大下集会所前,大下集会所前,34.188362,132.923408,緯度経度は怪しい
愛媛県,今治市,1,菊間町浜812番地付近菊間コミュニティホ-ル付近フェンス,菊間コミュニティホール付近フェンス,34.0338728,132.8411944,
愛媛県,今治市,2,菊間町浜400番地2付近浄水場向側ガ-ドレ-ル,浄水場向側ガードレール,34.0362483,132.8431678,
愛媛県,今治市,3,菊間町浜89番地付近遍照院向い菊間港側ガ-ドパイプ,遍照院向い菊間港側ガードパイプ,34.0343887,132.8372832,緯度経度は怪しい
愛媛県,今治市,4,菊間町浜312番地付近八幡橋横ガ-ドレ-ル,八幡橋横ガードレール,34.0378651,132.8417771,
愛媛県,今治市,5,菊間町浜3067番地付近かわら飾前メインアプロ-チ,かわら飾前メインアプローチ,34.0322619,132.8409778,
愛媛県,今治市,6,菊間町田之尻359番地付近長尾フジミ氏宅付近ガ-ドレ-ル,masked,34.0199304,132.8160803,緯度経度は怪しい
愛媛県,今治市,7,菊間町長坂342番地付近明日集会所前ガ-ドレ-ル,明日集会所前ガードレール,34.02850540000001,132.8351693,
愛媛県,今治市,8,菊間町長坂135番地1付近みどり町田窪橋付近ガ-ドレ-ル,みどり町田窪橋付近ガードレール,34.0257613,132.8369784,緯度経度は怪しい
愛媛県,今治市,9,菊間町長坂2002番地付近菊間小学校横フェンス,菊間小学校横フェンス,34.0328553,132.846068,緯度経度は怪しい
愛媛県,今治市,10,菊間町浜2392番地付近安永理江氏宅横,masked,34.0373295,132.8418538,緯度経度は怪しい
愛媛県,今治市,11,菊間町浜1123番地付近北浜地区児童遊園地前フェンス,北浜地区児童遊園地前フェンス,34.039771,132.8434817,緯度経度は怪しい
愛媛県,今治市,12,菊間町西山1461番地付近陸野敏彦氏宅付近ガ-ドレ-ル,masked,34.0125959,132.8311845,
愛媛県,今治市,13,菊間町高田27番地付近旧歌仙地域住民学習センタ-前ガ-ドレ-ル,旧歌仙地域住民学習センター前ガードレール,34.0293242,132.8548791,
愛媛県,今治市,14,菊間町池原34番地付近今治市社協菊間支部前ガ-ドレ-ル,今治市社協菊間支部前ガードレール,34.025619,132.856971,
愛媛県,今治市,15,菊間町池原275番地付近池原橋付近ガ-ドレ-ル,池原橋付近ガードレール,34.0323904,132.8540784,
愛媛県,今治市,16,菊間町松尾688番地付近菅貞雄氏宅前ガ-ドレ-ル,masked,34.0245846,132.864073,
愛媛県,今治市,17,菊間町河之内170番地付近河之内集会所前ガ-ドレ-ル,河之内集会所前ガードレール,34.0138668,132.8799654,緯度経度は怪しい
愛媛県,今治市,18,菊間町川上892番地付近川上大門橋付近ガ-ドレ-ル,川上大門橋付近ガードレール,34.017027,132.8610362,緯度経度は怪しい
愛媛県,今治市,19,菊間町種4432番地1付近葉山集会所入口フェンス,葉山集会所入口フェンス,34.0463142,132.861941,緯度経度は怪しい
愛媛県,今治市,20,菊間町種4070番地2付近太陽石油(株)四国事業所側横ガ-ドパイプ,太陽石油㈱四国事業所側横ガードパイプ,34.047731,132.858475,
愛媛県,今治市,21,菊間町種386番地付近稲公民館跡公園前ガ-ドレ-ル,稲公民館跡公園前ガードレール,34.0452747,132.8720897,
愛媛県,今治市,22,菊間町種3701番地付近泊山バス停前ガ-ドパイプ,泊山バス停前ガードパイプ,34.0530535,132.8682028,
愛媛県,今治市,23,菊間町種3859番地付近円福寺橋下手ガ-ドレ-ル,円福寺橋下手ガードレール,34.0546525,132.8711578,
愛媛県,今治市,24,菊間町種52番地付近亀岡小学校植え込み(垣根),亀岡小学校植え込み（垣根）,34.0548532,132.8728324,
愛媛県,今治市,25,菊間町佐方2097番地付近越智工業所前ガ-ドレ-ル,越智工業所前ガードレール,34.0526931,132.8778518,
愛媛県,今治市,26,菊間町佐方111番地付近市道高城線園通入口ガ-ドレ-ル,市道高城線園通入口ガードレール,34.0577882,132.8848315,
愛媛県,今治市,1,玉川町法界寺甲30-7先オリエント八勝亭向側,オリエント八勝亭向側,34.0286941,132.9621518,緯度経度は怪しい
愛媛県,今治市,2,玉川町大野甲56-5先旧越智今治農協Aコ-プ跡地向側,旧越智今治農協Aコープ跡地向側,34.0245153,132.9429144,
愛媛県,今治市,3,玉川町三反地甲21-5玉川支所前バス停,玉川支所前バス停,34.0193615,132.9411388,緯度経度は怪しい
愛媛県,今治市,4,玉川町鍋地甲652-1先桂・鍋地三叉路桂橋横,桂・鍋地三叉路桂橋横,34.0186146,132.9359352,緯度経度は怪しい
愛媛県,今治市,5,玉川町長谷甲961-8先大河石油スタンド上側,大河石油スタンド上側,34.0118489,132.9377267,緯度経度は怪しい
愛媛県,今治市,6,玉川町長谷甲227-1先玉川駐在所前三叉路,玉川駐在所前三叉路,34.002046,132.938122,緯度経度は怪しい
愛媛県,今治市,7,玉川町中村甲552-3先中村集会所前,中村集会所前,34.0224716,132.9556173,
愛媛県,今治市,8,玉川町高野甲21先玉川中学校前三叉路,玉川中学校前三叉路,34.018572,132.943302,緯度経度は怪しい
愛媛県,今治市,9,玉川町畑寺甲472-8畑寺集会所向側,畑寺集会所向側,34.0027256,132.9538608,緯度経度は怪しい
愛媛県,今治市,10,玉川町小鴨部甲108先小鴨部消防車庫の下側,小鴨部消防車庫の下側,34.013402,132.9660207,
愛媛県,今治市,11,玉川町別所甲91-4先渡辺昇氏宅向側三叉路,masked,34.0289106,132.9724133,緯度経度は怪しい
愛媛県,今治市,12,玉川町別所乙1-1先別所大山積神社下三叉路,別所大山積神社下三叉路,34.0245236,132.9730181,緯度経度は怪しい
愛媛県,今治市,13,玉川町小鴨部甲209-5先日の出保育所下側,日の出保育所下側,34.026541,132.9644692,緯度経度は怪しい
愛媛県,今治市,14,玉川町八幡甲303-2森越建設倉庫の上側,森越建設倉庫の上側,34.0302841,132.9769621,緯度経度は怪しい
愛媛県,今治市,15,玉川町別所甲3-36先越智靖氏宅前(鴨部橋南側),masked,34.0313808,132.9702195,緯度経度は怪しい
愛媛県,今治市,16,玉川町鈍川甲190-3玉川バス停上側三叉路,玉川バス停上側三叉路,33.989356,132.938515,緯度経度は怪しい
愛媛県,今治市,17,玉川町鈍川甲268-9鉱泉スタンドの下側,鉱泉スタンドの下側,33.9826645,132.9379628,緯度経度は怪しい
愛媛県,今治市,18,玉川町鈍川乙85-3越智進氏宅向側,masked,33.9921447,132.9376644,緯度経度は怪しい
愛媛県,今治市,19,玉川町鈍川丙184-1先新大野橋横の水道施設前,新大野橋横の水道施設前,33.9811948,132.956293,緯度経度は怪しい
愛媛県,今治市,20,玉川町鈍川丁518-5オソゴエ線との三叉路,オソゴエ線との三叉路,33.9811948,132.956293,緯度経度は怪しい
愛媛県,今治市,21,玉川町鈍川戊95-3先古屋之谷消防車庫下側,古屋之谷消防車庫下側,33.9811948,132.956293,緯度経度は怪しい
愛媛県,今治市,22,玉川町鈍川戊382-3先神子之森集会所向側,神子之森集会所向側,33.9811948,132.956293,緯度経度は怪しい
愛媛県,今治市,23,玉川町龍岡下甲227先山崎浩二氏宅向側,masked,33.9938337,132.9139192,緯度経度は怪しい
愛媛県,今治市,24,玉川町葛谷甲777先葛谷集会所向側,葛谷集会所向側,34.009006,132.895647,緯度経度は怪しい
愛媛県,今治市,25,玉川町龍岡下乙17-1先今治市営玉川艇庫上側,今治市営玉川艇庫上側,33.9924486,132.9149295,緯度経度は怪しい
愛媛県,今治市,26,玉川町龍岡上甲353-3先寺前バス停上側,寺前バス停上側,33.959098,132.9124955,緯度経度は怪しい
愛媛県,今治市,27,玉川町龍岡上甲675-1力石バス停前,力石バス停前,33.969243,132.903247,緯度経度は怪しい
愛媛県,今治市,1,松木349-1南中学校正門横ガ-ドパイプ,南中学校正門横ガードパイプ,34.0309165,133.0005562,
愛媛県,今治市,2,松木264-4地先松木団地前ガ-ドパイプ,松木団地前ガードパイプ,34.0341045,133.0059913,
愛媛県,今治市,3,松木110-1地先松木集会所前ガ-ドレ-ル,松木集会所前ガードレール,34.0290731,133.0021914,
愛媛県,今治市,4,町谷甲301町谷公園入口前ガ-ドパイプ,町谷公園入口前ガードパイプ,34.0238561,133.001364,緯度経度は怪しい
愛媛県,今治市,5,町谷甲346地先平山バス停留所ガ-ドレ-ル,平山バス停留所ガードレール,34.0234354,133.003079,緯度経度は怪しい
愛媛県,今治市,6,中寺1081付近メゾンド-ル中寺前ガ-ドパイプ,メゾンドール中寺前ガードパイプ,34.0442205,132.9848153,
愛媛県,今治市,7,新谷甲1303-5徳永洋一氏宅前フェンス,masked,34.0198706,132.9879012,
愛媛県,今治市,8,新谷甲1335-6地先五十嵐団地入口フェンス,五十嵐団地入口フェンス,34.029058,132.9881727,緯度経度は怪しい
愛媛県,今治市,9,五十嵐甲13-3清水小学校正門横,清水小学校正門横,34.0331907,132.9844412,
愛媛県,今治市,10,四村93-2清水公民館前,清水公民館前,34.0336806,132.9864111,
愛媛県,今治市,11,五十嵐甲148-6第1五十嵐台団地集会所跡地横ガ-ドレ-ル,第1五十嵐台団地集会所跡地横ガードレール,34.0256996,132.9845318,緯度経度は怪しい
愛媛県,今治市,12,片山4-14-2地先須橋上側水源地横ガ-ドパイプ,須橋上側水源地横ガードパイプ,34.050769,132.987952,緯度経度は怪しい
愛媛県,今治市,13,片山3-10-33バ-ドォ今治片山店横ガ-ドパイプ,バードォ今治片山店横ガードパイプ,34.0542475,132.9793932,緯度経度は怪しい
愛媛県,今治市,14,小泉4-11-28日高公民館前フェンス,日高公民館前フェンス,34.0473456,132.9795248,
愛媛県,今治市,15,別名409-5別名大坪広場フェンス,別名大坪広場フェンス,34.0434039,132.9749351,
愛媛県,今治市,16,高橋甲177-2大須木児童公園フェンス,大須木児童公園フェンス,34.0338523,132.9690127,緯度経度は怪しい
愛媛県,今治市,17,高橋甲1001-5本郷緑千村孝明氏宅横ガ-ドパイプ,masked,34.0367531,132.96439,緯度経度は怪しい
愛媛県,今治市,18,高橋甲1239-7地先天満宮横,天満宮横,34.0373727,132.9684523,緯度経度は怪しい
愛媛県,今治市,19,小泉4-5-1フジ今治店横ガ-ドパイプ,フジ今治店横ガードパイプ,34.0474416,132.9808366,
愛媛県,今治市,20,馬越町1-4-1馬越公園金網フェンス,馬越公園金網フェンス,34.0613039,132.9817715,緯度経度は怪しい
愛媛県,今治市,21,山路548西中第2グラウンドフェンス,西中第2グラウンドフェンス,34.0580478,132.9763627,緯度経度は怪しい
愛媛県,今治市,22,片山1-6地先玉井猛氏宅上側空き地ガ-ドパイプ,masked,34.0542475,132.9793932,緯度経度は怪しい
愛媛県,今治市,23,山路464-2地先阿部豊氏宅前ガ-ドレ-ル,masked,34.0610292,132.9750057,
愛媛県,今治市,24,矢田甲150-23地先矢田団地宮側入口ガ-ドレ-ル,矢田団地宮側入口ガードレール,34.0572283,132.9672365,緯度経度は怪しい
愛媛県,今治市,25,矢田甲360矢田団地集会所,矢田団地集会所,34.0560736,132.9648102,緯度経度は怪しい
愛媛県,今治市,26,阿方甲250-4地先リバ-サイド藤原前ガ-ドレ-ル,リバーサイド藤原前ガードレール,34.0634104,132.9671221,緯度経度は怪しい
愛媛県,今治市,27,宅間甲1273-4宅間集会所フェンス,masked,34.0727661,132.9459596,緯度経度は怪しい
愛媛県,今治市,28,神宮甲700-1地先神宮野間神社横ガ-ドレ-ル,神宮野間神社横ガードレール,34.0509592,132.9571442,緯度経度は怪しい
愛媛県,今治市,29,延喜甲237-5乃万公民館前ガ-ドレ-ル,乃万公民館前ガードレール,34.0649408,132.9588053,
愛媛県,今治市,30,野間甲858-3野間健康広場前ガ-ドレ-ル,野間健康広場前ガードレール,34.0605608,132.9465533,緯度経度は怪しい
愛媛県,今治市,31,延喜甲244-2乃万小学校正門横フェンス,乃万小学校正門横フェンス,34.06438,132.9573207,
愛媛県,今治市,32,宅間甲407地先吉田橋手前ガ-ドパイプ,吉田橋手前ガードパイプ,34.067915,132.941689,緯度経度は怪しい
愛媛県,今治市,33,しまなみヒルズ12-1地先しまなみヒルズ南側入口横断歩道付近縁石,しまなみヒルズ南側入口横断歩道付近縁石,34.067991,132.9731884,
愛媛県,今治市,34,波止浜1-2-13地先龍神社裏ガ-ドレ-ル,龍神社裏ガードレール,34.1065045,132.9730005,緯度経度は怪しい
愛媛県,今治市,35,高部甲150旭方公民館横フェンス,旭方公民館横フェンス,34.1018226,132.97398,緯度経度は怪しい
愛媛県,今治市,36,内堀2-184-1フジ波止浜店前ガ-ドパイプ,フジ波止浜店前ガードパイプ,34.1028739,132.966608,
愛媛県,今治市,37,地堀3-8波止浜地堀公園,波止浜地堀公園,34.106478,132.963976,
愛媛県,今治市,38,波方町郷甲1307-4地先小林田地前県道ガ-ドパイプ,小林田地前県道ガードパイプ,34.1101437,132.9580653,緯度経度は怪しい
愛媛県,今治市,39,波方町大浦甲1554-1地先浅海木工所前県道ガ-ドレ-ル,浅海木工所前県道ガードレール,34.114736,132.966099,緯度経度は怪しい
愛媛県,今治市,40,波止浜95-1元真鍋造機独身寮横ガ-ドレ-ル,元真鍋造機独身寮横ガードレール,34.1001295,132.9707509,
愛媛県,今治市,41,高部甲713-1地先打越池ガ-ドレ-ル,打越池ガードレール,34.0959413,132.9690389,
愛媛県,今治市,42,高部甲349-1地先尾鷲正志氏宅横ガ-ドパイプ,masked,34.0964888,132.9684523,
愛媛県,今治市,43,高部甲1622-2地先越智氏宅横ガ-ドパイプ,masked,34.0986769,132.9590547,緯度経度は怪しい
愛媛県,今治市,44,波止浜820高部集会所入口横フェンス前,高部集会所入口横フェンス前,34.1051395,132.9720995,
愛媛県,今治市,45,波止浜171地先越智義男氏宅前ガ-ドパイプ,masked,34.1001966,132.9678331,
愛媛県,今治市,1,大浜町3丁目24小糸池ガ-ドレ-ル,小糸池ガードレール,34.1006276,132.9812165,
愛媛県,今治市,2,大浜町1-4-1地先コスモ沖磯石油大浜SS横,コスモ沖磯石油大浜SS横,34.097698,132.984532,
愛媛県,今治市,3,大浜町2-3-28地先八幡前バス停付近,八幡前バス停付近,34.0991651,132.9831227,
愛媛県,今治市,4,砂場町1-4-8地先砂場埋立地,砂場埋立地,34.105822,132.97965,緯度経度は怪しい
愛媛県,今治市,5,日野349地先武田典彦氏宅横ガ-ドパイプ,masked,34.0210056,133.0400084,緯度経度は怪しい
愛媛県,今治市,6,桜井1-8-26桜井小学校正門横,桜井小学校正門横,34.0173173,133.0340055,緯度経度は怪しい
愛媛県,今治市,7,桜井3-6-8桜井公民館集会所,桜井公民館集会所,34.0187339,133.0358884,
愛媛県,今治市,8,長沢甲971-2渡部弘幸氏管理地,渡部弘幸氏管理地,33.996751,133.0413472,緯度経度は怪しい
愛媛県,今治市,9,長沢甲689長沢公民館前ガ-ドレ-ル,長沢公民館前ガードレール,33.9990515,133.0383869,緯度経度は怪しい
愛媛県,今治市,10,孫呂乙作甲237孫呂乙作バス停付近ガ-ドレ-ル,孫呂乙作バス停付近ガードレール,34.0662024,132.9977906,緯度経度は怪しい
愛媛県,今治市,11,国分2-5-26地先ビレッジハウス(国分農場新住吉)入口ガ-ドパイプ,ビレッジハウス（国分農場新住吉）入口ガードパイプ,34.0303034,133.020362,
愛媛県,今治市,12,国分3-1-46地先ひまわり幼稚園通入線横ガ-ドパイプ,ひまわり幼稚園通入線横ガードパイプ,34.0280871,133.0189913,
愛媛県,今治市,13,桜井団地4-3-2桜井団地バス停前フェンス,桜井団地バス停前フェンス,34.0241276,133.0151721,
愛媛県,今治市,14,国分6-2-2地先丹下計雄氏宅向県道ガ-ドパイプ,masked,34.02789509999999,133.0219188,緯度経度は怪しい
愛媛県,今治市,15,登畑甲41桜井保育所フェンス,桜井保育所フェンス,34.021914,133.0217458,緯度経度は怪しい
愛媛県,今治市,16,宮ケ崎甲853地先厳島神社公園ガ-ドパイプ,厳島神社公園ガードパイプ,34.0119527,133.0124504,緯度経度は怪しい
愛媛県,今治市,17,桜井1-甲83-1古国分公園緑地金網,古国分公園緑地金網,34.0309842,133.0370979,緯度経度は怪しい
愛媛県,今治市,18,桜井甲1074-5沖浦テニスコ-ト入口ガ-ドレ-ル,沖浦テニスコート入口ガードレール,34.01041670000001,133.0478912,緯度経度は怪しい
愛媛県,今治市,19,桜井4-13-7JA超智谷桜井支店横フェンス,JA超智谷桜井支店横フェンス,34.0198084,133.0379128,
愛媛県,今治市,20,郷桜井4-5-74地先明神橋横ガ-ドレ-ル,明神橋横ガードレール,34.01537820000001,133.0377049,緯度経度は怪しい
愛媛県,今治市,21,桜井5-11-44志々満集会所前ガ-ドパイプ,志々満集会所前ガードパイプ,34.0188139,133.0419922,緯度経度は怪しい
愛媛県,今治市,22,古国分2-乙181-2唐子台東入口ガ-ドパイプ,唐子台東入口ガードパイプ,34.0308395,133.0289017,緯度経度は怪しい
愛媛県,今治市,23,唐子台東3-23-6国分公民館横フェンス,国分公民館横フェンス,34.028523,133.030486,
愛媛県,今治市,24,唐子台東2-8-3唐子台中央公園,唐子台中央公園,34.0302375,133.0291365,
愛媛県,今治市,25,唐子台西3-3県営唐子台住宅5号棟下土手,masked,34.0300334,133.0261694,
愛媛県,今治市,26,唐子台西1-3-1企業組合社宅入口,masked,34.03385859999999,133.0258658,
愛媛県,今治市,27,喜田村7-1-6済生会病院東側ガ-ドパイプ,済生会病院東側ガードパイプ,34.0441098,133.0200616,
愛媛県,今治市,28,拝志8-37拝志美保神社前公園,拝志美保神社前公園,34.03964819999999,133.0268804,
愛媛県,今治市,29,喜田村5-4-39喜田村公園,喜田村公園,34.0460426,133.0240135,
愛媛県,今治市,30,喜田村3-4-30鍋川橋北側大村団地入口ガ-ドパイプ,鍋川橋北側大村団地入口ガードパイプ,34.0471438,133.0214918,
愛媛県,今治市,31,喜田村1-8-11丸正タオル敷ヶ内公園前ガ-ドパイプ,丸正タオル敷ヶ内公園前ガードパイプ,34.0454692,133.0207043,緯度経度は怪しい
愛媛県,今治市,32,喜田村2-1-10先サン・アビ前養登川沿いガ-ドレ-ル,サン・アビ前養登川沿いガードレール,34.0485866,133.0185852,
愛媛県,今治市,33,上徳甲61-1地先唐子大橋上側土手,唐子大橋上側土手,34.036461,133.0225498,緯度経度は怪しい
愛媛県,今治市,34,上徳甲394-4富田小学校裏門横フェンス,富田小学校裏門横フェンス,34.033785,133.0139057,
愛媛県,今治市,35,上徳乙290-1富田レクレ-ション広場フェンス右側,富田レクレーション広場フェンス右側,34.0338279,133.0119755,緯度経度は怪しい
愛媛県,今治市,36,上徳甲238-2近藤木工横ガ-ドレ-ル,近藤木工横ガードレール,34.0305575,133.0156263,緯度経度は怪しい
愛媛県,今治市,37,高市甲5942-2地先正光会今治病院前ガ-ドレ-ル,正光会今治病院前ガードレール,34.0267518,133.014368,
愛媛県,今治市,1,朝倉北甲397番地朝倉支所前,朝倉支所前,33.99854570000001,133.0162634,緯度経度は怪しい
愛媛県,今治市,2,朝倉南甲170番地1前上天皇橋上ガ-ドレ-ル,上天皇橋上ガードレール,33.9888211,133.0202476,緯度経度は怪しい
愛媛県,今治市,3,朝倉北甲633番地49前緑ヶ丘団地入り口,緑ヶ丘団地入り口,33.9993473,133.027651,緯度経度は怪しい
愛媛県,今治市,4,朝倉下甲529番地朝倉福祉センタ-前,朝倉福祉センター前,33.9993358,133.0166754,緯度経度は怪しい
愛媛県,今治市,5,朝倉下甲977番地7横臼坂ふるさと交流館横,臼坂ふるさと交流館横,34.0019768,133.0088232,緯度経度は怪しい
愛媛県,今治市,6,山口甲240番地根上がり松防前ガ-ドレ-ル,根上がり松防前ガードレール,34.0015834,133.0012679,緯度経度は怪しい
愛媛県,今治市,7,古谷甲1194番地前牛神古墳公園前,牛神古墳公園前,34.0129883,132.9973182,緯度経度は怪しい
愛媛県,今治市,8,朝倉上甲1256番地1高大寺集会所前,高大寺集会所前,33.9896158,133.0088642,緯度経度は怪しい
愛媛県,今治市,9,朝倉上甲1142番地4平林農協集荷場下,平林農協集荷場下,33.9834859,133.0143834,緯度経度は怪しい
愛媛県,今治市,10,朝倉上甲798番地1JA上朝倉支店前,JA上朝倉支店前,33.9767689,133.007446,緯度経度は怪しい
愛媛県,今治市,11,朝倉上甲330番地5臼地集会所前,臼地集会所前,33.9787063,133.0224501,緯度経度は怪しい
愛媛県,今治市,12,朝倉上甲232番地峠地区入口,峠地区入口,33.9739896,132.989179,緯度経度は怪しい
愛媛県,今治市,13,朝倉上甲2385番地3太之原公民館前,太之原公民館前,33.9782831,133.0168138,緯度経度は怪しい
愛媛県,今治市,14,朝倉上甲2462番地2清水交差点団地入口,清水交差点団地入口,33.9783288,133.0226981,緯度経度は怪しい
愛媛県,今治市,15,朝倉上甲2755番地3山越集会所前,山越集会所前,33.9749514,133.0279548,緯度経度は怪しい
愛媛県,今治市,16,朝倉上甲494番地浅地バス停留所前,浅地バス停留所前,33.9787063,133.0224501,緯度経度は怪しい
愛媛県,今治市,1,伯方町木浦甲4524番地15先バイオ愛媛横前道沿いガ-ドレ-ル,バイオ愛媛横前道沿いガードレール,34.2138979,133.1226161,緯度経度は怪しい
愛媛県,今治市,2,伯方町木浦甲870番地30古江集会所フェンス,古江集会所フェンス,34.2144754,133.1155526,緯度経度は怪しい
愛媛県,今治市,3,伯方町木浦甲1213番地1先元伯方支所駐車場ガ-ドパイプ,元伯方支所駐車場ガードパイプ,34.2042538,133.1132929,緯度経度は怪しい
愛媛県,今治市,4,伯方町木浦甲1463番地1みんなの広場(新荘止り)フェンス,みんなの広場(新荘止り)フェンス,34.2059826,133.1190588,緯度経度は怪しい
愛媛県,今治市,5,伯方町木浦甲3136番地1先久保の池県道沿いガ-ドパイプ,久保の池県道沿いガードパイプ,34.2045999,133.1117129,
愛媛県,今治市,6,伯方町木浦甲3930番地1先伯方福祉センタ-前ガ-ドパイプ,伯方福祉センター前ガードパイプ,34.2117958,133.1128593,緯度経度は怪しい
愛媛県,今治市,7,伯方町有津甲2320番地先mac駐車場前ガ-ドパイプ,mac駐車場前ガードパイプ,34.2030048,133.1011428,緯度経度は怪しい
愛媛県,今治市,8,伯方町有津甲2341番地みんなの広場(有津)堀木橋,みんなの広場（有津）堀木橋,34.2076089,133.0995878,緯度経度は怪しい
愛媛県,今治市,9,伯方町有津甲921番地1元有津小学校フェンス,元有津小学校フェンス,34.2049819,133.0941511,緯度経度は怪しい
愛媛県,今治市,10,伯方町有津甲1550番地1カットハウスコル横果樹園フェンス,カットハウスコル横果樹園フェンス,34.2023718,133.0914575,緯度経度は怪しい
愛媛県,今治市,11,伯方町有津甲1666番地28先(有)大喜前歩道側ガ-ドパイプ,(有)大喜前歩道側ガードパイプ,34.2076089,133.0995878,緯度経度は怪しい
愛媛県,今治市,12,伯方町有津甲1668番地1先マリオンオスはかた前歩道側ガ-ドパイプ,マリオンオスはかた前歩道側ガードパイプ,34.20002540000001,133.0887077,緯度経度は怪しい
愛媛県,今治市,13,伯方町伊方甲133番地1先村上歯科医院裏県道沿いガ-ドレ-ル,村上歯科医院裏県道沿いガードレール,34.2283344,133.077585,緯度経度は怪しい
愛媛県,今治市,14,伯方町伊方甲1630番地先夫婦池県道沿いガ-ドパイプ,夫婦池県道沿いガードパイプ,34.2202694,133.0704759,緯度経度は怪しい
愛媛県,今治市,15,伯方町伊方甲1937番地1ハス池歩道側ガ-ドパイプ,ハス池歩道側ガードパイプ,34.2202694,133.0704759,緯度経度は怪しい
愛媛県,今治市,16,伯方町北浦乙161番地1先山戸喜久雄氏宅横県道緑地帯,masked,34.2269587,133.1020131,緯度経度は怪しい
愛媛県,今治市,17,伯方町北浦甲2178番地伯方農村環境改善センタ-フェンス,伯方農村環境改善センターフェンス,34.2263139,133.0948492,緯度経度は怪しい
愛媛県,今治市,18,伯方町北浦甲1270番地1先野間輝氏宅横空き地前ガ-ドパイプ,masked,34.2307449,133.1013698,緯度経度は怪しい
愛媛県,今治市,19,伯方町北浦甲1351番地18先北浦御旅所前ガ-ドレ-ル,北浦御旅所前ガードレール,34.2324056,133.097883,緯度経度は怪しい
愛媛県,今治市,20,伯方町北浦甲2727番地1先元西伯方中学校前県道沿いガ-ドパイプ,元西伯方中学校前県道沿いガードパイプ,34.2297479,133.0909814,緯度経度は怪しい
愛媛県,今治市,1,上浦町瀬戸5416番地5出走集会所前,出走集会所前,34.2145254,133.0441333,緯度経度は怪しい
愛媛県,今治市,2,上浦町瀬戸2755番地地先浅海博氏宅前,masked,34.2250669,133.0437752,緯度経度は怪しい
愛媛県,今治市,3,上浦町瀬戸2537番地曽我写真店下,曽我写真店下,34.2250669,133.0437752,緯度経度は怪しい
愛媛県,今治市,4,上浦町瀬戸1399番地1瀬戸神社前,瀬戸神社前,34.2297327,133.0509308,緯度経度は怪しい
愛媛県,今治市,5,上浦町甘崎2194番地3岡田一夫氏宅横,masked,34.2394644,133.0517642,緯度経度は怪しい
愛媛県,今治市,6,上浦町甘崎3723番地2大原老人憩の家,大原老人憩の家,34.2384212,133.042287,緯度経度は怪しい
愛媛県,今治市,7,上浦町甘崎871番地水場集会所,水場集会所,34.246003,133.05085,緯度経度は怪しい
愛媛県,今治市,8,上浦町甘崎377番地2水場川尻,水場川尻,34.2419992,133.0413472,
愛媛県,今治市,9,上浦町井口7334番地2旧菅医院横,旧菅医院横,34.2655748,133.0340624,緯度経度は怪しい
愛媛県,今治市,10,上浦町井口6554番地2地先井ノ口橋横,井ノ口橋横,34.2655748,133.0340624,緯度経度は怪しい
愛媛県,今治市,11,上浦町井口4166番地地先ひまわり美容院横,ひまわり美容院横,34.2655748,133.0340624,緯度経度は怪しい
愛媛県,今治市,12,上浦町井口5284番地3井口港,井口港,34.2660265,133.0426656,緯度経度は怪しい
愛媛県,今治市,13,上浦町井口3826番地2地先明代駅前(藤田豆腐店前),明代駅前(藤田豆腐店前),34.2655748,133.0340624,緯度経度は怪しい
愛媛県,今治市,14,上浦町井口3865番地5上浦ふれあい広場フェンス,上浦ふれあい広場フェンス,34.2680473,133.032557,緯度経度は怪しい
愛媛県,今治市,15,上浦町盛2815番地地先景浦文則氏宅前,masked,34.2888333,133.0170605,
愛媛県,今治市,16,上浦町盛2643番地旧上浦盛研修センタ-,旧上浦盛研修センター,34.2912029,133.0258609,緯度経度は怪しい
愛媛県,今治市,17,上浦町盛3852番地13盛港公園フェンス,盛港公園フェンス,34.2926998,133.0285018,緯度経度は怪しい
愛媛県,今治市,18,上浦町盛2177番地3徳永商店横,徳永商店横,34.2888333,133.0170605,
愛媛県,今治市,19,大三島町肥海1036番地1地先藤原勇様宅前ガ-ドレ-ル,masked,34.2733779,132.9951926,緯度経度は怪しい
愛媛県,今治市,20,大三島町肥海1501番地1地先防火水槽横フェンス,防火水槽横フェンス,34.2733779,132.9951926,緯度経度は怪しい
愛媛県,今治市,21,大三島町肥海3780番地肥海集会所,肥海集会所,34.2733779,132.9951926,緯度経度は怪しい
愛媛県,今治市,22,大三島町肥海1265番地1旧肥海保育園横フェンス,旧肥海保育園横フェンス,34.2733779,132.9951926,緯度経度は怪しい
愛媛県,今治市,23,大三島町大見3283番地2旧JA大見支店横ガ-ドパイプ,旧JA大見支店横ガードパイプ,34.25934489999999,132.9922762,緯度経度は怪しい
愛媛県,今治市,24,大三島町明日199番地先高橋俊宏氏宅前ガ-ドパイプ,masked,34.2531139,132.9971563,緯度経度は怪しい
愛媛県,今治市,25,大三島町宮浦5653番地先本川橋横ガ-ドパイプ,本川橋横ガードパイプ,34.2467944,133.0146312,緯度経度は怪しい
愛媛県,今治市,26,大三島町宮浦3299番地2大三島ジョイハ-ズ駐車場前ガ-ドパイプ,大三島ジョイハーズ駐車場前ガードパイプ,34.2467944,133.0146312,緯度経度は怪しい
愛媛県,今治市,27,大三島町宮浦5402番地先伊予銀行横積込み,伊予銀行横積込み,34.2474442,132.9984266,緯度経度は怪しい
愛媛県,今治市,28,大三島町宮浦5101番地大三島小学校フェンス,大三島小学校フェンス,34.2461768,133.0008819,緯度経度は怪しい
愛媛県,今治市,29,大三島町台378番地1菅千里氏管理地,菅千里氏管理地,34.2316452,133.0024829,緯度経度は怪しい
愛媛県,今治市,30,大三島町宮浦6956番地1地先西林寺(深山地区)横ガ-ドレ-ル,西林寺(深山地区)横ガードレール,34.2467944,133.0146312,緯度経度は怪しい
愛媛県,今治市,31,大三島町野々江2418番地2地先市道六ノ坂線ガ-ドパイプ,市道六ノ坂線ガードパイプ,34.2206867,132.9890889,緯度経度は怪しい
愛媛県,今治市,32,大三島町野々江666番地ゲ-トボ-ル場横ガ-ドパイプ,ゲートボール場横ガードパイプ,34.2177716,132.9858333,緯度経度は怪しい
愛媛県,今治市,33,大三島町野々江8096番地先坂集会所農県道ガ-ドレ-ル,坂集会所農県道ガードレール,34.2140555,132.9854705,緯度経度は怪しい
愛媛県,今治市,34,大三島町野々江5504番地先甲口集会所前ガ-ドレ-ル,甲口集会所前ガードレール,34.1977802,132.9767068,緯度経度は怪しい
愛媛県,今治市,35,大三島町口総1647番地先市道長瀬線,市道長瀬線,34.2170522,132.9733152,
愛媛県,今治市,36,大三島町口総1401番地1地先市道下ノ浜谷条線ガ-ドレ-ル,市道下ノ浜谷条線ガードレール,34.2170522,132.9733152,
愛媛県,今治市,37,大三島町浦戸873番地先浦戸集会所前ガ-ドパイプ,浦戸集会所前ガードパイプ,34.2184931,132.961749,緯度経度は怪しい
愛媛県,今治市,38,大三島町浦戸1019番地先藤原至誠氏宅下ガ-ドパイプ,masked,34.21853979999999,132.9596573,
愛媛県,今治市,39,大三島町宗方2732番地先奥本忠孝氏宅下ガ-ドレ-ル,masked,34.1994465,132.956293,緯度経度は怪しい
愛媛県,今治市,40,大三島町宗方3276番地先マルダイ下ガ-ドレ-ル,マルダイ下ガードレール,34.2044064,132.9554621,緯度経度は怪しい
愛媛県,今治市,41,大三島町宗方1211番地宗方バス停前ガ-ドレ-ル,宗方バス停前ガードレール,34.2048452,132.9510959,緯度経度は怪しい
愛媛県,今治市,42,大三島町宗方4386番地2地先菅喜代人氏宅前ガ-ドパイプ,masked,34.200259,132.9539145,緯度経度は怪しい
愛媛県,今治市,1,波方町樋口甲1237地先沢バス停横県道,沢バス停横県道,34.0991594,132.9371062,緯度経度は怪しい
愛媛県,今治市,2,波方町樋口甲250地先今治市波方支所前県道,今治市波方支所前県道,34.0975598,132.9515994,緯度経度は怪しい
愛媛県,今治市,3,波方町樋口甲2034の1地先門樋バス停付近県道,門樋バス停付近県道,34.0998954,132.9554379,緯度経度は怪しい
愛媛県,今治市,4,波方町養老甲803の1地先波方小学校前市道,波方小学校前市道,34.10482090000001,132.9458943,緯度経度は怪しい
愛媛県,今治市,5,枌田甲153番地田窪重利氏宅下側ガ-ドレ-ル,masked,34.0662024,132.9977906,
愛媛県,今治市,6,波方町波方甲1614の1地先玉生八幡神社前県道,玉生八幡神社前県道,34.1205765,132.9556525,緯度経度は怪しい
愛媛県,今治市,7,波方町波方甲2622の28波方港湾埋立地入口,波方港湾埋立地入口,34.1256255,132.9523596,緯度経度は怪しい
愛媛県,今治市,8,波方町波方甲2003の3地先波方消防詰所前市道,波方消防詰所前市道,34.1209813,132.9538608,緯度経度は怪しい
愛媛県,今治市,9,波方町小部甲832の2小部老人福祉センタ-,小部老人福祉センター,34.10685550000001,132.9289654,緯度経度は怪しい
愛媛県,今治市,10,波方町小部甲491の3地先小部公民館前県道,小部公民館前県道,34.1045435,132.9309774,緯度経度は怪しい
愛媛県,今治市,11,波方町小部甲153の10小部グラウンド,小部グラウンド,34.1027677,132.9286603,
愛媛県,今治市,12,波方町岡甲277の1地先小部バイパス道路県道,小部バイパス道路県道,34.106813,132.930154,緯度経度は怪しい
愛媛県,今治市,13,波方町馬刀潟甲62の2地先渡部信行氏宅前県道,masked,34.1147996,132.9234484,
愛媛県,今治市,14,波方町宮崎甲363の1地先しんたく屋酒店横県道,しんたく屋酒店横県道,34.1168236,132.9003228,緯度経度は怪しい
愛媛県,今治市,15,波方町西浦甲3298の1地先小池和政氏宅前県道,masked,34.1265335,132.936532,緯度経度は怪しい
愛媛県,今治市,16,波方町森上甲580の2地先森野安男氏宅前県道,masked,34.1196893,132.9331823,
愛媛県,今治市,17,大西町宮脇甲506-1地先大西支所前ガ-ドレ-ル,大西支所前ガードレール,34.060302,132.9252007,緯度経度は怪しい
愛媛県,今治市,18,大西町新町甲795-2大西体育館前ガ-ドパイプ,大西体育館前ガードパイプ,34.064295,132.925167,緯度経度は怪しい
愛媛県,今治市,19,大西町新町甲447-1元大西町役場庁舎敷地,元大西町役場庁舎敷地,34.0656374,132.930132,
愛媛県,今治市,20,大西町宮脇甲73-174先衣黒運動場入口前ガ-ドパイプ,衣黒運動場入口前ガードパイプ,34.0580549,132.9232018,緯度経度は怪しい
愛媛県,今治市,21,大西町脇甲844-3先越智商会横ガ-ドレ-ル,越智商会横ガードレール,34.0559293,132.9149297,緯度経度は怪しい
愛媛県,今治市,22,大西町脇甲23-3地先片上英士氏宅横ガ-ドレ-ル,masked,34.062422,132.917451,緯度経度は怪しい
愛媛県,今治市,23,大西町星浦甲82-2先星浦団地前ガ-ドレ-ル,星浦団地前ガードレール,34.0609478,132.9079818,緯度経度は怪しい
愛媛県,今治市,24,大西町別府398-1別府農村公園,別府農村公園,34.0597774,132.895453,
愛媛県,今治市,25,大西町九王甲833-1先檜垣政廣氏宅前ガ-ドレ-ル,masked,34.0862206,132.9293612,緯度経度は怪しい
愛媛県,今治市,26,大西町九王甲1480先無人朝市横,無人朝市横,34.0814739,132.9295323,緯度経度は怪しい
愛媛県,今治市,27,大西町新町甲1051-3鳥越住宅前ガ-ドパイプ,masked,34.0693159,132.9234484,緯度経度は怪しい
愛媛県,今治市,28,大西町九王甲2390-1先どっく駐車場ガ-ドパイプ,どっく駐車場ガードパイプ,34.0814739,132.9295323,緯度経度は怪しい
