prefecture,city,number,address,name,lat,long,note
愛媛県,宇和島市,1,堀端町1番25号,中央公民館,33.2255574,132.5663401,緯度経度は怪しい
愛媛県,宇和島市,2,丸之内1丁目3番,宇和島自動車（株）第2車庫,33.2193799,132.5655036,
愛媛県,宇和島市,3,丸之内5丁目3番,宇和島信用金庫駐車場,33.2220049,132.5646707,
愛媛県,宇和島市,4,中央町1丁目5番1号,masked,33.2199156,132.5684807,
愛媛県,宇和島市,5,中央町2丁目1番,中央町児童公園,33.2221734,132.5688827,
愛媛県,宇和島市,6,新町1丁目2番21号,元NTT宇和島支店（東側鉄柵）,33.2229104,132.567572,
愛媛県,宇和島市,7,新町1丁目2番21号,元NTT宇和島支店（西側鉄柵）,33.2229104,132.567572,
愛媛県,宇和島市,8,桝形町3丁目1番24号,桝形町排水ポンプ場,33.2203729,132.5606882,
愛媛県,宇和島市,9,明倫町1丁目1番16号,四国ガス（株）宇和島支店,33.2186514,132.5570883,
愛媛県,宇和島市,10,明倫町5丁目1番13号,ヨコイ株式会社,33.2179343,132.5571532,
愛媛県,宇和島市,11,坂下津甲347番地7,坂下津児童遊園東側,33.2204587,132.5459328,緯度経度は怪しい
愛媛県,宇和島市,12,佐伯町2丁目3番35号,市立宇和島病院佐伯町医師住宅,33.2145949,132.560468,
愛媛県,宇和島市,13,桜町1番50号,宇和島市医師会,33.2149256,132.5648481,
愛媛県,宇和島市,14,御殿町1番1号,市立宇和島病院駐車場（院内道路側）,33.2161026,132.5649388,
愛媛県,宇和島市,15,御殿町1番1号,市立宇和島病院駐車場（表通り側）,33.2161026,132.5649388,
愛媛県,宇和島市,16,丸之内2丁目3番5号,元JT宇和島営業所,33.2180731,132.5646754,
愛媛県,宇和島市,17,天赦公園,天赦公園東側,33.2161122,132.5610711,
愛媛県,宇和島市,18,文京町2番1号,市立鶴鳥小学校東側角,33.2185376,132.5599223,
愛媛県,宇和島市,19,神田川原83番地2（神田川原2区）,御通橋横,33.213886,132.5640607,
愛媛県,宇和島市,20,賀古町2丁目1番37号,JCHO宇和島病院南側,33.215969,132.5696632,
愛媛県,宇和島市,21,京町1番24号,鶴城幼稚園,33.2160241,132.5686254,
愛媛県,宇和島市,22,賀古町2丁目1番37号,JCHO宇和島病院入口横駐車場,33.215969,132.5696632,
愛媛県,宇和島市,23,妙典寺前乙640番地,市立宇和津小学校正門横,33.2121641,132.5686099,
愛媛県,宇和島市,24,京町3番7号先,神田橋横,33.2145259,132.5664986,
愛媛県,宇和島市,25,野川甲1157番地先,能華橋横,33.216971,132.5741672,緯度経度は怪しい
愛媛県,宇和島市,26,野川甲1243番地（3区）,徳岡月極駐車場,33.2177915,132.5778016,緯度経度は怪しい
愛媛県,宇和島市,27,弁天町1丁目3番19号,宇和島倉庫株式会社,33.2239015,132.5586346,
愛媛県,宇和島市,28,弁天町3丁目6番,弁天町児童遊園,33.2248316,132.5562457,
愛媛県,宇和島市,29,寿町1丁目2番,モータープール,33.2252733,132.5623731,
愛媛県,宇和島市,30,寿町2丁目2番,寿町二児童遊園,33.2234778,132.5594627,
愛媛県,宇和島市,31,栄町港1丁目5番1号,小林魚網店前,33.2228443,132.5640006,
愛媛県,宇和島市,32,弁天町1丁目きさいや広場前,きさいや広場前,33.2225573,132.5582212,
愛媛県,宇和島市,33,栄町港3丁目3番,JAえひめ南農協駐車場(国道側),33.224569,132.5626795,
愛媛県,宇和島市,34,曙町1番地,市役所北東角,33.2234957,132.5604658,
愛媛県,宇和島市,35,丸穂町4丁目1番24号先,古川橋元,33.2229062,132.5690427,
愛媛県,宇和島市,36,大宮町3丁目4番10号,天神小学校登り口,33.2222997,132.5715358,
愛媛県,宇和島市,37,丸穂町3丁目2番30号,済美保育園付近,33.2242478,132.5686115,
愛媛県,宇和島市,38,錦町10番,JR宇和島運転区東側,33.2253353,132.5673836,
愛媛県,宇和島市,39,天神町4番43号,宇和島年金事務所,33.2269622,132.5698831,
愛媛県,宇和島市,40,和霊元町1丁目7番,JR駐車場(大須自転車商会前),33.226609,132.5674484,
愛媛県,宇和島市,41,和霊中町1丁目3番,片山酒店前JRモータープール,33.2288486,132.570108,
愛媛県,宇和島市,42,和霊東町3丁目1番1号,和霊公民館,33.2310798,132.5727498,
愛媛県,宇和島市,43,和霊公園,和霊公園国道筋西角,33.2283531,132.5658195,
愛媛県,宇和島市,44,和霊公園,和霊公園国道筋東角,33.2283531,132.5658195,
愛媛県,宇和島市,45,和霊町134番地1(西通1区),市立城北中学校正門横,33.232618,132.566279,
愛媛県,宇和島市,46,伊吹町1565番地1(北宇和島町),東洋車両株式会社,33.2369605,132.5676203,
愛媛県,宇和島市,47,伊吹町甲1179番地1先(北宇和島町),福山通運㈱宇和島営業所前,33.2378012,132.569463,緯度経度は怪しい
愛媛県,宇和島市,48,泉町2丁目2番830－1,ヤマト運輸㈱宇和島営業所,33.2337536,132.5720088,
愛媛県,宇和島市,49,伊吹町421番(東通2区),旧県太平洋大学短期大学部正門横,33.2358179,132.5737334,
愛媛県,宇和島市,50,伊吹町466番地14(東通4区),中畑第2マンション,33.2347745,132.5764826,
愛媛県,宇和島市,51,柿原1290番地1(1区),四国電力柿原アパート前,33.2367058,132.5829174,
愛媛県,宇和島市,52,柿原1741番地先(1区),柿原バス終点手前(国道320号三叉路),33.2400256,132.5863375,
愛媛県,宇和島市,53,柿原237番地(2区),メゾン・ド・エスペランス前,33.2385517,132.5794403,緯度経度は怪しい
愛媛県,宇和島市,54,柿原1059番地(2区),前田ドライあんこ本舗,33.2374773,132.5808487,
愛媛県,宇和島市,55,伊吹町1008番地2(北通2区),伊吹町地前,33.2373743,132.5753147,
愛媛県,宇和島市,56,朝日町4丁目5番25号,認定こども園いぶき幼稚園,33.2270984,132.5595653,
愛媛県,宇和島市,57,朝日町3丁目1番,三原産業㈱モータープール,33.2254853,132.5606307,
愛媛県,宇和島市,58,住吉町1丁目6番16号,宇和島市総合福祉センター,33.2259295,132.5581013,
愛媛県,宇和島市,59,住吉町1丁目5番26号,宇和島市住吉ポンプ場,33.2276787,132.5578542,
愛媛県,宇和島市,60,住吉町1丁目5番,浅鶴南側入口,33.2276787,132.5578542,
愛媛県,宇和島市,61,住吉町3丁目1番17号横,南予通運宇和島支店横駐車場前,33.2280951,132.5531052,
愛媛県,宇和島市,62,大浦甲46番地2(1区),masked,33.2348219,132.5538997,緯度経度は怪しい
愛媛県,宇和島市,63,大浦甲252番地5(2区),旧大浦保育園跡地,33.2393306,132.5525755,緯度経度は怪しい
愛媛県,宇和島市,64,大浦甲1668番地4先(3区),スーパーせいけ前,33.2416266,132.5498544,緯度経度は怪しい
愛媛県,宇和島市,65,大浦甲208番地58(3区),大浦自治会館,33.2376434,132.5530381,緯度経度は怪しい
愛媛県,宇和島市,66,大浦甲2238番地先(赤松),赤松公民館横,33.2384038,132.5368726,緯度経度は怪しい
愛媛県,宇和島市,67,新田町1丁目1番34号先,コーポ阿武前(陸橋横ガードフェンス),33.2131362,132.5595065,
愛媛県,宇和島市,68,新田町1丁目2番30号,沖循環器科・内科ブロック塀,33.212058,132.5591033,
愛媛県,宇和島市,69,新田町3丁目3番1号,市立城東中学校正門右横,33.2123946,132.5574055,
愛媛県,宇和島市,70,山際４丁目４番１４号,山際集会所,33.2090019,132.5586947,
愛媛県,宇和島市,71,川内甲６７０番地１先(本川内),本川内集会所前,33.2022673,132.5620175,緯度経度は怪しい
愛媛県,宇和島市,72,長堀１丁目８番２号,宇和島市水道局第１集水場,33.2088441,132.5529807,
愛媛県,宇和島市,73,長堀１丁目１番５０号,借家,33.2101198,132.5562745,
愛媛県,宇和島市,74,長堀３丁目５番１２号先,こばやし児科前,33.2081929,132.5507879,
愛媛県,宇和島市,75,保手２丁目５番３１号先,内平川第２橋近く,33.2118443,132.5511709,
愛媛県,宇和島市,76,保手２丁目２番１号先,保手橋近く来村川,33.2124527,132.5529899,
愛媛県,宇和島市,77,別当２丁目５番(別当団地),別当公営住宅団地前,33.2099084,132.5474363,
愛媛県,宇和島市,78,中沢町２丁目４番２号,オートパルえひめ内本社工場,33.2058631,132.5553726,
愛媛県,宇和島市,79,高串２番耕地１３４番地１(家藤),高松公民館前,33.2629551,132.5703141,緯度経度は怪しい
愛媛県,宇和島市,80,光満甲１３番地３先(江ノ組),(有)四国サービスバッテリー事業部横,33.2549409,132.5765547,緯度経度は怪しい
愛媛県,宇和島市,81,光満甲１４６番地先(日ノ組),梅林ロバス停横,33.25906860000001,132.5800205,緯度経度は怪しい
愛媛県,宇和島市,82,高串１番耕地５０８番地１先(下高串),根無川バス停横,33.2446923,132.5698809,緯度経度は怪しい
愛媛県,宇和島市,83,木九島１２３４番地４,九島開発総合センター(裏側),33.2291203,132.5239884,緯度経度は怪しい
愛媛県,宇和島市,84,百之浦１２６２番地６,旧九島小学校,33.22343350000001,132.5260148,緯度経度は怪しい
愛媛県,宇和島市,85,蛤３１９番地先(１区),畑,33.2243207,132.5313761,緯度経度は怪しい
愛媛県,宇和島市,86,白浜２４５番地先,白浜バス停横,33.2134221,132.5257343,緯度経度は怪しい
愛媛県,宇和島市,87,石応１１５１番地(１区),石応公民館,33.2132975,132.5205552,緯度経度は怪しい
愛媛県,宇和島市,88,石応１３３６番地(２区),masked,33.2137197,132.5167953,緯度経度は怪しい
愛媛県,宇和島市,89,小浜２１９２番地１４先(大小浜),大小浜集会所横(大小浜児童遊園),33.2053534,132.5067309,緯度経度は怪しい
愛媛県,宇和島市,90,小池１６７９番地(小池),旧宇和島市立小池小学校正門横,33.200147,132.5048525,緯度経度は怪しい
愛媛県,宇和島市,91,藤８０２番地２先,平浦ロバス停横,33.2235707,132.560384,緯度経度は怪しい
愛媛県,宇和島市,92,三浦東１３５３番地１(船隠),三浦分団第１部消防車庫向い,33.1833677,132.5098504,緯度経度は怪しい
愛媛県,宇和島市,93,三浦東２２４９番地先(天満),三浦分団第２部消防話所前付近,33.1732791,132.5143983,緯度経度は怪しい
愛媛県,宇和島市,94,三浦西３５６６番地２(豊浦),浦公民館(三浦農村婦人の家),33.170943,132.5004915,緯度経度は怪しい
愛媛県,宇和島市,95,三浦西１３０１番地先(大内),堀切バス停横,33.1668252,132.4803134,緯度経度は怪しい
愛媛県,宇和島市,96,三浦西９８６番地(安米),安米児童遊園,33.1700802,132.476717,緯度経度は怪しい
愛媛県,宇和島市,97,夏目町１丁目１番２８号,宇和島市水道局宮下浄水場,33.2076112,132.5550776,
愛媛県,宇和島市,98,川内甲１４７０番地１先(川内１区),愛媛トヨタOPTown宇和島横,33.2046957,132.555767,
愛媛県,宇和島市,99,川内甲１７８２番地９先(薬師谷団地),薬師谷団地南バス停(青光橋横),33.194857,132.561712,緯度経度は怪しい
愛媛県,宇和島市,100,川内甲１８２９番地先(薬師谷),薬師谷バス停横(集会所横),33.1947469,132.5608115,緯度経度は怪しい
愛媛県,宇和島市,101,保田甲９９７−１(保田),コーナンホームストック宇和島店(北側入口),33.1931032,132.546377,
愛媛県,宇和島市,102,寄松甲２０６番地(寄松),エースワン宇和島店,33.2033359,132.5527425,
愛媛県,宇和島市,103,宮下甲２０１番地(宮下),市立奨励小学校正門横,33.2001981,132.549698,
愛媛県,宇和島市,104,宮下甲９４２番地先(宮下),府下橋近く若宮太陽線,33.2051858,132.5499457,緯度経度は怪しい
愛媛県,宇和島市,105,祝森１７３５番地３,豊田冷機工業(株),33.1753029,132.5518767,
愛媛県,宇和島市,106,祝森甲３０００番地３,祝森公民館,33.1741559,132.5513701,緯度経度は怪しい
愛媛県,宇和島市,107,祝森９７７番地１横,ジョイフル宇和島祝森店横,33.1824211,132.5490735,緯度経度は怪しい
愛媛県,宇和島市,108,遊子４４３３番地先(矢の浦),矢の浦集会所横(ゲートボール場),33.1883826,132.4580257,緯度経度は怪しい
愛媛県,宇和島市,109,遊子３８３２番地先(甘崎),masked,33.1921447,132.4542269,
愛媛県,宇和島市,110,遊子３６２４番地(番匠),市立遊子小学校,33.1938746,132.4549831,緯度経度は怪しい
愛媛県,宇和島市,111,遊子３０４３番地先(魚泊),魚泊バス停横,33.1981673,132.4563088,緯度経度は怪しい
愛媛県,宇和島市,112,遊子２３２３番地２(水ヶ浦),水ヶ浦集会所(水荷浦集会所)左横公園,33.2058818,132.4557602,緯度経度は怪しい
愛媛県,宇和島市,113,遊子１１０５番地(津の浦),津の浦集会所,33.2014638,132.4430038,緯度経度は怪しい
愛媛県,宇和島市,114,下波１０１６番地(柿の浦),市役所平和海支所,33.1917854,132.4448014,緯度経度は怪しい
愛媛県,宇和島市,115,下波２９５２番地１(東),旧市立宇和海中学校,33.169496,132.4638816,緯度経度は怪しい
愛媛県,宇和島市,116,下波３７４０番地(結出),市立結出小学校正門横,33.1679624,132.4596096,緯度経度は怪しい
愛媛県,宇和島市,117,下波４４８７番地(島津),島津集会所前公園,33.1714382,132.4518448,緯度経度は怪しい
愛媛県,宇和島市,118,下波５４０９番地(狩津),狩津集会所,33.1678389,132.4422396,緯度経度は怪しい
愛媛県,宇和島市,119,将満１６３９番地(宮市),宇和島市役所将満出張所右横空き地 (位置情報が見つかりませんでした),33.2235707,132.560384,
愛媛県,宇和島市,120,将満７６３番地先(高助),高助集会所前 (位置情報が見つかりませんでした),33.20037,132.403176,緯度経度は怪しい
愛媛県,宇和島市,121,将満２６３３番地先(大島),JAえひめ南農協大島委託店前 (位置情報が見つかりませんでした),33.1864,132.4028,緯度経度は怪しい
愛媛県,宇和島市,122,将満３３４５番地先(矢ヶ浜),駐車場 (位置情報が見つかりませんでした),33.2012105,132.3937757,緯度経度は怪しい
愛媛県,宇和島市,123,戸島２０５１番地(木浦),市立戸島保育所,33.19821930000001,132.3594972,緯度経度は怪しい
愛媛県,宇和島市,124,戸島２４９７番地(小内浦),小内浦集会所,33.2035621,132.3687431,緯度経度は怪しい
愛媛県,宇和島市,125,戸島３９７８番地先(嘉島),masked,33.2271487,132.3630429,緯度経度は怪しい
愛媛県,宇和島市,126,日振島１７１２番地(明海),市立日振島保育所,33.1725174,132.2933437,緯度経度は怪しい
愛媛県,宇和島市,127,日振島３２４２番地(喜路),JAえひめ南農協喜路出張所,33.1518822,132.3063562,緯度経度は怪しい
愛媛県,宇和島市,128,日振島２番耕地１０７２番地(能登),能登児童遊園,33.152778,132.330262,緯度経度は怪しい
愛媛県,宇和島市,129,吉田町稲明19番地5地先横(本町1区),1－3消防防所横花壇,33.2235707,132.560384,緯度経度は怪しい
愛媛県,宇和島市,130,吉田町本町84番地(本町3区),裏,33.2739497,132.542782,
愛媛県,宇和島市,131,吉田町魚棚35番地1(魚棚2区),魚棚1、2集会所,33.2757419,132.5413743,
愛媛県,宇和島市,132,吉田町魚棚67番地(魚棚3区),住吉神社,33.2739406,132.5407992,
愛媛県,宇和島市,133,吉田町北小路甲217(北小路3区),市立吉田中学校南側,33.2825007,132.5411672,
愛媛県,宇和島市,134,吉田町東小路甲70番地(東小路2区),吉田支所跡地鋳銅像前,33.2797907,132.540199,
愛媛県,宇和島市,135,吉田町東小路甲170番地2横(桜丁),桜橋横(有才地)+大栄ビル隣地,33.2773649,132.5404148,
愛媛県,宇和島市,136,吉田町東小路甲106番地(西小路),宇和島市役所吉田支所花壇,33.2802674,132.540541,
愛媛県,宇和島市,137,吉田町立間尻甲1887番地(煙硝蔵),煙硝蔵会所,33.2786383,132.5485088,緯度経度は怪しい
愛媛県,宇和島市,138,吉田町立間尻甲2023番地1(新田),市立吉田小学校体育館前,33.2728741,132.5397267,
愛媛県,宇和島市,139,吉田町鶴間541番地2-1(鶴間団地1),鶴間団地集会所,33.2724318,132.5360114,
愛媛県,宇和島市,140,吉田町鶴間294番地2先(鶴間),鶴間大橋 浅川より,33.2698043,132.5381936,緯度経度は怪しい
愛媛県,宇和島市,141,吉田町浅川182番地8横(浅川),浅川みんなの広場,33.2638961,132.5274564,
愛媛県,宇和島市,142,吉田町知永4番耕地1278横(知永),知永橋欄干+ガードレール,33.2623918,132.5435199,緯度経度は怪しい
愛媛県,宇和島市,143,吉田町奥浦甲65番地1(板ノ浦),市立奥浦小学校,33.2721293,132.4883743,緯度経度は怪しい
愛媛県,宇和島市,144,吉田町奥浦甲210番地5(中浦),中浦集会所,33.2716483,132.476647,緯度経度は怪しい
愛媛県,宇和島市,145,吉田町奥浦甲2919番地1-1横(古浦),古浦集会所横公園,33.2752278,132.4831653,緯度経度は怪しい
愛媛県,宇和島市,146,吉田町奥浦甲3380番地1横(船間1区),船間公園入口+緑地帯,33.2739424,132.4802641,緯度経度は怪しい
愛媛県,宇和島市,147,吉田町奥浦乙211番地2先(船間2区),楠ヶ浦理立,33.27413,132.480456,緯度経度は怪しい
愛媛県,宇和島市,148,吉田町南君281番地(南君西),南君西集会所(ブロック塀),33.2703015,132.4982607,緯度経度は怪しい
愛媛県,宇和島市,149,吉田町南君970番地2(南君東),南君東集会所(ブロック塀),33.26881420000001,132.5028654,緯度経度は怪しい
愛媛県,宇和島市,150,吉田町奥浦乙736番地横(大良),大良集会所横公園,33.2574861,132.4745444,緯度経度は怪しい
愛媛県,宇和島市,151,吉田町南君1562番地(立目),立目老人憩いの家,33.2650201,132.5122971,緯度経度は怪しい
愛媛県,宇和島市,152,吉田町南君2903番地先(牛川),牛川地区理立,33.2657437,132.5167632,緯度経度は怪しい
愛媛県,宇和島市,153,吉田町沖村甲1882番地3(鳥首),鳥首集会所,33.2935667,132.529028,緯度経度は怪しい
愛媛県,宇和島市,154,吉田町沖村甲2336番地(沖村上),沖村コミセン,33.293561,132.5239884,緯度経度は怪しい
愛媛県,宇和島市,155,吉田町沖村甲3270番地(川平),川平集会所,33.293561,132.5239884,緯度経度は怪しい
愛媛県,宇和島市,156,吉田町沖村甲2325番地1(東連寺),市立喜佐方小学校前(歩道橋)付近,33.2926133,132.5217125,緯度経度は怪しい
愛媛県,宇和島市,157,吉田町河内甲495番地1(検校谷),検校谷入口,33.2922639,132.5085389,緯度経度は怪しい
愛媛県,宇和島市,158,吉田町河内甲1686番地(河内中),河内中住レク駐車場側,33.28985,132.5046665,緯度経度は怪しい
愛媛県,宇和島市,159,吉田町河内甲1641番地1(河内上),河内上集会所横,33.2871917,132.50025,緯度経度は怪しい
愛媛県,宇和島市,160,吉田町奥浦甲1752番地前(惣代),惣代住レク,33.2910013,132.492895,緯度経度は怪しい
愛媛県,宇和島市,161,吉田町白浦外647番地,倉庫前,33.2994975,132.5031109,緯度経度は怪しい
愛媛県,宇和島市,162,吉田町立間1番耕地3900番地1(寺家郷蔵),立間小学校校門横歩道,33.2922545,132.5463012,緯度経度は怪しい
愛媛県,宇和島市,163,吉田町立間1番耕地338番地(寺家郷蔵),青野プレス工場前歩道,33.2922545,132.5463012,緯度経度は怪しい
愛媛県,宇和島市,164,吉田町立間1番耕地1056番地(白井谷),白井谷集会所,33.2944311,132.5504815,緯度経度は怪しい
愛媛県,宇和島市,165,吉田町立間2番耕地2649番地(医王寺下),池田商店前花壇,33.2971973,132.5398799,緯度経度は怪しい
愛媛県,宇和島市,166,吉田町立間2番耕地2222番地(蒋竹城下),宇和青果味楽共通前,33.2971973,132.5398799,緯度経度は怪しい
愛媛県,宇和島市,167,吉田町立間1番耕地621番地(中組),ブロック塀,33.2944311,132.5504815,緯度経度は怪しい
愛媛県,宇和島市,168,吉田町立間1番耕地2617番地2先(柏木),旧丸二集荷前(久枝橋横),33.2944311,132.5504815,緯度経度は怪しい
愛媛県,宇和島市,169,吉田町立間1番耕地1976番地前(大河内),浄水場フェンス,33.2944311,132.5504815,緯度経度は怪しい
愛媛県,宇和島市,170,吉田町立間2番耕地485番地先(屋敷),長谷住宅,33.2971973,132.5398799,緯度経度は怪しい
愛媛県,宇和島市,171,吉田町立間2番耕地548番地(中之谷),中之谷集会所前,33.2971973,132.5398799,緯度経度は怪しい
愛媛県,宇和島市,172,吉田町立間2番耕地1594番地先(小名),小名バス停横,33.2971973,132.5398799,緯度経度は怪しい
愛媛県,宇和島市,173,吉田町深浦3番耕地166番地4(池の浦),池の浦集会所(ブロック塀),33.3142098,132.5013542,緯度経度は怪しい
愛媛県,宇和島市,174,吉田町深浦1番耕地407番地4(深浦上),深浦集会所(ブロック塀),33.3179206,132.5057776,緯度経度は怪しい
愛媛県,宇和島市,175,吉田町法花津1番耕地外8-1(宮の浦東),宮の浦住宅,33.3192799,132.5134828,緯度経度は怪しい
愛媛県,宇和島市,176,吉田町法花津6番耕地55番地3(浜),JAえひめ南 玉津共選場左横ブロック塀,33.3164689,132.5180289,緯度経度は怪しい
愛媛県,宇和島市,177,吉田町法花津7番耕地360番地1(与村井口),玉津公民館,33.3170939,132.520929,緯度経度は怪しい
愛媛県,宇和島市,178,吉田町白浦2362番地先(蛭座三つ尾),白浦2362番地先ガードレール,33.3055348,132.5265053,
愛媛県,宇和島市,179,吉田町白浦2031番地3(先新浜),白浦コミセン前三叉路,33.310285,132.528741,緯度経度は怪しい
愛媛県,宇和島市,180,吉田町白浦2762番地4横(三つ尾),国道378・県道273三叉路,33.3040888,132.5239788,緯度経度は怪しい
愛媛県,宇和島市,181,吉田町白浦2904番地(花組),花組集会所前駐車場,33.3042862,132.5198709,緯度経度は怪しい
愛媛県,宇和島市,182,吉田町立間尻甲1802番地2(御殿内1区),吉田町図書館駐車場,33.2830458,132.5383301,緯度経度は怪しい
愛媛県,宇和島市,183,吉田町立間尻甲2083番地2(御殿内2区),御殿内集会所,33.2786383,132.5485088,緯度経度は怪しい
愛媛県,宇和島市,184,吉田町沖村甲522番地(御殿内3区),愛生祭跡地フェンス,33.2885862,132.5361563,
愛媛県,宇和島市,185,吉田町鶴間新13番地4(御殿内4区),御殿内保育園跡地,33.2825518,132.5358284,
愛媛県,宇和島市,186,吉田町立間尻甲424番地横(元町),丸い出荷場斜め前駐車場,33.2728352,132.5421826,緯度経度は怪しい
愛媛県,宇和島市,187,吉田町立間尻甲497番地(元町),JR吉田駅駐車場,33.2734134,132.5443374,緯度経度は怪しい
愛媛県,宇和島市,188,吉田町立間尻甲100番地7(君ヶ浦),君ヶ浦集会所(フェンス),33.2686086,132.5427469,緯度経度は怪しい
愛媛県,宇和島市,189,三間町宮野下772番地先,三間駐在所横交差点付近,33.2905731,132.6107751,緯度経度は怪しい
愛媛県,宇和島市,190,三間町宮野下137番地1,コスモスホール三間駐車場,33.293578,132.6085353,緯度経度は怪しい
愛媛県,宇和島市,191,三間町務田180番地1,道の駅みま,33.2860996,132.596107,
愛媛県,宇和島市,192,三間町元宗571番地2,増田,33.28967550000001,132.6232251,緯度経度は怪しい
愛媛県,宇和島市,193,三間町土居中733番地1,渋田商店付近,33.2807636,132.6158425,緯度経度は怪しい
愛媛県,宇和島市,194,三間町迫目1051番地先,迫目バス停付近,33.2819954,132.604583,
愛媛県,宇和島市,195,三間町迫目1131番地9,JR務田駅前,33.2768523,132.6073109,緯度経度は怪しい
愛媛県,宇和島市,196,三間町北増穂677番地1地先,第2分団第1部消防詰所付近,33.3069687,132.6122081,緯度経度は怪しい
愛媛県,宇和島市,197,三間町北増穂32番地先,北増穂集会所付近,33.3069687,132.6122081,緯度経度は怪しい
愛媛県,宇和島市,198,三間町小沢川733番地,小沢川集会所前,33.3007512,132.6229115,
愛媛県,宇和島市,199,三間町川之内37番地1先,川之内集会所付近,33.3097808,132.6283722,緯度経度は怪しい
愛媛県,宇和島市,200,三間町戸雁458番地1,JAえひめ南農協成妙支所（東側）,33.2889954,132.5989573,緯度経度は怪しい
愛媛県,宇和島市,201,三間町戸雁771番地,市立三間中学校付近（東門付近）,33.290145,132.602409,
愛媛県,宇和島市,202,三間町黒井地2309番地先,黒井地橋,33.3033745,132.6035912,緯度経度は怪しい
愛媛県,宇和島市,203,三間町成家951番地1,内ケ鼻交差点付近,33.2968463,132.5926166,
愛媛県,宇和島市,204,三間町成家673番地1,成妙小学校付近,33.2968463,132.5926166,
愛媛県,宇和島市,205,三間町曽根668番地先,内田バス停付近,33.2861499,132.5896744,緯度経度は怪しい
愛媛県,宇和島市,206,三間町曽根588番地,兵頭商店前,33.2898184,132.5897821,
愛媛県,宇和島市,207,三間町是能226番地3,コスモス団地公園横,33.2833821,132.5754681,緯度経度は怪しい
愛媛県,宇和島市,208,三間町是能391番地先,三叉路,33.2833821,132.5754681,緯度経度は怪しい
愛媛県,宇和島市,209,三間町大藤793番地先,大藤集会所裏側畑,33.3125542,132.5901622,
愛媛県,宇和島市,210,三間町大藤393番地,大藤三叉路,33.3152376,132.5926166,緯度経度は怪しい
愛媛県,宇和島市,211,三間町則1687番地,則集会所前,33.309733,132.5821378,緯度経度は怪しい
愛媛県,宇和島市,212,三間町則6番地2,県道（ゴルフ場入口付近）,33.3122421,132.5779182,
愛媛県,宇和島市,213,三間町古藤田195番地5先,県道,33.2928965,132.642805,
愛媛県,宇和島市,214,三間町大内64番地,市立二名小学校（東側）,33.2904264,132.6513689,緯度経度は怪しい
愛媛県,宇和島市,215,三間町兼近714番地先,兼近集会所付近（是延入口）,33.2795685,132.6525922,緯度経度は怪しい
愛媛県,宇和島市,216,三間町是延739番地先,是延集会所付近,33.2788767,132.6379107,
愛媛県,宇和島市,217,三間町中野中182番地2,JRこ名駅前広場,33.2917428,132.6293833,
愛媛県,宇和島市,218,三間町波閇831番地,妙光寺（壁）,33.2826509,132.5962906,緯度経度は怪しい
愛媛県,宇和島市,219,三間町田川222番地先,masked,33.3002365,132.6340825,緯度経度は怪しい
愛媛県,宇和島市,220,三間町金鋼312番地1先,付近,33.2826509,132.5962906,緯度経度は怪しい
愛媛県,宇和島市,221,三間町中間474番地1先,三間中間集会所付近,33.2826509,132.5962906,緯度経度は怪しい
愛媛県,宇和島市,222,三間町黒川390番地先,グループホーム・コスモス付近,33.2996174,132.6513689,
愛媛県,宇和島市,223,三間町黒川127番地先,黒川集会所付近,33.2943153,132.6581503,緯度経度は怪しい
愛媛県,宇和島市,224,三間町音地239番地,音地集会所,33.3159281,132.6562619,緯度経度は怪しい
愛媛県,宇和島市,225,津島町岩松甲471番地,岩松公民館,33.1258625,132.5214856,
愛媛県,宇和島市,226,津島町高田甲386番地2(保木),保木集会所付近,33.1382715,132.5264409,緯度経度は怪しい
愛媛県,宇和島市,227,津島町岩松甲1420番地(寿町),岩松保育園,33.1171958,132.5203176,緯度経度は怪しい
愛媛県,宇和島市,228,津島町岩松甲753番地(新川岸),大畑旅館前駐車,33.1250192,132.522748,緯度経度は怪しい
愛媛県,宇和島市,229,津島町岩松芳原石柱付近,倉庫付近,33.1101409,132.5145169,緯度経度は怪しい
愛媛県,宇和島市,230,津島町近家甲1607番地,タイキアクシス津島工場前県道,33.117679,132.5119681,緯度経度は怪しい
愛媛県,宇和島市,231,津島町岩松甲242番地1(三島拝高),宇和島自動車車庫付近,33.1134618,132.514177,緯度経度は怪しい
愛媛県,宇和島市,232,津島町高田丙556番地1(磯),津島中学校北側付近,33.1329372,132.5223963,緯度経度は怪しい
愛媛県,宇和島市,233,津島町高田甲723番地3(久保津),つしま弁前空地,33.1359158,132.5245018,
愛媛県,宇和島市,234,津島町高田乙234番地2(稲中),稲中集会所付近,33.1280028,132.5361806,緯度経度は怪しい
愛媛県,宇和島市,235,津島町高田甲2054番地4,喫茶磯付近,33.1419014,132.5257837,緯度経度は怪しい
愛媛県,宇和島市,236,津島町近家甲212番地10(歳座),近家集会所付近,33.1303135,132.5040192,緯度経度は怪しい
愛媛県,宇和島市,237,津島町近家甲127番地(朔之江),付近,33.1229433,132.5114034,緯度経度は怪しい
愛媛県,宇和島市,238,津島町近家佐近谷1,南楽園前バス停付近,33.1372906,132.5068172,緯度経度は怪しい
愛媛県,宇和島市,239,津島町岩渕丙560番地(新開),清満公民館,33.1246467,132.5532138,緯度経度は怪しい
愛媛県,宇和島市,240,津島町岩渕野井,野井口大町橋付近,33.1339333,132.5551611,緯度経度は怪しい
愛媛県,宇和島市,241,津島町岩渕甲1289番地1(後二),JAえひめ南農協清満支所付近,33.1237492,132.5499945,緯度経度は怪しい
愛媛県,宇和島市,242,津島町岩渕甲1640番地1(前一),付近,33.1215007,132.5510625,緯度経度は怪しい
愛媛県,宇和島市,243,津島町増穂903番地(古井),増穂橋付近,33.114936,132.5465627,緯度経度は怪しい
愛媛県,宇和島市,244,津島町増穂乙964番地(音地),皆地バス停付近,33.0988577,132.5346686,緯度経度は怪しい
愛媛県,宇和島市,245,津島町増穂乙1194番地(本枝),付近,33.0894118,132.5303862,緯度経度は怪しい
愛媛県,宇和島市,246,津島町増穂丙485番地3(追ノ川沖),増穂集会所付近,33.0994965,132.5332376,緯度経度は怪しい
愛媛県,宇和島市,247,津島町山財4895番地(清重),山財集会所付近,33.1165223,132.5684128,緯度経度は怪しい
愛媛県,宇和島市,248,津島町山財6520番地(嘉部),付近,33.1241192,132.5614193,緯度経度は怪しい
愛媛県,宇和島市,249,津島町山財4764番地(馬ノ淵),馬ノ淵集会所付近,33.1076302,132.575602,緯度経度は怪しい
愛媛県,宇和島市,250,津島町山財御代ノ川,御代ノ川分校跡地付近,33.15928849582767,132.5999633851794,緯度経度は怪しい
愛媛県,宇和島市,251,津島町御内809番地(4区),御槇地区自然体験村管理センター付近,33.0986854,132.6264977,緯度経度は怪しい
愛媛県,宇和島市,252,津島町御内353番地(2区),県有林御槇事務所付近,33.0974685,132.6207669,緯度経度は怪しい
愛媛県,宇和島市,253,津島町御内1213番地(6区),御槇小学校前バス停付近,33.0977973,132.6337148,緯度経度は怪しい
愛媛県,宇和島市,254,津島町御内1241番地(7区),渡辺商店付近,33.1113609,132.6342397,緯度経度は怪しい
愛媛県,宇和島市,255,津島町御内2422番地(8区),篠山橋付近,33.0898861,132.6497824,緯度経度は怪しい
愛媛県,宇和島市,256,津島町横川1296番地(10区),横川バス停付近,33.1134618,132.514177,緯度経度は怪しい
愛媛県,宇和島市,257,津島町横川1132番地(11区),谷郷バス停付近,33.1134618,132.514177,緯度経度は怪しい
愛媛県,宇和島市,258,津島町下畑地(内田),金剛橋付近,33.0696277,132.5362501,緯度経度は怪しい
愛媛県,宇和島市,259,津島町下畑地甲37番地(於泥下),於泥バス停付近,33.1062362,132.5117343,緯度経度は怪しい
愛媛県,宇和島市,260,津島町下畑地丁36番地3(於泥下),柿内橋付近,33.1059085,132.5123613,緯度経度は怪しい
愛媛県,宇和島市,261,津島町下畑地甲1533番地(鴨田),JAえひめ南農協畑地支所付近,33.095804,132.5157455,緯度経度は怪しい
愛媛県,宇和島市,262,津島町上畑地甲568番地(西組),畑地コミュニティセンター付近,33.0891292,132.5131606,
愛媛県,宇和島市,263,津島町上畑地甲6番地1(三島),三島集会所付近,33.0835042,132.5059054,緯度経度は怪しい
愛媛県,宇和島市,264,津島町下畑地甲1782番地(保場川),付近,33.0890337,132.519728,緯度経度は怪しい
愛媛県,宇和島市,265,津島町上畑地上畑地甲474番地(東組),付近,33.0872658,132.5156536,緯度経度は怪しい
愛媛県,宇和島市,266,津島町上畑地甲1201番地1(大門),大門バス停付近,33.0853026,132.5048275,緯度経度は怪しい
愛媛県,宇和島市,267,津島町下畑地乙735番地4(上横上),上横集会所付近,33.0696277,132.5362501,緯度経度は怪しい
愛媛県,宇和島市,268,津島町下畑地乙265番地3(上横下),付近,33.0696277,132.5362501,緯度経度は怪しい
愛媛県,宇和島市,269,津島町嵐627番地ノ8,嵐保育園付近,33.0776985,132.4871108,緯度経度は怪しい
愛媛県,宇和島市,270,津島町須下181番地,旧須下分校付近,33.0617243,132.4167549,緯度経度は怪しい
愛媛県,宇和島市,271,津島町成361番地1付近,NTT北由良電話交換所,33.0573195,132.4273328,緯度経度は怪しい
愛媛県,宇和島市,272,津島町平井127番地17,平井浄化センター付近,33.0556932,132.4501716,緯度経度は怪しい
愛媛県,宇和島市,273,津島町曲島121番地24,曲島集会所付近,33.1134618,132.514177,緯度経度は怪しい
愛媛県,宇和島市,274,津島町浦知414番地1,浦知集会所付近,33.064395,132.4885712,緯度経度は怪しい
愛媛県,宇和島市,275,津島町柿之浦196番地6,柿之浦旧グラウンド付近,33.0558304,132.4826198,緯度経度は怪しい
愛媛県,宇和島市,276,津島町前鳴番外3番地5,前鳴集会所右横,33.1134618,132.514177,緯度経度は怪しい
愛媛県,宇和島市,277,津島町横浦番外7地先,横浦集会所付近,33.0813628,132.4835044,
愛媛県,宇和島市,278,津島町坪井265番地,坪井集会所付近,33.0812066,132.4720036,緯度経度は怪しい
愛媛県,宇和島市,279,津島町田尻119番地,田尻公園付近,33.1134618,132.514177,緯度経度は怪しい
愛媛県,宇和島市,280,津島町脇531番地3,脇集会所付近,33.0984465,132.480865,緯度経度は怪しい
愛媛県,宇和島市,281,津島町口之浜1771番地2,口之浜集会所,33.1134618,132.514177,緯度経度は怪しい
愛媛県,宇和島市,282,津島町竹ヶ島263番地,竹ヶ島集会所付近,33.10744469999999,132.415443,緯度経度は怪しい
愛媛県,宇和島市,283,津島町北灘鵜之浜,鵜之浜集会所付近,33.1496408,132.4773677,緯度経度は怪しい
愛媛県,宇和島市,284,津島町北灘甲2142番地3(網代),北灘公民館,33.1422537,132.4767517,緯度経度は怪しい
愛媛県,宇和島市,285,津島町北灘乙153番地(家次),北灘小学校付近,33.1411704,132.4675282,緯度経度は怪しい
愛媛県,宇和島市,286,津島町北灘乙1334番地2(尻貝),尻貝集会所付近,33.1425925,132.4530764,緯度経度は怪しい
愛媛県,宇和島市,287,津島町北灘乙1996番地(掛網代),付近,33.1337633,132.4539462,緯度経度は怪しい
愛媛県,宇和島市,288,津島町北灘甲140番地(福浦),旧福浦分校校庭,33.1537982,132.4355268,緯度経度は怪しい
愛媛県,宇和島市,289,津島町北灘丁930番地1,旧南部小学校付近,33.1496408,132.4773677,緯度経度は怪しい
愛媛県,宇和島市,290,津島町北灘丁1207番地3(小日提浜),小日提集会所付近,33.1153108,132.4713333,緯度経度は怪しい
愛媛県,宇和島市,291,津島町北灘丁473番地3(大日提),大日提集会所付近,33.1496408,132.4773677,緯度経度は怪しい
