prefecture,city,number,address,name,lat,long,note
北海道,遠別町,1,天塩郡遠別町字本町３丁目,役場前,44.7221289,141.7875326,緯度経度は怪しい
北海道,遠別町,2,天塩郡遠別町字本町４丁目,生涯学習センター前,44.7231679,141.792746,
北海道,遠別町,3,天塩郡遠別町字久光,久光１会館前,44.7179407,141.8575836,緯度経度は怪しい
北海道,遠別町,4,天塩郡遠別町字中央,中央会館前,44.6874996,141.9450606,緯度経度は怪しい
北海道,遠別町,5,天塩郡遠別町字啓明,啓明婦人ホーム前,44.7561712,141.8174052,緯度経度は怪しい
北海道,遠別町,6,天塩郡遠別町字清川,旧清川小学校前,44.747842,141.9200598,緯度経度は怪しい
北海道,遠別町,7,天塩郡遠別町字丸松,丸松会館前,44.7773771,141.8438529,緯度経度は怪しい
北海道,遠別町,8,天塩郡遠別町字北里,北里公民館前,44.8041178,141.8018006,緯度経度は怪しい
北海道,遠別町,9,天塩郡遠別町字歌越,旧歌越２会館前,44.6241164,141.8658333,緯度経度は怪しい
