prefecture,city,number,address,name,note,lat,long
福岡県,直方市,1,,植木　植木北新手児童遊園　フェンス　（有田建設前）,,33.78446527811912,130.70074283263872
福岡県,直方市,2,,植木駅　　左側階段付近フェンス,,33.77618284515874,130.70857046618758
福岡県,直方市,3,,植木　県道424号　植木小学校裏門付近　歩道ガードパイプ,,33.77681542740054,130.71351729403858
福岡県,直方市,4,,植木600番地の4　　植木児童遊園南側,,33.77491481046695,130.71242242993466
福岡県,直方市,5,,植木　　植木小学校正門横,,33.77567101973006,130.71514108040915
福岡県,直方市,6,,上頓野藤田丸　　入口　　橋付近,,33.77008906043451,130.7678260016963
福岡県,直方市,7,,上頓野　水道局安入寺ポンプ場　（八幡神社バス停付近）,,33.76971253474919,130.7753671760496
福岡県,直方市,8,,植木井関　　植木踏切バス停　牟田池側塀,,33.77115256134402,130.70694476214405
福岡県,直方市,9,,植木　井関大橋下付近植木市住横ガードパイプ,,33.7694583141103,130.70836010576042
福岡県,直方市,10,,感田2286番地の2　　宝楽児童遊園南側　フェンス　　,,33.773284464012974,130.72598773587566
福岡県,直方市,11,,感田   感田生活館前  ブロック塀,,33.77036191384629,130.73194025709972
福岡県,直方市,12,,植木石山谷  新池筑豊高校側  （歩道フェンス）,,33.768036941490706,130.7020387969443
福岡県,直方市,13,,植木　　天神山バス停 牟田池側　フェンス,,33.76873738851058,130.7052251204655
福岡県,直方市,14,,植木　　中学校裏門横　ブロック塀（体育館付近）,,33.76767674767662,130.70628291861175
福岡県,直方市,15,,植木　　中学校正門横,,33.76733029983693,130.7083890783465
福岡県,直方市,16,,感田2205番地の1　　遠賀野電停西側　　若柳児童遊園フェンス,,33.769018365322204,130.7304484022075
福岡県,直方市,17,,感田麦隈　　中牟田集会所前（歩道フェンス）,,33.7676690824125,130.73276077320247
福岡県,直方市,18,,感田王子団地　　公民館前　　　　,,33.765375401903796,130.7419843746166
福岡県,直方市,19,,上頓野　川北公民館,,33.76842177206561,130.7608416117122
福岡県,直方市,20,,上頓野小学校（裏玄関入口横フェンス）,,33.759880858635796,130.7633326420601
福岡県,直方市,21,,上頓野小学校　（玄関入口側）,,33.760750110456634,130.76403582753923
福岡県,直方市,22,,上頓野　　上頓野子ども広場（上頓野自治公民館前）,,33.765762814016846,130.76746676182654
福岡県,直方市,23,,上頓野山田　直方市消防団第5分団第1部（上頓野）格納庫フェンス,,33.7669943682662,130.7694345402536
福岡県,直方市,24,,下新入　　新入原バス停～緑ヶ丘団地バス停中間  歩道（県有地）,,33.761117035068615,130.69998919039105
福岡県,直方市,25,,下新入　　天神団地入口付近　市住フェンス,,33.76458441651299,130.70788572323343
福岡県,直方市,26,,下新入474番地の4　　追牟田児童遊園南側（直方建材横）,,33.76247832696932,130.71225605492845
福岡県,直方市,27,,下新入　　新入駅ロータリー フェンス,,33.764198540935276,130.71365666656166
福岡県,直方市,28,,感田中川原　　須藤公二氏所有畑,,33.76401486974721,130.72935454293287
福岡県,直方市,29,,感田王子団地　　電算センタ－横　　,,33.76471907360266,130.738203689086
福岡県,直方市,30,,感田行常　　森商店前　　市住横フェンス,,33.761276987876585,130.74381252193834
福岡県,直方市,31,,頓野　　紀之国屋駐車場,,33.758945765885144,130.7571930720919
福岡県,直方市,32,,下新入　新入大橋西側（セブンイレブン前・歩道フェンス）　　,,33.75641172158247,130.70655506598098
福岡県,直方市,33,,下新入赤池　赤池子ども広場,,33.76025645206528,130.71594633268188
福岡県,直方市,34,,上新入松芳　　四叉路南側,,33.75618486170705,130.71771811921076
福岡県,直方市,35,,知古3丁目117番地　　知古児童公園南側,,33.758409380042316,130.7234623769299
福岡県,直方市,36,,感田電停　　ファミリーマート付近　道路,,33.75914791581889,130.73236821243424
福岡県,直方市,37,,感田前田　白次新氏宅前　　,,33.76008172611378,130.7370675798494
福岡県,直方市,38,,頓野1503番地の1　　直方中央公園入口手前フェンス,,33.75760399890177,130.74446417511166
福岡県,直方市,39,,頓野　　直方ろう学校ゲ－トボ－ル場入口付近　ブロック塀,,33.7574753726873,130.74894144449428
福岡県,直方市,40,,県道28号直方行橋線 福岡クボタ（頓野)先付近ガードパイプ,,33.75626942489672,130.75166846536342
福岡県,直方市,41,,頓野　　新中原公民館前　　　　　　　　,,33.75899370836341,130.7552056918665
福岡県,直方市,42,,頓野　　会下第2子ども広場,,33.75531640750675,130.7640938981269
福岡県,直方市,43,,畑　　内ヶ磯バス停j前　公衆トイレ付近,,33.75217247774044,130.77027882191044
福岡県,直方市,44,,上新入　　川西公民館横　児童公園フェンス,,33.75196445102032,130.70341577578364
福岡県,直方市,45,,上新入　　新入小学校　　南西側傍　ガードレール,,33.75282717527787,130.70843944356318
福岡県,直方市,46,,上新入　　新入小学校正門横（体育館側）,,33.754066432990996,130.71000759172242
福岡県,直方市,47,,山部　　山部4区公民館前　ブロック塀,,33.75344913556119,130.72115483140348
福岡県,直方市,48,,日吉町7　　北小学校正門（西側）横　塀,,33.75210730919133,130.72754155424673
福岡県,直方市,49,,日吉町7　　北小学校裏門（東側）横　塀,,33.752332922907,130.72872404165537
福岡県,直方市,50,,感田　　セントポール幼稚園側のフェンス,,33.755177751981705,130.73260047251176
福岡県,直方市,51,,頓野西尾　　第二中学校前　駐車場フェンス　,,33.752448231026,130.7362357032098
福岡県,直方市,52,,頓野　行常交差点　福智台団地バス停（黒崎方面行き） ガードパイプ,,33.75994373213901,130.73959089533537
福岡県,直方市,53,,頓野西尾　　㈱野上　フェンス,,33.75157240348839,130.74138714893903
福岡県,直方市,54,,頓野　　近津神社前　　中央橋バス停付近,,33.75323292920483,130.7471767358549
福岡県,直方市,55,,頓野　　中央橋北側　　永松医院前（歩道フェンス）,,33.75494201276497,130.74941525015365
福岡県,直方市,56,,頓野　　頓野橋　　西側　ガードパイプ,,33.75400921307736,130.75161850380795
福岡県,直方市,57,,頓野1736番地の1　　和田公園　入口横,,33.754259943285184,130.75378935628794
福岡県,直方市,58,,上新入　　鴨生田団地東側入口付近　　ガードレール,,33.747234766031134,130.71144161053033
福岡県,直方市,59,,山部　　ユメニテイのおがた駐車場入口横  植樹付近,,33.75140864552465,130.72285050316793
福岡県,直方市,60,,山部　　直方駅西口付近　フェンス,,33.74846026785034,130.7233266017202
福岡県,直方市,61,,大字山部207番地２　　　直方駅北自転車等駐車場　横,,33.74944205719118,130.72466872750746
福岡県,直方市,62,,頓野西尾　　大和青藍高等学校運動場フェンス,,33.75071200643923,130.7365653955759
福岡県,直方市,63,,頓野出山　　直方高校グラウンド側（歩道フェンス）,,33.747392109359645,130.74082184105694
福岡県,直方市,64,,頓野　　東小学校　南側フェンス,,33.74777224817777,130.74571251294122
福岡県,直方市,65,,頓野　　東小学校正門横　歩道橋口,,33.74780021630541,130.74720956149372
福岡県,直方市,66,,永満寺　　いこいの村入口バス停横歩道フェンス,,33.743672048129724,130.7666694681861
福岡県,直方市,67,,畑　　畑公民館前　　右側フェンス,,33.74881192334166,130.76843380856357
福岡県,直方市,68,,山部　県道467号　西徳寺第3駐車場　県道ガードパイプ,,33.74651079540017,130.7236816659941
福岡県,直方市,69,,山部　　庚申社　南側横　,,33.744078431499965,130.72346230240902
福岡県,直方市,70,,御館山　　電報電話局前　公園入口,,33.74270024012289,130.7247863175213
福岡県,直方市,71,,殿町　セブンイレブン前　白フェンス,,33.745771648175676,130.7290634883708
福岡県,直方市,72,,殿町　　市役所　西側,,33.74417150646476,130.7293669075021
福岡県,直方市,73,,殿町　　市役所　東側,,33.743933220538246,130.72986091885548
福岡県,直方市,74,,山部　　西小学校正門横　フェンス　,,33.74123047088569,130.72163255602118
福岡県,直方市,75,,平成筑豊鉄道　　南直方御殿口駅前,,33.73855140788309,130.72488543505767
福岡県,直方市,76,,新町1丁目9番　　新町北公園　　西側柵,,33.74106496990221,130.72739434740743
福岡県,直方市,77,,永満寺　　水道局施設柵（たかとり園前バス停付近）,,33.739398008511195,130.76511927457577
福岡県,直方市,78,,新町3丁目3　　南小学校正門横　フェンス,,33.73673289103497,130.72518647188494
福岡県,直方市,79,,溝堀1丁目　　溝堀第1公民館西側,,33.73673829300507,130.73017528875474
福岡県,直方市,80,,感田　イオン南側　歩道フェンス,,33.76627139052576,130.7517693869107
福岡県,直方市,81,,下境　　（旧）林光寺団地入口バス停横,,33.73505906385988,130.73797213938556
福岡県,直方市,82,,溝堀3丁目　　元町公民館前　花壇,,33.73231205064623,130.73144641327156
福岡県,直方市,83,,赤地交差点付近　　自動車学校入口東側石柱,,33.72968508633811,130.7298218236757
福岡県,直方市,84,,永満寺　　福地小学校前,,33.729640820304446,130.760976047743
福岡県,直方市,85,,下境4区　　下境4区公民館前　ブロック塀,,33.72851073993202,130.7334891529484
福岡県,直方市,86,,下境3825番地の1　　本洞児童遊園　東側フェンス　,,33.72490238777916,130.73453702050512
福岡県,直方市,87,,下境小学校   正門側（堤防側）入口柵　,,33.72759263875614,130.7393972758864
福岡県,直方市,88,,上境　　泉バス停　　山本茂央氏宅前　ガードパイプ,,33.72527617462667,130.75902090507907
福岡県,直方市,89,,下境　　古田坂市住52-6　東側道路敷,,33.723706052614716,130.73018534201805
福岡県,直方市,90,,平成筑豊鉄道　　藤棚駅　下り線側,,33.72218939608696,130.7346438078771
福岡県,直方市,91,,古田浦子ども広場,,33.721840060758424,130.73352505491818
福岡県,直方市,92,,平成筑豊鉄道　　中泉駅  駅南側花壇付近　,,33.721275649899844,130.7426280788126
福岡県,直方市,93,,中泉1区　駅西側　　中泉１区公民館前,,33.72032934890617,130.74424879967765
福岡県,直方市,94,,上境　　つむぎの里フェンス,,33.725525648844624,130.74831390288705
福岡県,直方市,95,,上境　　上境公民館前　フェンス,,33.722647980169704,130.75205507861986
福岡県,直方市,96,,上境　　農協裏側　　占部治子宅前　垣根,,33.723852276758336,130.75185246786327
福岡県,直方市,97,,中泉小学校入口前　　市住横三叉路付近,,33.719269119713495,130.74004307273384
福岡県,直方市,98,,中泉工場団地北側入口　　上り道三叉路左,,33.717050354990434,130.74360585401055
福岡県,直方市,99,,平成筑豊鉄道　中泉　上屋敷踏切横　鉄柵　,,33.71979367904841,130.74606817015427
福岡県,直方市,100,,中泉2区　　八反田市住入口,,33.7141462713885,130.73555357828445
福岡県,直方市,101,,中泉3区　　中泉市民球場横調整池フェンス,,33.71620891008932,130.73880834073756
福岡県,直方市,102,,湯野原1丁目　湯野原中央公園,,33.767647350296365,130.74829035345033
福岡県,直方市,103,,湯野原１丁目　ミニストップ感田店裏　調整池付近　歩道ガードパイプ,,33.76930510526865,130.74580955022526
福岡県,直方市,104,,須崎町1番地の1　直方病院駐車場フェンス（駅前通り沿い）,,33.74906657938988,130.72586069418062
福岡県,直方市,105,,植木中の江　　新幹線側道路フェンス,,33.78181936145225,130.70861539050162
福岡県,直方市,106,,知古農協道路側 植込み,,33.75688322468581,130.72309491618535
