prefecture,city,number,address,name,lat,long
福岡県,福津市,1,福津市中央1丁目5060番地,福津市役所前バス停横植込み,33.767094,130.490753
福岡県,福津市,2,福津市光陽台1丁目9番地7,旧光陽台下水処理場フェンス,33.767837,130.493997
福岡県,福津市,3,福津市光陽台3丁目10番地1,光陽台３丁目テニスコート公園植込み,33.768542,130.498334
福岡県,福津市,4,福津市光陽台1丁目34番地,美容室ボア・フレア横歩道フェンス,33.767588,130.497257
福岡県,福津市,5,福津市福間駅東1丁目2895番地4,白菊幼稚園入口交差点歩道ガードパイプ,33.762847,130.492568
福岡県,福津市,6,福津市光陽台1丁目25番地1,調整池前歩道ガードパイプ,33.766278,130.49191
福岡県,福津市,7,福津市中央3丁目5171番地,ＪＲ福間駅前広場道路側柵,33.763514,130.486097
福岡県,福津市,8,福津市中央2丁目3482番地1,大和保育所前ガードパイプ,33.768212,130.48819
福岡県,福津市,9,福津市中央4丁目5066番地,上妻整形外科第２駐車場前花壇,33.767067,130.484279
福岡県,福津市,10,福津市中央4丁目5104番地12地先,太郎丸交差点ピザクック前歩道ガードパイプ,33.769687,130.48471
福岡県,福津市,11,福津市中央5丁目3682番地,昭和公園セブンイレブン側入口横柵,33.769104,130.482098
福岡県,福津市,12,福津市中央6丁目3769番地1,福間会館前板鳥邸ブロック塀,33.765752,130.481396
福岡県,福津市,13,福津市西福間1丁目4963番地2,西福間１公民館前フェンス,33.769264,130.478695
福岡県,福津市,14,福津市西福間2丁目3960番地1,福間小学校グラウンド武道館前フェンス,33.766724,130.477868
福岡県,福津市,15,福津市西福間2丁目4037番地4,福間体育センター正面玄関横植込み,33.764576,130.478559
福岡県,福津市,16,福津市中央6丁目2657番地,ＮＴＴ西日本福間電話交換所フェンス,33.76352,130.47941
福岡県,福津市,17,福津市西福間2丁目4013番地,福間郷づくり交流センター,33.764414,130.476312
福岡県,福津市,18,福津市西福間2丁目3960番地1,福間小学校正門横ブロック塀,33.765251,130.477454
福岡県,福津市,19,福津市西福間3丁目4466番地,緑町公民館前フェンス,33.765296,130.473901
福岡県,福津市,20,福津市西福間3丁目2595番地1,南町公民館前フェンス,33.763104,130.472133
福岡県,福津市,21,福津市西福間5丁目4560番地343,西福間１号公園フェンス,33.771506,130.476328
福岡県,福津市,22,福津市花見が浜3丁目2258番地2,向山第２公園フェンス,33.759442,130.471761
福岡県,福津市,23,福津市花見の里3丁目1940番地2,苅目川横ハウス前歩道フェンス,33.755757,130.472034
福岡県,福津市,24,福津市花見の里2丁目5062番地,花見原町団地入口交差点正面ガードパイプ,33.755286,130.474628
福岡県,福津市,25,福津市花見の里1丁目1697番地8,花見の里１丁目苅目川排水池フェンス,33.753182,130.479326
福岡県,福津市,26,福津市花見が丘2丁目1801番地1,福間中学校運動場フェンス,33.756892,130.47643
福岡県,福津市,27,福津市花見が丘1丁目183番地1,花見が丘1丁目公園フェンス,33.761541,130.482176
福岡県,福津市,28,福津市花見が浜1丁目2453番地2,向山バス停そば福間病院敷地,33.760856,130.476812
福岡県,福津市,29,福津市日蒔野1丁目102番地,福間駅さいごう口自動車駐車場,33.763173,130.487151
福岡県,福津市,30,福津市日蒔野3丁目2番地2,日蒔野１２号公園（かんなづき公園）交差点横,33.760452,130.484428
福岡県,福津市,31,福津市福間南3丁目1279番地1地先,寺田公園前バス停ガードレール,33.75695,130.482646
福岡県,福津市,32,福津市有弥の里1丁目5番地1,消防団第７分団格納庫フェンス,33.751881,130.485568
福岡県,福津市,33,福津市日蒔野6丁目33番地1,原町団地南口交差点竹尾緑地側ガードパイプ,33.750457,130.487978
福岡県,福津市,34,福津市日蒔野6丁目17番地,日蒔野８号公園（むつき公園）イオン側,33.755203,130.493438
福岡県,福津市,35,福津市日蒔野4丁目11番地2,福間南小学校体育館駐車場フェンス,33.759983,130.489288
福岡県,福津市,36,福津市福間南1丁目1154番地4,パシオンクレシア前横断歩道正面ガードパイプ,33.7550164,130.487566
福岡県,福津市,37,福津市上西郷10番地14,ミノブチ松田工務店横防火水槽フェンス,33.766849,130.503697
福岡県,福津市,38,福津市上西郷263番地1,鞍掛橋正面,33.760916,130.500452
福岡県,福津市,39,福津市上西郷790番地2,折目酒店横交差点なまずの郷運動公園側ガードパイプ,33.753985,130.506343
福岡県,福津市,40,福津市内殿591番地15,上西郷郷づくり交流センター県道側フェンス,33.757026,130.517311
福岡県,福津市,41,福津市内殿431番地1,内殿公民館入口フェンス,33.749748,130.518705
福岡県,福津市,42,福津市舎利蔵168番地2,舎利蔵防火水槽横ガードレール,33.741281,130.534375
福岡県,福津市,43,福津市畦町447番地3,朝日が丘団地入口歩道ガードパイプ,33.758608,130.521973
福岡県,福津市,44,福津市畦町1366番地,大明神橋横畦町公民館入口交差点歩道ガードパイプ,33.76228,130.528184
福岡県,福津市,45,福津市本木1200番地2,本木入口バス停横ガードパイプ,33.755674,130.532983
福岡県,福津市,46,福津市八並686番地1地先,八並防火水槽横ガードパイプ,33.769767,130.52941
福岡県,福津市,47,福津市畦町1360番地1,久末ダム北側入口歩道ガードレール,33.770047,130.523022
福岡県,福津市,48,福津市久末221番地1,久末公民館横ガードレール,33.767218,130.516734
福岡県,福津市,49,福津市津丸839番地10,津丸交差点歩道ガードパイプ,33.767745,130.509031
福岡県,福津市,50,福津市桜川1090番地44,桜川入口交差点前桜川側植込み,33.7694,130.506471
福岡県,福津市,51,福津市津丸922番地1,津丸公民館前ブロック塀,33.768934,130.511901
福岡県,福津市,52,福津市津丸950番地1,神興東小学校フェンス,33.770557,130.515075
福岡県,福津市,53,福津市若木台5丁目4番地15,若木台かいがら公民館前フェンス,33.772465,130.521659
福岡県,福津市,54,福津市若木台1丁目51番地62,ＪＲ東福間駅若木台側自由通路,33.773972,130.510961
福岡県,福津市,55,福津市若木台2丁目7番地7,若木台９号公園（わかば公園）フェンス,33.774987,130.514528
福岡県,福津市,56,福津市東福間6丁目64番地9,神興小学校運動場フェンス,33.780168,130.511908
福岡県,福津市,57,福津市東福間6丁目1568番地35,東福間中央公民館横公園柵,33.777482,130.510875
福岡県,福津市,58,福津市東福間6丁目1568番地10,神興小学校正門横フェンス,33.778288,130.511946
福岡県,福津市,59,福津市東福間2丁目1213番地52,東福間第６公園（ひまわり公園）入口左側フェンス,33.774456,130.507898
福岡県,福津市,60,福津市小竹2丁目98番地6,小竹公民館フェンス,33.77929,130.514803
福岡県,福津市,61,福津市手光141番地2,冠防火水槽フェンス,33.783085,130.508057
福岡県,福津市,62,福津市東福間1丁目1243番地1,旧東部下水処理場フェンス,33.773987,130.510023
福岡県,福津市,63,福津市手光1557番地2,手光公民館フェンス購買店側,33.774959,130.497852
福岡県,福津市,64,福津市光陽台6丁目19番地15,光陽台５丁目バス停横公園,33.775394,130.503191
福岡県,福津市,65,福津市光陽台5丁目1444番地3,光陵高校正門横フェンス,33.773252,130.502042
福岡県,福津市,66,福津市手光1750番地14,通り堂バス停そば定札公園フェンス,33.770543,130.502752
福岡県,福津市,67,福津市手光1795番地1,光陵高校入口交差点歩道ガードレール,33.770127,130.501283
福岡県,福津市,68,福津市手光1906番地5,株式会社グランドアース前四差路ガードパイプ,33.770785,130.496762
福岡県,福津市,69,福津市手光南2丁目2005番地1,市中央公民館前歩道ガードパイプ,33.771826,130.492531
福岡県,福津市,70,福津市津屋崎3丁目815番地,福津市まちおこしセンター横駐車場ガードパイプ,33.788534,130.464221
福岡県,福津市,71,福津市津屋崎6丁目1682番地2,新開交差点横歩道ガードパイプ,33.790248,130.466095
福岡県,福津市,72,福津市津屋崎3丁目691番地6地先,天神橋,33.786586,130.466368
福岡県,福津市,73,福津市渡1395番地7,渡区公民館前,33.792176,130.456602
福岡県,福津市,74,福津市津屋崎1丁目690番地47,ハーモニー広場植え込み,33.785524,130.468051
福岡県,福津市,75,福津市津屋崎1丁目625番地1,東町老人花園横,33.782832,130.470579
福岡県,福津市,76,福津市津屋崎1丁目566番地1,津屋崎中学校運動場横フェンス,33.785146,130.47313
福岡県,福津市,77,福津市津屋崎1丁目458番地1,カメリアステージ前植込み,33.786555,130.471043
福岡県,福津市,78,福津市津屋崎8丁目1605番地1,津屋崎小学校正門横フェンス,33.791553,130.469987
福岡県,福津市,79,福津市津屋崎7丁目801番地1地先,五反田市営住宅入口交差点横ガードパイプ,33.798403,130.473846
福岡県,福津市,80,福津市在自979番地地先,在自区内道路用地,33.792626,130.479469
福岡県,福津市,81,福津市星ヶ丘4番地111,星ヶ丘公民館前フェンス,33.789183,130.481791
福岡県,福津市,82,福津市須多田389番地,須多田公民館前,33.801969,130.483802
福岡県,福津市,83,福津市大石405番地1,大石区公民館付近,33.805239,130.486906
福岡県,福津市,84,福津市生家1806番地,生家区公民館前,33.812122,130.485132
福岡県,福津市,85,福津市勝浦5053番地6地先,塩浜口バス停そば,33.807968,130.473167
福岡県,福津市,86,福津市津屋崎5丁目2176番地1,末広公民館前ガードレール,33.797539,130.467633
福岡県,福津市,87,福津市宮司1379番地2,宮地嶽神社前交差点そば,33.779566,130.483113
福岡県,福津市,88,福津市宮司6丁目1699番地30,石津電気商会敷地横畑柵,33.781747,130.478502
福岡県,福津市,89,福津市宮司6丁目1707番地9,的岡区公民館,33.784302,130.478361
福岡県,福津市,90,福津市宮司浜3丁目1805番地1地先,聖愛幼稚園前バス停横ガードパイプ,33.780258,130.4757
福岡県,福津市,91,福津市宮司浜3丁目1912番地1,宮司コミュニティセンター前,33.777656,130.474825
福岡県,福津市,92,福津市宮司4丁目2093番地2,あい保育園駐車場横ガードパイプ,33.778309,130.479226
福岡県,福津市,93,福津市宮司1丁目464番地1地先,道辻交差点セブンイレブン向かい側ガードパイプ,33.774374,130.483867
福岡県,福津市,94,福津市宮司ヶ丘117番地86,宮司ヶ丘バス停横,33.785033,130.482503
福岡県,福津市,95,福津市奴山718番地1,奴山公民館前,33.816422,130.495011
福岡県,福津市,96,福津市勝浦2997番地,桂区古賀公民館前,33.826223,130.489071
福岡県,福津市,97,福津市勝浦2249番地1,勝浦小学校正門横,33.827594,130.487118
福岡県,福津市,98,福津市勝浦360番地2,勝浦浜バス停前,33.842371,130.484225
福岡県,福津市,99,福津市勝浦1068番地1,西東バス停横,33.834975,130.48429
福岡県,福津市,100,福津市勝浦3301番地2,松原新海邸前,33.825491,130.478574
福岡県,福津市,101,福津市勝浦4822番地,塩浜区公民館前,33.813746,130.473068