prefecture,city,number,address,name,lat,long,note
大阪府,箕面市,1,上止々呂美４４８番地先,上ノ所バス停,34.89456,135.4709982,緯度経度は怪しい
大阪府,箕面市,2,上止々呂美１３４番地１先,国道 東側,34.8877946,135.4681531,緯度経度は怪しい
大阪府,箕面市,3,上止々呂美６番地１先,中止々呂美バス停 北側,34.89456,135.4709982,緯度経度は怪しい
大阪府,箕面市,4,下止々呂美９６２番地,止々呂美ふるさと自然館 東側,34.8825399,135.4618789,
大阪府,箕面市,5,下止々呂美７９６番地先,下止々呂美バス停,34.8788434,135.4590785,緯度経度は怪しい
大阪府,箕面市,6,下止々呂美２６４番地１先,止々呂美南バス停（大正橋西側）,34.879209,135.4587492,緯度経度は怪しい
大阪府,箕面市,7,下止々呂美４４９番地１先,下止々呂美自治会館進入口 北側,34.8814016,135.4614497,
大阪府,箕面市,8,下止々呂美５４３番地先,国道４２３号線沿い コンビニ 東側,34.8769915,135.4521607,緯度経度は怪しい
大阪府,箕面市,9,森町南２丁目３番地先,ゆりの木公園南側,34.8883635,135.4590767,
大阪府,箕面市,10,森町中１丁目１番先,止々呂美山の手線交差点（地区センター側）,34.8889783,135.4603607,
大阪府,箕面市,11,森町中２丁目２０番内,そよかぜ公園 東側,34.8902985,135.4634181,
大阪府,箕面市,12,森町中３丁目１３番内,森の丘公園 西側,34.892386,135.4625351,
大阪府,箕面市,13,森町中１丁目１３番地先,いわや橋東側,34.8914836,135.4589296,緯度経度は怪しい
大阪府,箕面市,14,森町北２丁目１３番地先,森町自治会館 西側,34.8988001,135.4621672,
大阪府,箕面市,15,森町中１丁目２番地先,森町駐車場南側向かい道路柵,34.8880644,135.4614313,
大阪府,箕面市,16,瀬川５丁目１１番６号,masked,34.8093701,135.4508391,
大阪府,箕面市,17,瀬川４丁目３番地,ガーデンハイツＭＡＳＡＫＩ南側ガードレール,34.8113094,135.4543678,
大阪府,箕面市,18,瀬川４丁目１９番内,瀬川南公園 南側,34.809143,135.4559865,
大阪府,箕面市,19,瀬川４丁目１番２８号先,市立聖苑対面,34.8111074,135.4567074,
大阪府,箕面市,20,瀬川５丁目１番先,阪急オアシス箕面店 東側,34.8107723,135.4526021,
大阪府,箕面市,21,瀬川５丁目１６番内,瀬川西公園 西側,34.8091076,135.4526021,
大阪府,箕面市,22,瀬川３丁目４番９号,ヤマトミシン製造（株）配送センター 南側,34.8103885,135.4493651,
大阪府,箕面市,23,瀬川１丁目２３番２２号先,masked,34.8174988,135.4523934,
大阪府,箕面市,24,瀬川１丁目５番先,玉川緑地 南側,34.8165746,135.4514986,
大阪府,箕面市,25,瀬川２丁目２１番内,瀬川緑地 北側,34.8159076,135.4523078,
大阪府,箕面市,26,瀬川２丁目３番先,阪急電車箕面線踏切 北側,34.8136883,135.4523078,
大阪府,箕面市,27,瀬川２丁目５番８号先,masked,34.8113993,135.4495544,
大阪府,箕面市,28,瀬川１丁目９番先,今井橋 南側,34.8146798,135.4502479,
大阪府,箕面市,29,瀬川３丁目２番１号,西南小学校 南側,34.8124514,135.4529652,緯度経度は怪しい
大阪府,箕面市,30,半町４丁目２番先,半町４丁目交差点南ガードレール,34.8134757,135.4596654,
大阪府,箕面市,31,半町４丁目５番７号,masked,34.81216149999999,135.4569428,
大阪府,箕面市,32,半町４丁目６番３９号,西南図書館東側柵,34.8116139,135.4575977,
大阪府,箕面市,33,半町４丁目３番４４号,近畿セイビ㈱前,34.8130139,135.4581754,
大阪府,箕面市,34,半町４丁目１２番内,半町南公園西側 入口階段奥,34.8126964,135.4612842,
大阪府,箕面市,35,半町４丁目８番４号,エリターム半町前,34.8119925,135.4597205,
大阪府,箕面市,36,半町４丁目２０番５３号,霊園 南側,34.8102579,135.4567731,
大阪府,箕面市,37,半町３丁目５番内,日商岩井箕面ハイツ 南西側,34.8145658,135.4562907,
大阪府,箕面市,38,半町１丁目１番先,阿比太橋 東側,34.818505,135.4561336,
大阪府,箕面市,39,半町１丁目４番先,箕面川フェンス,34.8171414,135.4537792,
大阪府,箕面市,40,半町２丁目１４番内,半町北公園 南側,34.8173835,135.4573108,
大阪府,箕面市,41,半町３丁目５番内,日商岩井箕面ハイツＢ棟 東側,34.8145658,135.4562907,
大阪府,箕面市,42,半町３丁目１番内,桜井駅 南側,34.8160761,135.4597389,
大阪府,箕面市,43,半町３丁目１３番先,沢田マンション 北側,34.8140306,135.4596654,
大阪府,箕面市,44,新稲６丁目２１番内,新稲西公園 西側,34.8267207,135.4528964,
大阪府,箕面市,45,新稲７丁目６番内,masked,34.8258351,135.4512779,
大阪府,箕面市,46,桜ヶ丘３丁目８番内,桜ヶ丘変電所 北側,34.8235044,135.455545,
大阪府,箕面市,47,桜ヶ丘４丁目１９番内,新桜ヶ丘児童遊園 東側,34.8235927,135.4536321,
大阪府,箕面市,48,桜ヶ丘４丁目１９番３号,桜ヶ丘人権文化センター前道路柵,34.8228521,135.4537431,
大阪府,箕面市,49,桜ヶ丘４丁目１６番内,止々呂渕公園南側ガードレール,34.8213085,135.4531907,
大阪府,箕面市,50,桜ヶ丘４丁目５番５号,西側緑地,34.8213822,135.4523319,
大阪府,箕面市,51,桜井１丁目１番１５号,南小コミセン桜のまちの家 西側,34.8175266,135.459595,
大阪府,箕面市,52,桜井２丁目２番内,桜井駅 北側,34.8170707,135.4608427,
大阪府,箕面市,53,桜井２丁目９番内,踏切南 東側,34.8167755,135.4626087,
大阪府,箕面市,54,桜井２丁目８番８号,大阪北部農協本店箕面支店西側駐車場フェンス,34.8178056,135.4626659,
大阪府,箕面市,55,桜井２丁目９番内,桜井第一ちびっ子広場 南側,34.8167755,135.4626087,
大阪府,箕面市,56,桜井２丁目１０番内,桜井児童公園 西側,34.8158074,135.4623144,
大阪府,箕面市,57,桜井１丁目１８番３０号,ガードレール,34.8183624,135.4632995,
大阪府,箕面市,58,桜６丁目５番内,南小学校 南側,34.8205416,135.4605483,
大阪府,箕面市,59,桜６丁目５番内,南小学校 東側,34.8205416,135.4605483,
大阪府,箕面市,60,桜６丁目５番内,南小学校 北側,34.8205416,135.4605483,
大阪府,箕面市,61,桜ヶ丘２丁目７番１１号,masked,34.8225649,135.4587688,
大阪府,箕面市,62,桜５丁目２０番内,桜南公園 西側,34.820943,135.46202,
大阪府,箕面市,63,桜ヶ丘２丁目１０番先,田村橋 東側,34.8213148,135.4595182,
大阪府,箕面市,64,桜ヶ丘２丁目１番先,紅葉橋 北側,34.8202169,135.4583409,
大阪府,箕面市,65,新稲２丁目１４番内,スカイアリーナ,34.8351852,135.4595182,
大阪府,箕面市,66,新稲５丁目２番内,新稲児童遊園 南側,34.8307109,135.4561336,
大阪府,箕面市,67,新稲５丁目１６番５５号,masked,34.8290594,135.4573272,
大阪府,箕面市,68,桜ヶ丘１丁目１０番８号先,ガードレール,34.6306541,135.6081498,緯度経度は怪しい
大阪府,箕面市,69,新稲５丁目２番先,阪急バス停「新稲」西側,34.8307109,135.4561336,
大阪府,箕面市,70,桜ヶ丘１丁目１２番２６号,桜ヶ丘山野草ガーデン,34.8255693,135.4581847,
大阪府,箕面市,71,新稲６丁目３番内,ポヌール西側石澄川沿いガードレール,34.8293703,135.451425,
大阪府,箕面市,72,桜１丁目７番１０号,ドラッグストア 南側,34.8247885,135.4623208,
大阪府,箕面市,73,桜５丁目６番内,桜防災広場 北側,34.82277000000001,135.4631238,
大阪府,箕面市,74,桜１丁目１２番地内,駐車場南側,34.8270171,135.4649635,
大阪府,箕面市,75,桜１丁目１番６号先,相和電気工業（株）西側,34.8255161,135.465492,
大阪府,箕面市,76,桜４丁目１８番１４号先,歩道柵,34.824974,135.4658153,
大阪府,箕面市,77,桜５丁目１３番先,百楽荘第１踏切南西側,34.821433,135.4650371,
大阪府,箕面市,78,桜１丁目１２番内,箕面川沿いガードレール,34.8270171,135.4649635,
大阪府,箕面市,79,桜２丁目１番内,市民テニスコート南東側柵,34.8284809,135.4642276,
大阪府,箕面市,80,新稲４丁目４番先,珈集箕面店向かい道路柵,34.8310893,135.4599597,
大阪府,箕面市,81,新稲３丁目２番１号先,第一中学校 北側,34.830971,135.463166,
大阪府,箕面市,82,新稲３丁目２番１号,第一中学校 東側,34.830971,135.463166,
大阪府,箕面市,83,新稲３丁目１６番先,西小路高橋 北東側,34.8297412,135.4665089,
大阪府,箕面市,84,新稲３丁目１２番２号,西小学校運動場 西側,34.8297818,135.4635239,
大阪府,箕面市,85,新稲４丁目１８番内,第一市民プール 南側,34.8283036,135.461137,
大阪府,箕面市,86,箕面７丁目３番先,箕面橋 西側,34.832111,135.4653314,
大阪府,箕面市,87,箕面７丁目１番先,徳尾橋南側ガードレール,34.8342891,135.4659938,
大阪府,箕面市,88,箕面８丁目２番先,中衛橋 北側,34.8360185,135.4664353,
大阪府,箕面市,89,箕面７丁目６番内,西小路霊園 南側,34.8340025,135.4634181,
大阪府,箕面市,90,箕面７丁目７番３１号,学校法人箕面学園 北側,34.8349658,135.4644199,
大阪府,箕面市,91,箕面７丁目７番３１号,学校法人箕面学園 西側,34.8349658,135.4644199,
大阪府,箕面市,92,箕面８丁目１３番内,平和台配水地 北側,34.8390415,135.4641328,
大阪府,箕面市,93,百楽荘４丁目１番２４号先,高見マンション 南側,34.8184427,135.4663129,
大阪府,箕面市,94,百楽荘３丁目７番２３号,箕面ビル（ＮＴＴ）西側,34.8200715,135.4665252,
大阪府,箕面市,95,百楽荘１丁目１番内,阪急電車牧落駅 西側,34.8227597,135.4658834,
大阪府,箕面市,96,百楽荘１丁目９番１３号,箕面小コミセン日時計の家前,34.8243456,135.4673691,
大阪府,箕面市,97,牧落２丁目６番内,大通庵公園 東側,34.8225514,135.4710718,
大阪府,箕面市,98,牧落２丁目１６番先,歩道橋 北側,34.8214091,135.470851,
大阪府,箕面市,99,牧落５丁目７番地内,山ノ原公園 北側,34.8197383,135.4714398,
大阪府,箕面市,100,西小路４丁目６番１号,箕面市役所 東側,34.8266319,135.4700381,
大阪府,箕面市,101,西小路４丁目６番１号,箕面市役所 北側,34.8266319,135.4700381,
大阪府,箕面市,102,西小路４丁目６番１号,箕面市役所 南側,34.8266319,135.4700381,
大阪府,箕面市,103,西小路１丁目３番内,西小路第３踏切南西フェンス,34.8285224,135.467024,
大阪府,箕面市,104,西小路２丁目１３番内,西小路ちびっ子広場 東側,34.8303109,135.4684959,
大阪府,箕面市,105,西小路２丁目１０番内,西小路児童公園 北側,34.8290596,135.4687903,
大阪府,箕面市,106,西小路５丁目２番３２号先,歩道柵,34.8256455,135.4677416,
大阪府,箕面市,107,箕面１丁目１番内,箕面駅 西側,34.8355915,135.4684039,
大阪府,箕面市,108,箕面１丁目９番先,平尾会館 東側（駐車場前）,34.8352987,135.4690847,
大阪府,箕面市,109,箕面６丁目７番８号,平尾踏切 南側,34.8320448,135.4676312,
大阪府,箕面市,110,箕面６丁目４番１０号,箕面駅前第一駐車場 東側,34.8335899,135.4700414,
大阪府,箕面市,111,箕面６丁目４番３３号,りそな銀行箕面支店 西側,34.8327322,135.4694666,
大阪府,箕面市,112,箕面６丁目４番内,箕面駅前第一駐車場 西側,34.8334095,135.4694435,
大阪府,箕面市,113,箕面６丁目５番先,箕面郵便局 東側,34.8314797,135.4695263,
大阪府,箕面市,114,箕面５丁目１１番２３号,中央生涯学習センター 西側,34.8311656,135.4716458,
大阪府,箕面市,115,稲２丁目５番１２号先,ポケットパーク南側道路柵,34.823391,135.4758177,
大阪府,箕面市,116,稲４丁目２番先,新西脇橋北側ガードレール,34.8213668,135.4784323,
大阪府,箕面市,117,稲４丁目３番１２号,第五中学校北側,34.8204697,135.4794948,
大阪府,箕面市,118,稲６丁目２番先,堰津電機工業 東側,34.8199259,135.4802726,
大阪府,箕面市,119,稲６丁目１４番内,稲南公園 西側,34.8197479,135.4841006,
大阪府,箕面市,120,稲５丁目１１番先,布ケ池 東側,34.8228254,135.4825488,
大阪府,箕面市,121,稲３丁目８番先,芝西バス停 西側,34.8246371,135.4808615,
大阪府,箕面市,122,西小路３丁目４番１号,いきいき活動センター 南側,34.8274857,135.4734604,
大阪府,箕面市,123,西小路３丁目８番内,滝ケ花公園 北側,34.8285991,135.4732062,
大阪府,箕面市,124,稲１丁目１０番内,ライフ入口 北側,34.82622,135.4752671,
大阪府,箕面市,125,稲１丁目１５番８号,中小学校 南側,34.8285986,135.4754052,
大阪府,箕面市,126,稲１丁目４番先,コープこうべ前歩道橋 北側,34.8266034,135.4785059,
大阪府,箕面市,127,箕面４丁目９番内,蓮池 南側,34.829756,135.4754144,
大阪府,箕面市,128,箕面４丁目９番内,箕面団地東側フェンス,34.829756,135.4754144,
大阪府,箕面市,129,箕面５丁目４番２６号先,道路柵,34.8329931,135.4733718,
大阪府,箕面市,130,箕面３丁目４番１号,北小学校 南側,34.8355854,135.4744529,
大阪府,箕面市,131,箕面３丁目４番１号,北小学校 東側,34.8355854,135.4744529,
大阪府,箕面市,132,箕面３丁目８番内,松尾山東遊園 東側,34.8363379,135.4761504,
大阪府,箕面市,133,箕面４丁目１６番先,ソレーユ箕面 東側,34.8331562,135.4752671,
大阪府,箕面市,134,箕面３丁目１８番内,道路柵,34.8346851,135.4749727,
大阪府,箕面市,135,箕面５丁目１２番地内,フェンス,34.8320819,135.4717342,
大阪府,箕面市,136,船場西２丁目１２番内,杉谷南公園 南側,34.8190086,135.488518,
大阪府,箕面市,137,船場西２丁目１１番内,杉谷公園東側道路柵,34.8197054,135.4882235,
大阪府,箕面市,138,船場西２丁目３番先,新船場西公園 北側,34.821884,135.4888861,
大阪府,箕面市,139,船場西１丁目１１番４４号,萱野小コミセン くすの木の家北側,34.8225739,135.485717,
大阪府,箕面市,140,船場西３丁目４番内,新船場南公園 南側,34.8177445,135.4899906,
大阪府,箕面市,141,船場西２丁目２番内,箕面船場阪大前駅歩行者デッキ,34.8202422,135.4899906,
大阪府,箕面市,142,萱野５丁目２番内,市立病院 北側入口 道路向かい,34.8252978,135.4841006,
大阪府,箕面市,143,萱野５丁目７番内,市立病院 東側柵,34.824123,135.4836589,
大阪府,箕面市,144,萱野３丁目４番内,芝分団格納庫 南側,34.8280846,135.4829227,
大阪府,箕面市,145,萱野３丁目６番９号,masked,34.8287506,135.4846741,
大阪府,箕面市,146,萱野２丁目７番４０号,萱野小学校 南側,34.8307561,135.4872994,
大阪府,箕面市,147,萱野１丁目１９番４号,萱野中央人権文化センター 東側,34.83086,135.4839488,
大阪府,箕面市,148,坊島１丁目１１番内,唐池 西側,34.8308421,135.4777698,
大阪府,箕面市,149,萱野１丁目１５番１２号,第二中学校 西側,34.830418,135.4806268,
大阪府,箕面市,150,萱野１丁目１５番１２号,第二中学校グラウンド 北側,34.830418,135.4806268,
大阪府,箕面市,151,如意谷２丁目１番３８号,masked,34.8360128,135.4820189,
大阪府,箕面市,152,如意谷４丁目５番先,宝珠院 東側,34.8389943,135.4854212,
大阪府,箕面市,153,坊島４丁目１６番先,白島バス停 西側（新御堂筋北行）,34.8345544,135.487929,
大阪府,箕面市,154,白島３丁目１番７号先,駐車場 南側,34.838481,135.4866974,
大阪府,箕面市,155,如意谷１丁目４番４０号,アーバンクリフ箕面 北側,34.8345045,135.4802908,
大阪府,箕面市,156,如意谷２丁目８番先,如意谷2丁目交差点南側,34.8378077,135.4817449,
大阪府,箕面市,157,如意谷２丁目１０番４５号,萱北小コミセン如意谷の里 南側,34.8378628,135.48467,
大阪府,箕面市,158,如意谷３丁目８番２１号,如意谷団地集会所 西側(ベンチ西側),34.8389304,135.4809285,
大阪府,箕面市,159,如意谷４丁目６番内,山手公園 南側バス停,34.8414557,135.4845424,
大阪府,箕面市,160,如意谷３丁目２番内,山麓公園 東側,34.837489,135.4789476,
大阪府,箕面市,161,如意谷３丁目４番１号,masked,34.8385716,135.4780548,
大阪府,箕面市,162,如意谷５丁目１番先,コスモフォレスタ箕面 管理棟 道路向かい,34.8408831,135.4793892,緯度経度は怪しい
大阪府,箕面市,163,如意谷４丁目４番先,萱野北小学校 正門 左側,34.8388938,135.4841006,
大阪府,箕面市,164,如意谷４丁目６番内,萱野北小学校 北側,34.8414557,135.4845424,
大阪府,箕面市,165,船場東３丁目１６番１号,旧船場東受水場 西側,34.8249852,135.4958034,
大阪府,箕面市,166,船場東３丁目７番内,箕面船場阪大前駅,34.82203080000001,135.4914632,
大阪府,箕面市,167,船場東３丁目１０番内,箕面市立船場広場 エリアB,34.8207375,135.4915909,
大阪府,箕面市,168,船場東３丁目１番６号,COM２号館北側ガードレール,34.8226927,135.4902727,
大阪府,箕面市,169,船場東３丁目２番２６号,阪急オアシス箕面船場店入口前ガードレール,34.8201722,135.4913631,
大阪府,箕面市,170,船場東３丁目６番内,ファミリーマート前道路柵,34.82374250000001,135.4936721,
大阪府,箕面市,171,船場東２丁目２番内,ジェット駐輪場フェンス,34.824144,135.491164,
大阪府,箕面市,172,西宿２丁目１番先,萱野交差点南東ガードレール,34.8296126,135.4895488,
大阪府,箕面市,173,西宿２丁目１３番先,空き地 南側,34.8296148,135.4927149,
大阪府,箕面市,174,西宿２丁目１１番内,西宿児童遊園 西側,34.83060940000001,135.4938194,
大阪府,箕面市,175,西宿２丁目１７番先,芋川ガードレール,34.8283872,135.4906532,
大阪府,箕面市,176,今宮４丁目１０番５５号先,ガードレール,34.8284556,135.4974692,
大阪府,箕面市,177,今宮４丁目１５番内,今宮西公園 東側,34.8275497,135.4978695,
大阪府,箕面市,178,西宿３丁目２番内,西宿南集会所,34.8287033,135.4939622,
大阪府,箕面市,179,白島１丁目２０番先,ウェルビー箕面道路向い,34.8346301,135.4941139,
大阪府,箕面市,180,石丸１丁目２７番地内,道路南側,34.8371335,135.4935249,
大阪府,箕面市,181,白島２丁目１９番内,白島公園 西側,34.83771249999999,135.4911686,
大阪府,箕面市,182,白島２丁目３番先,唐子４号橋北側柵,34.8355281,135.491095,
大阪府,箕面市,183,西宿１丁目１４番内,イオン２階東側出入口前,34.8321809,135.4894015,
大阪府,箕面市,184,白島３丁目５番先,白島荘 東側,34.83883429999999,135.4899906,
大阪府,箕面市,185,西宿１丁目１４番内,Q’sモールEAST,34.8321809,135.4894015,
大阪府,箕面市,186,今宮２丁目１４番先,沼田池 西側,34.8315353,135.4982377,
大阪府,箕面市,187,今宮２丁目３番地先,今宮交差点歩道橋南側,34.8334839,135.4976486,
大阪府,箕面市,188,今宮３丁目２０番内,長池児童遊園 西側,34.8313691,135.5008889,
大阪府,箕面市,189,今宮３丁目１２番内,ジンデン公園 北側,34.8327628,135.5002997,
大阪府,箕面市,190,西宿２丁目７番先,芋川横ガードレール,34.8317722,135.4954394,
大阪府,箕面市,191,今宮４丁目４番先,プレザントライフ 東側,34.8301416,135.4988268,
大阪府,箕面市,192,今宮３丁目６番内,バス停「箕面墓地公園南（南側）」横ガードレール,34.83224209999999,135.5036875,
大阪府,箕面市,193,石丸１丁目１８番１号,萱野東小学校 北側,34.8375286,135.4960193,
大阪府,箕面市,194,石丸１丁目１７番１号,第四中学校 北側,34.837497,135.4977516,
大阪府,箕面市,195,外院１丁目２番内,第二総合運動場入口,34.8369782,135.5019199,
大阪府,箕面市,196,外院２丁目１２番１３号先,ハイツ阪本 西側,34.84267570000001,135.5016596,
大阪府,箕面市,197,外院３丁目３番先,今池遊園 南側,34.8423811,135.4993423,
大阪府,箕面市,198,石丸３丁目５番１０号,東側フェンス,34.8418539,135.4962991,
大阪府,箕面市,199,石丸２丁目１０番７０号,マックスバリュ箕面外院店 北側,34.8405276,135.4974276,
大阪府,箕面市,200,小野原西３丁目３６番先,masked,34.83334000000001,135.5048659,
大阪府,箕面市,201,小野原西６丁目１５番地内,仁鳥公園　北側,34.8284586,135.5138523,
大阪府,箕面市,202,小野原西５丁目２番３６号先,箕面市立多文化交流センター西側,34.8307895,135.511047,
大阪府,箕面市,203,小野原西３丁目１８番地内,松出公園　南側,34.8316811,135.5098975,
大阪府,箕面市,204,小野原西６丁目１２番地先,レストラン駐車場　北側,34.8299697,135.5153256,
大阪府,箕面市,205,小野原西３丁目２７番地内,masked,34.8314438,135.5070755,
大阪府,箕面市,206,小野原西４丁目１番先,小野原配水地,34.8309333,135.506118,
大阪府,箕面市,207,粟生新家１丁目１２番３号先,ガードレール,34.8349606,135.5097543,
大阪府,箕面市,208,小野原西１丁目６番先,北浦橋　東側,34.8351384,135.5120843,
大阪府,箕面市,209,小野原西１丁目３番１号先,魚精寿司店　北側,34.834914,135.515284,
大阪府,箕面市,210,小野原東１丁目６番先,小野原東公園　西側,34.8343351,135.5192302,
大阪府,箕面市,211,小野原東３丁目２番１号,豊川南小学校　北側,34.83184550000001,135.5167622,
大阪府,箕面市,212,小野原東２丁目７番先,エレガントマンション　南側,34.8331215,135.5191565,
大阪府,箕面市,213,小野原東２丁目９番先,小野原森ノ下公園　北側,34.833076,135.5201873,
大阪府,箕面市,214,小野原東４丁目１番先,荒内谷公園　南側,34.8324986,135.5205263,
大阪府,箕面市,215,小野原東４丁目２１番内,北の杜公園　北側,34.8323933,135.5223983,
大阪府,箕面市,216,小野原東４丁目２７番４３号,とよかわみなみ幼稚園　南側,34.8311763,135.5230046,
大阪府,箕面市,217,小野原東６丁目１５番４６号,小野原多世代地域交流センター北側,34.8299809,135.5222659,
大阪府,箕面市,218,小野原東５丁目１４番内,小野原南２号公園　東側,34.8290748,135.5212195,
大阪府,箕面市,219,小野原東６丁目２６番内,けやき公園　西側,34.8288953,135.5250509,
大阪府,箕面市,220,小野原東６丁目３３番内,南の杜公園　北側,34.8266547,135.5236509,
大阪府,箕面市,221,小野原東５丁目１８番内,小野原南３号公園　南側,34.8281109,135.5190598,
大阪府,箕面市,222,粟生外院５丁目３番内,皿池公園　北側,34.8430001,135.5043838,
大阪府,箕面市,223,粟生外院３丁目７番１４号先,河原橋　北側,34.8407198,135.5040936,
大阪府,箕面市,224,粟生外院４丁目２６番内,外院の里北公園　南側,34.8422905,135.5081804,
大阪府,箕面市,225,粟生外院１丁目１６番内,宮ノ池北公園　西側,34.8371362,135.5067809,
大阪府,箕面市,226,粟生外院１丁目１４番内,外院南公園　西側,34.8372254,135.5048659,
大阪府,箕面市,227,粟生新家２丁目５番内,店舗駐車場　西側,34.8368282,135.5097272,
大阪府,箕面市,228,粟生外院４丁目２番内,外院の里南公園　東側,34.8384626,135.5075698,
大阪府,箕面市,229,粟生新家４丁目５番先,運輸倉庫　西側,34.8367668,135.5156203,
大阪府,箕面市,230,粟生新家４丁目４番内,関西電力総合運動場　西側,34.8388978,135.5175357,
大阪府,箕面市,231,粟生間谷西１丁目３番先,豊川支所前バス停　東側,34.8404581,135.5142943,
大阪府,箕面市,232,粟生新家５丁目５番１号,東小学校　南側,34.8400296,135.5118183,
大阪府,箕面市,233,粟生新家５丁目５番１号,東小学校　北側,34.8400296,135.5118183,
大阪府,箕面市,234,粟生新家５丁目８番内,外院南１号公園　東側,34.8401463,135.5109057,
大阪府,箕面市,235,粟生間谷西１丁目６番内,第５駐車場　西側,34.842962,135.513705,
大阪府,箕面市,236,粟生間谷西２丁目６番２０号,給水塔南側駐車場　南側　奥のフェンス,34.8443334,135.5097849,
大阪府,箕面市,237,粟生間谷西２丁目６番内,阪急バスターミナル前,34.8445553,135.5093128,
大阪府,箕面市,238,粟生間谷西３丁目１番３号,東生涯学習センター,34.8441864,135.512078,
大阪府,箕面市,239,粟生間谷西２丁目４番内,masked,34.8432578,135.511937,
大阪府,箕面市,240,粟生間谷西２丁目３番内,仁合公園　東側,34.8425224,135.5126,
大阪府,箕面市,241,粟生間谷西１丁目６番内,masked,34.842962,135.513705,
大阪府,箕面市,242,粟生間谷西１丁目６番内,masked,34.842962,135.513705,
大阪府,箕面市,243,粟生間谷西４丁目２番先,粟生団地３棟　西側,34.8456802,135.5057497,
大阪府,箕面市,244,粟生間谷西４丁目２番先,粟生団地２１棟　西側,34.8456802,135.5057497,
大阪府,箕面市,245,粟生間谷西４丁目２番先,粟生団地３５棟　西側,34.8456802,135.5057497,
大阪府,箕面市,246,粟生間谷西４丁目２番先,粟生団地４１棟　西側,34.8456802,135.5057497,
大阪府,箕面市,247,粟生間谷西４丁目３番内,西田公園　東側,34.8471793,135.5084013,
大阪府,箕面市,248,粟生間谷西４丁目３番１号,豊川北小学校　西側,34.8465781,135.5076141,
大阪府,箕面市,249,粟生間谷西４丁目２番内,粟生団地９棟　西側,34.8456802,135.5057497,
大阪府,箕面市,250,粟生間谷西５丁目１１番先,奥バス停　南側,34.8487242,135.5050823,
大阪府,箕面市,251,粟生間谷西６丁目７番７号先,奥自治会館　南側,34.848832,135.5070571,
大阪府,箕面市,252,粟生間谷西７丁目２１番内,東山南公園　北側,34.8501133,135.5098008,
大阪府,箕面市,253,粟生間谷西５丁目３４番内,安楽寺橋　南側,34.8483254,135.5048659,
大阪府,箕面市,254,粟生間谷東５丁目４番先,粟生間谷交差点,34.8471541,135.5142206,
大阪府,箕面市,255,粟生間谷西３丁目２４番先,間谷橋　西側,34.8478225,135.5099482,
大阪府,箕面市,256,粟生間谷西３丁目１３番１号先,宮の前バス停　北側,34.8459626,135.5124714,
大阪府,箕面市,257,粟生間谷西３丁目１０番３５号,豊北小コミセン鐘の鳴る家,34.8455092,135.5101356,
大阪府,箕面市,258,粟生間谷東１丁目２１番先,大井出橋　東側,34.8438734,135.516136,
大阪府,箕面市,259,粟生間谷東５丁目１８番先,法泉寺保育園　南側,34.8471774,135.5153256,
大阪府,箕面市,260,粟生間谷東５丁目３１番内,間谷南公園　東側,34.8487422,135.5149573,
大阪府,箕面市,261,粟生間谷東６丁目１３番内,間谷西公園　東側,34.8512044,135.515031,
大阪府,箕面市,262,粟生間谷東５丁目８番先,山の口バス停　東側,34.8460936,135.516136,
大阪府,箕面市,263,彩都粟生南２丁目２番内,緑地南側,34.8451859,135.5200406,
大阪府,箕面市,264,彩都粟生南３丁目２番７号,カサ・フィランテ Vol.Ⅱ　西側歩道,34.851816,135.520572,
大阪府,箕面市,265,彩都粟生北２丁目１番内,『彩都の丘学園』校門看板横,34.8574162,135.5113477,
大阪府,箕面市,266,彩都粟生南６丁目４番先,彩都低区配水地　西側,34.8554023,135.5149573,
大阪府,箕面市,267,彩都粟生南４丁目２番内,三叉路東側道路柵,34.85680110000001,135.5172411,
大阪府,箕面市,268,彩都粟生南７丁目４２番１,彩都区画９０号緑地,34.8534018,135.5104638,
大阪府,箕面市,269,彩都粟生南７丁目１番２６号,masked,34.8546045,135.5094942,
大阪府,箕面市,270,彩都粟生北２丁目,彩都なないろ公園駐車場,34.8578414,135.5104638,
大阪府,箕面市,271,彩都粟生南６丁目１５番４号,彩都みのり保育園　北側,34.8566615,135.5120405,
