prefecture,city,number,address,name,lat,long,note
埼玉県,上尾市,1-1,本町三丁目1番1号,上尾市役所東側駐車場南側フェンス,35.977116,139.59314,緯度経度は怪しい
埼玉県,上尾市,1-2,本町三丁目1番1号,上尾市役所東側駐車場東側フェンス,35.977116,139.59314,緯度経度は怪しい
埼玉県,上尾市,1-3,本町五丁目4番27号,masked,35.9814211,139.5896322,
埼玉県,上尾市,1-4,本町五丁目237番,本町自治会館南側フェンス,35.983089,139.588989,緯度経度は怪しい
埼玉県,上尾市,1-5,本町四丁目810番1号,根貝戸団地5号棟自治会館東側,35.980995,139.59494,緯度経度は怪しい
埼玉県,上尾市,1-6,本町二丁目840番5号,根貝戸団地13号棟南公園北側,35.977188,139.597809,緯度経度は怪しい
埼玉県,上尾市,1-7,本町一丁目854番2号,本町一丁目子供広場南側,35.975945,139.595917,緯度経度は怪しい
埼玉県,上尾市,2-1,大字上尾村1171番地2,東小学校北校門フェンス,35.985168,139.5952,緯度経度は怪しい
埼玉県,上尾市,2-2,大字上尾村1171番地2,東小学校東側フェンス,35.985168,139.5952,緯度経度は怪しい
埼玉県,上尾市,2-3,大字上尾村479番地,東中学校南側フェンス,35.988766,139.594498,緯度経度は怪しい
埼玉県,上尾市,2-4,二ツ宮1030番地,ゴルフ練習場西側フェンス,35.983158,139.603271,緯度経度は怪しい
埼玉県,上尾市,2-5,二ツ宮709番地,masked,35.977367,139.601654,緯度経度は怪しい
埼玉県,上尾市,2-6,二ツ宮750番地,上尾市文化センター西側芝川沿い,35.978691,139.598572,緯度経度は怪しい
埼玉県,上尾市,2-7,大字上尾村1157番地,水道部庁舎南側植込み,35.982491,139.596436,緯度経度は怪しい
埼玉県,上尾市,2-8,二ツ宮858番地,二ツ宮中央公園東側,35.979198,139.602173,緯度経度は怪しい
埼玉県,上尾市,3-1,上町一丁目15番4号,中央小学校西側フェンス,35.9776534,139.5912633,
埼玉県,上尾市,3-2,上町一丁目15番4号,中央小学校南側フェンス,35.9776534,139.5912633,
埼玉県,上尾市,3-3,柏座一丁目661番15,柏座一丁目東公園フェンス,35.975567,139.585846,緯度経度は怪しい
埼玉県,上尾市,3-4,宮本町2番1号,アリコベール上尾サロン館東側植込み,35.9742136,139.5884962,
埼玉県,上尾市,3-5,上町一丁目7番1号,図書館南側植込み,35.97707219999999,139.5887473,
埼玉県,上尾市,3-6,上町二丁目14番19号,青少年センター東側フェンス,35.9801524,139.589143,
埼玉県,上尾市,3-7,上町二丁目413番3号,税理士事務所前駐車場フェンス,35.9797162,139.5872122,
埼玉県,上尾市,3-8,上町一丁目4番,民間駐車場東側フェンス,35.9757422,139.588327,
埼玉県,上尾市,4-1,仲町一丁目11番46号,上尾小学校西側フェンス,35.97296070000001,139.5936748,
埼玉県,上尾市,4-2,仲町一丁目11番46号,上尾小学校東側フェンス,35.97296070000001,139.5936748,
埼玉県,上尾市,4-3,仲町一丁目11番46号,上尾小学校南側フェンス,35.97296070000001,139.5936748,
埼玉県,上尾市,4-4,仲町一丁目352番1号,氷川鍬神社南側駐車場フェンス,35.972488,139.593018,緯度経度は怪しい
埼玉県,上尾市,4-5,仲町二丁目1番14号,幼稚園西側フェンス,35.9744541,139.5927768,
埼玉県,上尾市,4-6,仲町一丁目320番1号,医院北側一方通行路北側植込み,35.972488,139.593018,緯度経度は怪しい
埼玉県,上尾市,4-7,愛宕二丁目158番2号,愛宕歩道橋北側下,35.971298,139.597839,緯度経度は怪しい
埼玉県,上尾市,5-1,愛宕三丁目23番34号,上尾中学校西側正門脇フェンス,35.9668078,139.6002177,
埼玉県,上尾市,5-2,愛宕三丁目23番34号,上尾中学校北側ブロック,35.9668078,139.6002177,
埼玉県,上尾市,5-3,愛宕三丁目23番34号,上尾中学校東側テニスコート脇フェンス,35.9668078,139.6002177,
埼玉県,上尾市,5-4,愛宕三丁目8番1号,ショッピングモール上尾西側植込み,35.9640591,139.5979361,
埼玉県,上尾市,5-5,愛宕一丁目137番,内科医院西側駐車場北側フェンス,35.969353,139.594437,緯度経度は怪しい
埼玉県,上尾市,5-6,愛宕三丁目28番30号,上尾運動公園北側,35.96891,139.60173,緯度経度は怪しい
埼玉県,上尾市,5-7,栄町6番,栄町公園北側,35.9602095,139.6007503,
埼玉県,上尾市,5-8,愛宕三丁目28番30号,上尾運動公園西側,35.96891,139.60173,緯度経度は怪しい
埼玉県,上尾市,6-1,東町三丁目1947番,東町小学校西側フェンス,35.974129,139.605713,緯度経度は怪しい
埼玉県,上尾市,6-2,東町三丁目1947番,東町小学校北側フェンス,35.974129,139.605713,緯度経度は怪しい
埼玉県,上尾市,6-3,東町三丁目1679番,スポーツ総合センター出入口東側フェンス,35.97134,139.608078,緯度経度は怪しい
埼玉県,上尾市,6-4,東町一丁目1477番,東町公園北側フェンス,35.974403,139.601089,緯度経度は怪しい
埼玉県,上尾市,6-5,東町三丁目2020番1,芝川ポンプ場東側,35.9755537,139.6054174,
埼玉県,上尾市,6-6,大字上尾下909番地1,陣屋公民館南側フェンス,35.972229,139.610413,緯度経度は怪しい
埼玉県,上尾市,6-7,日の出三丁目198番,日の出公民館フェンス,35.965107,139.608093,緯度経度は怪しい
埼玉県,上尾市,6-8,東町三丁目1947番,東町小学校東側フェンス,35.974129,139.605713,緯度経度は怪しい
埼玉県,上尾市,7-1,緑丘二丁目3番19号,緑丘保育所南側フェンス,35.9837988,139.582938,
埼玉県,上尾市,7-2,原新町4番6号,原新町南公園東側,35.983181,139.5797727,
埼玉県,上尾市,7-3,原新町27番1号,桃寿苑東側フェンス,35.9877184,139.5773229,
埼玉県,上尾市,7-4,原新町24番4号,原新町北公園北側フェンス,35.9871904,139.5769412,
埼玉県,上尾市,7-5,緑丘二丁目1番27号,こども保健センター南側フェンス,35.9826577,139.5831616,
埼玉県,上尾市,7-6,緑丘二丁目157番2号,緑丘スポーツ広場西側フェンス,35.984047,139.582703,緯度経度は怪しい
埼玉県,上尾市,7-7,原新町100番23,北上尾駅東口ロータリー,35.985569,139.578369,緯度経度は怪しい
埼玉県,上尾市,8-1,谷津二丁目123番78,谷津公園西側フェンス,35.972237,139.586761,緯度経度は怪しい
埼玉県,上尾市,8-2,谷津一丁目4番,民間駐車場第1駐車場西側,35.96982,139.587361,
埼玉県,上尾市,8-3,谷津一丁目15番1,民間駐車場南側フェンス,35.969528,139.58934,緯度経度は怪しい
埼玉県,上尾市,8-4,柏座一丁目685番地53,上尾中央総合病院第3駐車場南側フェンス,35.975567,139.585846,緯度経度は怪しい
埼玉県,上尾市,8-5,谷津二丁目123番58,上尾駅西口宏栄橋南側植込み,35.972237,139.586761,緯度経度は怪しい
埼玉県,上尾市,8-6,谷津二丁目3番23号,谷津観音東側フェンス,35.9715577,139.5863865,
埼玉県,上尾市,8-7,谷津一丁目99番2,上尾郵便局東側植込み,35.969528,139.58934,緯度経度は怪しい
埼玉県,上尾市,9-1,柏座四丁目3番8号,富士見小学校北側フェンス,35.9704553,139.5814025,
埼玉県,上尾市,9-2,柏座三丁目587番13,パーク上尾壱番館北側緑地帯,35.974182,139.581757,緯度経度は怪しい
埼玉県,上尾市,9-3,柏座二丁目14番2号,春日神社,35.9707009,139.5826435,
埼玉県,上尾市,9-4,柏座四丁目3番8号,富士見小学校南側フェンス,35.9704553,139.5814025,
埼玉県,上尾市,9-5,柏座三丁目1番48号,パーク上尾管理事務所脇フェンス,35.9756318,139.5836453,
埼玉県,上尾市,9-6,柏座四丁目2番3号,コミュニティセンター北側植込み,35.9715433,139.5793092,
埼玉県,上尾市,9-7,柏座四丁目9番23号,柏座ポンプ場西側フェンス,35.9685484,139.5782851,
埼玉県,上尾市,9-8,柏座三丁目1番48号,パーク上尾弐番館西側フェンス,35.9756318,139.5836453,
埼玉県,上尾市,10-1,大字平方1346番地1,平方小学校北側フェンス,35.946999,139.557114,緯度経度は怪しい
埼玉県,上尾市,10-2,大字平方1346番地1,平方小学校西側フェンス,35.946999,139.557114,緯度経度は怪しい
埼玉県,上尾市,10-3,大字平方2670番地1,上宿地蔵尊西側,35.944691,139.548599,緯度経度は怪しい
埼玉県,上尾市,10-4,大字平方905番地1,平方公民館正面玄関右側,35.942642,139.552475,緯度経度は怪しい
埼玉県,上尾市,10-5,大字平方4072番地,平方新田集落センター東側フェンス,35.946354,139.548218,緯度経度は怪しい
埼玉県,上尾市,10-6,大字平方3326番地,上尾丸山公園南入口,35.946354,139.548218,緯度経度は怪しい
埼玉県,上尾市,10-7,大字平方3657番地,平方北小学校北側フェンス,35.956409,139.556046,緯度経度は怪しい
埼玉県,上尾市,11-1,大字上野本郷151番地2,上野本郷公民館西側フェンス,35.936546,139.56221,緯度経度は怪しい
埼玉県,上尾市,11-2,大字平方領々家132番地2,平方領々家公民館東側フェンス,35.947247,139.568436,緯度経度は怪しい
埼玉県,上尾市,11-3,大字上野453番地,上野集落センター東側フェンス,35.945168,139.560486,緯度経度は怪しい
埼玉県,上尾市,11-4,大字上野83番地71,三塚公園北側フェンス,35.9496025,139.5585746,
埼玉県,上尾市,11-5,大字上野482番地1,平方スポーツ広場北側入口フェンス,35.942322,139.556412,緯度経度は怪しい
埼玉県,上尾市,11-6,大字上野482番地1,平方スポーツ広場南側入口フェンス,35.942322,139.556412,緯度経度は怪しい
埼玉県,上尾市,11-7,大字西貝塚17番地1,健康プラザわくわくランド玄関右側,35.937321,139.555801,緯度経度は怪しい
埼玉県,上尾市,12-1,大字小敷谷815番地3,家電量販店北側フェンス,35.955894,139.565659,緯度経度は怪しい
埼玉県,上尾市,12-2,大字小敷谷77番地1,西上尾第二団地2街区20号棟西側,35.955505,139.561035,緯度経度は怪しい
埼玉県,上尾市,12-3,大字小敷谷77番地1,西上尾第二団地1街区12号棟南側駐車場フェンス,35.955505,139.561035,緯度経度は怪しい
埼玉県,上尾市,12-4,大字小敷谷703番地1,西部浄水場フェンス,35.961449,139.558594,緯度経度は怪しい
埼玉県,上尾市,12-5,大字小敷谷77番地1,西上尾第二団地1街区25号棟北側フェンス,35.955505,139.561035,緯度経度は怪しい
埼玉県,上尾市,12-6,大字小敷谷2番地3,太平中学校東側フェンス,35.953671,139.56572,緯度経度は怪しい
埼玉県,上尾市,12-7,大字小敷谷77番地1,西上尾第二団地2街区16号棟東側フェンス,35.955505,139.561035,緯度経度は怪しい
埼玉県,上尾市,13-1,大字瓦葺2716番地,尾山台団地1街区1号棟南側,35.956833,139.64122,緯度経度は怪しい
埼玉県,上尾市,13-2,大字瓦葺2716番地,尾山台団地2街区4号棟西側,35.956833,139.64122,緯度経度は怪しい
埼玉県,上尾市,13-3,大字瓦葺2716番地,尾山台団地3街区1号棟西側,35.956833,139.64122,緯度経度は怪しい
埼玉県,上尾市,13-4,大字瓦葺2716番地,尾山台団地5街区7号棟西側,35.956833,139.64122,緯度経度は怪しい
埼玉県,上尾市,13-5,大字瓦葺2716番地,尾山台団地5街区14号棟東側の向い(フェンス),35.956833,139.64122,緯度経度は怪しい
埼玉県,上尾市,13-6,大字瓦葺2716番地,尾山台団地5街区25号棟南側,35.956833,139.64122,緯度経度は怪しい
埼玉県,上尾市,13-7,大字瓦葺2716番地,尾山台団地自治会西側フェンス,35.956833,139.64122,緯度経度は怪しい
埼玉県,上尾市,14-1,大字原市1443番地,運送会社西側フェンス,35.975849,139.61824,緯度経度は怪しい
埼玉県,上尾市,14-2,原市北一丁目4番地,沼南公園西側,35.971096,139.622101,緯度経度は怪しい
埼玉県,上尾市,14-3,大字原市1795番地,はらいち台公園南側フェンス,35.967705,139.627502,緯度経度は怪しい
埼玉県,上尾市,14-4,原市北一丁目101番地,ふとん店東側道路植込み,35.972389,139.620422,緯度経度は怪しい
埼玉県,上尾市,14-5,原市北一丁目24番地,長久公園西側,35.973053,139.619476,緯度経度は怪しい
埼玉県,上尾市,14-6,大字原市1006番地1,原市一区ゲートボール場フェンス,35.972378,139.617325,緯度経度は怪しい
埼玉県,上尾市,14-7,原市北一丁目8番地1,メゾン・セフィア東側道路植込み,35.9717781,139.6221155,
埼玉県,上尾市,15-1,大字原市3336番地,原市団地集会所西公園南側植込み,35.965836,139.627991,緯度経度は怪しい
埼玉県,上尾市,15-2,大字原市3336番地,原市団地4街区15号棟南西側,35.965836,139.627991,緯度経度は怪しい
埼玉県,上尾市,15-3,大字原市3336番地,原市団地5街区2号棟東側,35.965836,139.627991,緯度経度は怪しい
埼玉県,上尾市,15-4,大字原市3336番地,原市団地1街区8号棟西側,35.965836,139.627991,緯度経度は怪しい
埼玉県,上尾市,15-5,大字原市3336番地,原市団地2街区5号棟南側,35.965836,139.627991,緯度経度は怪しい
埼玉県,上尾市,15-6,大字原市3336番地,原市団地3街区3号棟西側,35.965836,139.627991,緯度経度は怪しい
埼玉県,上尾市,15-7,大字原市3873番地25,東大宮ハウス内遊水池フェンス,35.965836,139.627991,緯度経度は怪しい
埼玉県,上尾市,16-1,大字原市4166番地,原市南保育所北側フェンス,35.957474,139.630234,緯度経度は怪しい
埼玉県,上尾市,16-2,大字原市3950番地,白山公園北側,35.960541,139.631134,緯度経度は怪しい
埼玉県,上尾市,16-3,大字原市3番地,原市1番耕地公園西側,35.955097,139.629807,緯度経度は怪しい
埼玉県,上尾市,16-4,大字原市4141番地1,原市六区会館隣神明神社東側フェンス,35.960247,139.628204,緯度経度は怪しい
埼玉県,上尾市,16-5,大字原市4166番地,原市南保育所西側フェンス,35.957474,139.630234,緯度経度は怪しい
埼玉県,上尾市,16-6,大字原市3990番地,原市南小学校東側,35.959183,139.632904,緯度経度は怪しい
埼玉県,上尾市,16-7,大字原市4335番地5,民家西側駐車場フェンス,35.956333,139.63446,緯度経度は怪しい
埼玉県,上尾市,16-8,大字原市3990番地,原市南小学校プール西側フェンス,35.959183,139.632904,緯度経度は怪しい
埼玉県,上尾市,17-1,大字瓦葺509番地1,尾山台小学校校門左側植込み,35.962746,139.639084,緯度経度は怪しい
埼玉県,上尾市,17-2,大字瓦葺662番地27,秩父山公園南側フェンス,35.962448,139.637009,緯度経度は怪しい
埼玉県,上尾市,17-3,大字瓦葺163番地,瓦葺中学校西側フェンス,35.967842,139.641129,緯度経度は怪しい
埼玉県,上尾市,17-4,大字瓦葺1134番地4,民家東側塀,35.966911,139.635941,緯度経度は怪しい
埼玉県,上尾市,17-5,大字瓦葺1035番地,瓦葺氷川神社塀,35.96534,139.6353,緯度経度は怪しい
埼玉県,上尾市,17-6,大字瓦葺1295番地,民家北側塀,35.962471,139.634293,緯度経度は怪しい
埼玉県,上尾市,17-7,大字瓦葺1525番地5,むじなや公園東側,35.956638,139.636215,緯度経度は怪しい
埼玉県,上尾市,18-1,大字瓦葺2260番地,瓦葺小学校西側フェンス,35.959465,139.645889,緯度経度は怪しい
埼玉県,上尾市,18-2,大字瓦葺1934番地9,民家北側畑,35.957195,139.642517,緯度経度は怪しい
埼玉県,上尾市,18-3,大字瓦葺2117番地45,稲荷八ッ山公園東側,35.956715,139.645386,緯度経度は怪しい
埼玉県,上尾市,18-4,大字瓦葺3215番地,前原公園東側フェンス,35.954563,139.644394,緯度経度は怪しい
埼玉県,上尾市,18-5,大字瓦葺3103番地1,民家西側水路フェンス,35.961323,139.640747,緯度経度は怪しい
埼玉県,上尾市,18-6,大字瓦葺2248番地,かわらぶき保育所南側フェンス,35.958096,139.646423,緯度経度は怪しい
埼玉県,上尾市,18-7,大字瓦葺2260番地,瓦葺小学校東側フェンス,35.959465,139.645889,緯度経度は怪しい
埼玉県,上尾市,18-8,大字瓦葺2134番地,民家南側フェンス,35.961323,139.640747,緯度経度は怪しい
埼玉県,上尾市,19-1,浅間台一丁目6番地,上尾高等学校西側フェンス,35.9835832,139.5770208,
埼玉県,上尾市,19-2,浅間台二丁目6番地,浅間台第二公園南側,35.980362,139.575546,緯度経度は怪しい
埼玉県,上尾市,19-3,浅間台三丁目13番地,浅間台第三公園西側フェンス,35.97599,139.574448,緯度経度は怪しい
埼玉県,上尾市,19-4,浅間台三丁目35番地,浅間台大公園北側フェンス,35.97702,139.570389,緯度経度は怪しい
埼玉県,上尾市,19-5,浅間台四丁目13番地,浅間台第四公園西側フェンス,35.980659,139.567841,緯度経度は怪しい
埼玉県,上尾市,19-6,中妻二丁目14番地,中妻第二公園南側フェンス,35.982349,139.570328,緯度経度は怪しい
埼玉県,上尾市,19-7,中妻一丁目4番地,中妻第一公園北側フェンス,35.985779,139.575195,緯度経度は怪しい
埼玉県,上尾市,19-8,中妻一丁目1番地35,北上尾駅西口駅前広場植込み,35.985199,139.575989,緯度経度は怪しい
埼玉県,上尾市,20-1,井戸木四丁目23番地,大石北小学校北側フェンス,35.985786,139.561432,緯度経度は怪しい
埼玉県,上尾市,20-2,井戸木四丁目23番地,大石北小学校西側フェンス,35.985786,139.561432,緯度経度は怪しい
埼玉県,上尾市,20-3,泉台三丁目8番地,おさらぎ公園東側,35.989445,139.55484,緯度経度は怪しい
埼玉県,上尾市,20-4,井戸木一丁目12番地,山王公園南側,35.989937,139.563751,緯度経度は怪しい
埼玉県,上尾市,20-5,泉台二丁目9番地,梅田公園東側,35.985592,139.558243,緯度経度は怪しい
埼玉県,上尾市,20-6,井戸木二丁目42番地,新田公園北側,35.991177,139.560471,緯度経度は怪しい
埼玉県,上尾市,20-7,井戸木二丁目12番地,東公園北側,35.993221,139.563644,緯度経度は怪しい
埼玉県,上尾市,20-8,井戸木四丁目35番地,井戸木公園東側,35.98735,139.559814,緯度経度は怪しい
埼玉県,上尾市,21-1,小泉九丁目28番地2,大石小学校西側フェンス,35.9758371,139.5594849,
埼玉県,上尾市,21-2,小泉九丁目28番地2,大石小学校北側フェンス,35.9758371,139.5594849,
埼玉県,上尾市,21-3,中分一丁目8番地,大久保公園東側,35.968353,139.559433,緯度経度は怪しい
埼玉県,上尾市,21-4,中分三丁目76番地,北部浄水場南側,35.977928,139.548676,緯度経度は怪しい
埼玉県,上尾市,21-5,藤波一丁目282番地,藤波公民館東側フェンス,35.986759,139.544739,緯度経度は怪しい
埼玉県,上尾市,21-6,中分二丁目194番地,下芝水辺公園駐車場東側,35.973305,139.556305,緯度経度は怪しい
埼玉県,上尾市,21-7,小泉三丁目14番地,神明公園南側,35.974304,139.570282,緯度経度は怪しい
埼玉県,上尾市,21-8,小泉八丁目1番地,氷川山公園東側,35.974342,139.563309,緯度経度は怪しい
埼玉県,上尾市,22-1,大字畔吉1333番地,大石南小学校西側フェンス,35.969364,139.55426,緯度経度は怪しい
埼玉県,上尾市,22-2,大字畔吉1333番地,大石南小学校南側フェンス,35.969364,139.55426,緯度経度は怪しい
埼玉県,上尾市,22-3,大字小敷谷880番地114,三井C地区(三井サニータウン)公園東側,35.966721,139.56189,緯度経度は怪しい
埼玉県,上尾市,22-4,大字畔吉1219番地1,畔吉集会所フェンス,35.967297,139.552872,緯度経度は怪しい
埼玉県,上尾市,22-5,大字畔吉1250番地1,あぜよし公園,35.968735,139.551514,緯度経度は怪しい
埼玉県,上尾市,22-6,大字畔吉178番地,自然学習館駐車場東側,35.959881,139.547958,緯度経度は怪しい
埼玉県,上尾市,22-7,大字領家320番地3,電気設備会社南側山林,35.967678,139.542465,緯度経度は怪しい
埼玉県,上尾市,23-1,向山三丁目42番地,さくら公園南側,35.963573,139.580078,緯度経度は怪しい
埼玉県,上尾市,23-2,向山三丁目2番地6,神明神社南側フェンス,35.9634832,139.5846539,
埼玉県,上尾市,23-3,川一丁目4番地,あじさい公園東側,35.965904,139.583038,緯度経度は怪しい
埼玉県,上尾市,23-4,向山一丁目42番地,さつき公園西側,35.95977,139.580948,緯度経度は怪しい
埼玉県,上尾市,23-5,向山一丁目43番地8,向山自治センター西側フェンス,35.9611959,139.5804182,
埼玉県,上尾市,23-6,向山一丁目20番地,もみじ公園東側,35.962105,139.583771,緯度経度は怪しい
埼玉県,上尾市,23-7,向山一丁目3番地3,本山ポンプ場東側フェンス,35.962132,139.586685,緯度経度は怪しい
埼玉県,上尾市,24-1,大字小敷谷845番地1,西上尾第一団地集会所西側,35.964615,139.563263,緯度経度は怪しい
埼玉県,上尾市,24-2,大字小敷谷845番地1,西上尾第一団地1街区7号棟北側,35.964615,139.563263,緯度経度は怪しい
埼玉県,上尾市,24-3,大字小敷谷845番地1,西上尾第一団地1街区9号棟東側,35.964615,139.563263,緯度経度は怪しい
埼玉県,上尾市,24-4,大字小敷谷845番地1,西上尾第一団地2街区18号棟南側,35.964615,139.563263,緯度経度は怪しい
埼玉県,上尾市,24-5,大字小敷谷845番地1,西上尾第一団地2街区26号棟南側,35.964615,139.563263,緯度経度は怪しい
埼玉県,上尾市,24-6,大字小敷谷845番地1,西上尾第一団地3街区17号棟南側,35.964615,139.563263,緯度経度は怪しい
埼玉県,上尾市,24-7,大字小敷谷845番地1,西上尾第一団地3街区25号棟南側,35.964615,139.563263,緯度経度は怪しい
埼玉県,上尾市,24-8,大字小敷谷499番地3,西部4号井戸東側フェンス,35.961197,139.55835,緯度経度は怪しい
埼玉県,上尾市,25-1,今泉一丁目7番地2,西小学校西側フェンス,35.9708861,139.5738861,
埼玉県,上尾市,25-2,小泉一丁目6番地,どんぐり山公園北側,35.969204,139.570206,緯度経度は怪しい
埼玉県,上尾市,25-3,今泉一丁目32番,こぶし公園南側,35.968063,139.571686,緯度経度は怪しい
埼玉県,上尾市,25-4,大字小泉35番地14,小泉中央公園南側フェンス,35.967106,139.561813,緯度経度は怪しい
埼玉県,上尾市,25-5,大字小泉35番地153,masked,35.967106,139.561813,緯度経度は怪しい
埼玉県,上尾市,25-6,小泉二丁目6番地,寺東公園南側,35.970749,139.568405,緯度経度は怪しい
埼玉県,上尾市,25-7,大字小泉378番地,宮山公園西側,35.9699628,139.5614135,
埼玉県,上尾市,26-1,大字南102番地,上平小学校北側フェンス,35.995998,139.58548,緯度経度は怪しい
埼玉県,上尾市,26-2,大字南102番地,上平小学校南校門フェンス,35.995998,139.58548,緯度経度は怪しい
埼玉県,上尾市,26-3,大字上1573番地1,上尾市消防署上平分署東側フェンス,35.999645,139.577209,緯度経度は怪しい
埼玉県,上尾市,26-4,大字上686番地5,新梨子公園北側フェンス,35.999874,139.580063,緯度経度は怪しい
埼玉県,上尾市,26-5,大字上1625番地1,民家南側畑,36.001156,139.575516,緯度経度は怪しい
埼玉県,上尾市,26-6,大字上1481番地75,長浪(上尾第一団地集会所)公園東側フェンス,36.001465,139.57756,緯度経度は怪しい
埼玉県,上尾市,26-7,大字西門前498番地1,上平保育所西側フェンス,35.998085,139.586334,緯度経度は怪しい
埼玉県,上尾市,26-8,上平中央三丁目42番,べにばな公園北側フェンス,35.993732,139.585983,緯度経度は怪しい
埼玉県,上尾市,27-1,大字上359番地,シラコバト団地18号棟東側,35.999477,139.577774,緯度経度は怪しい
埼玉県,上尾市,27-2,大字上340番地,シラコバト団地4号棟南側,35.999477,139.577774,緯度経度は怪しい
埼玉県,上尾市,27-3,大字上1748番地,シラコバト団地33号棟北側植込み,35.997688,139.575302,緯度経度は怪しい
埼玉県,上尾市,27-4,大字久保46番地1,民間駐車場フェンス,35.989815,139.577744,緯度経度は怪しい
埼玉県,上尾市,27-5,大字久保283番地,シラコバト団地9号棟南側,35.993359,139.579056,緯度経度は怪しい
埼玉県,上尾市,27-6,大字上17番地13,町谷第一公園西側フェンス,35.991798,139.573685,緯度経度は怪しい
埼玉県,上尾市,27-7,大字上370番地,シラコバト団地32号棟東側,35.997417,139.575546,緯度経度は怪しい
埼玉県,上尾市,28-1,大字菅谷121番地,上平中学校北側フェンス,35.9960643,139.592866,
埼玉県,上尾市,28-2,大字菅谷121番地,上平中学校東側フェンス,35.9960643,139.592866,
埼玉県,上尾市,28-3,大字南160番地1,上平中学校第二グラウンド南側フェンス,35.993645,139.590744,緯度経度は怪しい
埼玉県,上尾市,28-4,菅谷三丁目30番地,新田公民館東側フェンス,36.0006722,139.5921293,
埼玉県,上尾市,28-5,大字平塚3009番地,つばき公園北側,35.996185,139.600571,緯度経度は怪しい
埼玉県,上尾市,28-6,須ケ谷二丁目111番地,第六天神社西側フェンス,36.003788,139.598709,緯度経度は怪しい
埼玉県,上尾市,28-7,菅谷二丁目32番地,北中地公民館東側フェンス,36.001034,139.595871,緯度経度は怪しい
埼玉県,上尾市,29-1,大字南287番地,上平北小学校西側フェンス,36.003323,139.587189,緯度経度は怪しい
埼玉県,上尾市,29-2,大字南287番地,上平北小学校南側フェンス,36.003323,139.587189,緯度経度は怪しい
埼玉県,上尾市,29-3,大字上1052番地5,ポニー公園北側フェンス,36.007717,139.576065,緯度経度は怪しい
埼玉県,上尾市,29-4,大字上1134番地20,上郷遊園地東側フェンス,36.007565,139.574005,緯度経度は怪しい
埼玉県,上尾市,29-5,大字上903番地2,歯科医院北側,36.006973,139.582108,緯度経度は怪しい
埼玉県,上尾市,29-6,大字上723番地1,上新梨子集会所西側,36.000988,139.582169,緯度経度は怪しい
埼玉県,上尾市,29-7,菅谷四丁目25番地,氷川神社東側,36.003189,139.592651,緯度経度は怪しい
埼玉県,上尾市,30-1,上平中央三丁目4番地,こうしん山公園西側,35.990231,139.588181,緯度経度は怪しい
埼玉県,上尾市,30-2,上平中央一丁目8番地1,芝川小学校北側フェンス,35.9894048,139.5839077,
埼玉県,上尾市,30-3,錦町11番地,錦町西公園北側フェンス,35.989197,139.586868,緯度経度は怪しい
埼玉県,上尾市,30-4,錦町7番地,錦町中央公園東側,35.9883819,139.5881677,
埼玉県,上尾市,30-5,本町六丁目273番地4,上尾東団地第二公園北側,35.984524,139.592407,緯度経度は怪しい
埼玉県,上尾市,30-6,上平中央一丁目3番地,やまの下公園東側,35.988621,139.583328,緯度経度は怪しい
埼玉県,上尾市,30-7,上平中央二丁目4番地,なかはら公園北側フェンス,35.990719,139.585434,緯度経度は怪しい
埼玉県,上尾市,30-8,上平中央一丁目20番地,上平ぼうの下調整池西側フェンス,35.990906,139.582062,緯度経度は怪しい
埼玉県,上尾市,31-1,大字平塚951番地2,イコス上尾東側植込み,35.984127,139.612518,緯度経度は怪しい
埼玉県,上尾市,31-2,大字平塚536番地1,上尾市サッカー場西側,35.987072,139.609573,緯度経度は怪しい
埼玉県,上尾市,31-3,大字原市1380番地4,柳通り北区自治会館西側フェンス,35.978458,139.608643,緯度経度は怪しい
埼玉県,上尾市,31-4,大字平塚1212番地,平塚公園西側,35.986816,139.608688,緯度経度は怪しい
埼玉県,上尾市,31-5,大字平塚2025番地,ビレッジハウス上尾1号棟西側,35.990047,139.600952,緯度経度は怪しい
埼玉県,上尾市,31-6,大字平塚2146番地1,東部浄水場北側フェンス,35.993347,139.602448,緯度経度は怪しい
埼玉県,上尾市,31-7,大字平塚1281番地,上尾かしの木特別支援学校西側フェンス,35.988338,139.611618,緯度経度は怪しい
埼玉県,上尾市,32-1,大字大谷本郷528番地,大谷小学校西側フェンス,35.955181,139.583527,緯度経度は怪しい
埼玉県,上尾市,32-2,大字堤崎326番地2,堤崎自治会館西側フェンス,35.945957,139.579025,緯度経度は怪しい
埼玉県,上尾市,32-3,大字地頭方421番地9,地頭方公園北側フェンス(病院北側),35.952484,139.571701,緯度経度は怪しい
埼玉県,上尾市,32-4,大字地頭方114番地,氷川神社東側フェンス,35.948593,139.573135,緯度経度は怪しい
埼玉県,上尾市,32-5,大字大谷本郷949番地1,大谷公民館入口南側,35.959095,139.585281,緯度経度は怪しい
埼玉県,上尾市,32-6,大字戸崎1番地119,戸崎公園(大学前),35.937756,139.595535,緯度経度は怪しい
埼玉県,上尾市,32-7,大字戸崎801番地1,戸崎児童遊園地西側フェンス,35.945129,139.594879,緯度経度は怪しい
埼玉県,上尾市,32-8,大字大谷本郷982番地,旧JA大谷支店南側フェンス,35.959129,139.586075,緯度経度は怪しい
埼玉県,上尾市,33-1,西宮下四丁目400番地,鴨川小学校北側フェンス,35.963528,139.587372,緯度経度は怪しい
埼玉県,上尾市,33-2,西宮下四丁目400番地,鴨川小学校南側フェンス,35.963528,139.587372,緯度経度は怪しい
埼玉県,上尾市,33-3,富士見一丁目480番地66,富士見団地第三公園東側,35.966511,139.585724,緯度経度は怪しい
埼玉県,上尾市,33-4,西宮下四丁目237番地1,西宮下公園南側フェンス,35.967304,139.589417,緯度経度は怪しい
埼玉県,上尾市,33-5,西宮下四丁目324番地1,民家南側梅畑,35.964596,139.589966,緯度経度は怪しい
埼玉県,上尾市,33-6,西宮下二丁目82番地,西宮下第三公園南側フェンス,35.963699,139.593918,緯度経度は怪しい
埼玉県,上尾市,33-7,西宮下三丁目12番地1,西宮下三丁目シゲル公園西側,35.96376,139.596344,緯度経度は怪しい
埼玉県,上尾市,33-8,西宮下四丁目380番地3,大谷保育所東側フェンス,35.9629319,139.587802,
埼玉県,上尾市,34-1,東今泉5番地1,西中学校北側フェンス,35.974403,139.601089,緯度経度は怪しい
埼玉県,上尾市,34-2,東今泉5番地1,西中学校南側フェンス,35.974403,139.601089,緯度経度は怪しい
埼玉県,上尾市,34-3,今泉三丁目4番地,4号公園北側フェンス(コープみらい コープ今泉店北側),35.964661,139.575851,緯度経度は怪しい
埼玉県,上尾市,34-4,今泉三丁目17番地1,今泉小学校西側フェンス(児童館こどもの城向かい側),35.964661,139.575851,緯度経度は怪しい
埼玉県,上尾市,34-5,富士見二丁目6番46,富士見団地第一公園北側,35.9691595,139.5845845,
埼玉県,上尾市,34-6,富士見二丁目20番83,富士見団地第二公園東側,35.9684943,139.5810016,
埼玉県,上尾市,34-7,富士見二丁目260番8,富士見団地集会所南側フェンス,35.968407,139.583374,緯度経度は怪しい
埼玉県,上尾市,35-1,向山四丁目10番地,大谷中学校南側フェンス,35.960037,139.575272,緯度経度は怪しい
埼玉県,上尾市,35-2,壱丁目東22番地1,子ども・子育て支援複合施設西側フェンス,35.956879,139.573471,緯度経度は怪しい
埼玉県,上尾市,35-3,向山四丁目10番地,大谷中学校西側フェンス,35.960037,139.575272,緯度経度は怪しい
埼玉県,上尾市,35-4,向山二丁目42番地,ならのき公園北側フェンス,35.957844,139.577225,緯度経度は怪しい
埼玉県,上尾市,35-5,壱丁目北17番地1,コミュニティ広場北側,35.958971,139.5687289,
埼玉県,上尾市,35-6,壱丁目東17番1,どんぐり公園北側フェンス,35.959156,139.572327,緯度経度は怪しい
埼玉県,上尾市,35-7,向山四丁目3番地10,市民体育館北側フェンス,35.9620287,139.5761474,
埼玉県,上尾市,35-8,壱丁目北4番1,モミノキ公園北側植込み,35.9602058,139.5709345,
埼玉県,上尾市,36-1,春日二丁目10番33,西保健センター駐車場北側フェンス,35.9751596,139.5791137,
埼玉県,上尾市,36-2,春日一丁目6番2,春日一丁目公園(パーク上尾参番館東側),35.9794213,139.5808424,
埼玉県,上尾市,36-3,弁財一丁目278番1,カットサロン向側畑,35.971016,139.576004,緯度経度は怪しい
埼玉県,上尾市,36-4,春日二丁目19番,春日第三公園西側フェンス,35.978111,139.577652,緯度経度は怪しい
埼玉県,上尾市,36-5,春日二丁目4番,春日第二公園西側フェンス,35.976925,139.579376,緯度経度は怪しい
埼玉県,上尾市,36-6,春日一丁目42番,春日第一公園東側フェンス,35.978973,139.581161,緯度経度は怪しい
埼玉県,上尾市,36-7,春日二丁目4番,春日第二公園東側,35.976925,139.579376,緯度経度は怪しい
埼玉県,上尾市,36-8,弁財二丁目283番11,昌福寺西鉄塔北側,35.973911,139.576462,緯度経度は怪しい
埼玉県,上尾市,37-1,大字原市3508番地1,原市小学校東側防災倉庫前,35.96714,139.624817,緯度経度は怪しい
埼玉県,上尾市,37-2,大字原市3508番地1,原市小学校西側,35.96714,139.624817,緯度経度は怪しい
埼玉県,上尾市,37-3,五番町20番地,五番町第一公園東側,35.963959,139.62001,緯度経度は怪しい
埼玉県,上尾市,37-4,原市中三丁目4番地,原市駅前公園西側,35.963516,139.622849,緯度経度は怪しい
埼玉県,上尾市,37-5,原市中一丁目4番地2,稲荷公園,35.969334,139.622604,緯度経度は怪しい
埼玉県,上尾市,37-6,大字原市3705番地,原市五区公民館フェンス,35.965542,139.623657,緯度経度は怪しい
埼玉県,上尾市,37-7,大字原市3233番地129,白樺公園北側フェンス,35.9689168,139.6275094,
埼玉県,上尾市,38-1,中妻四丁目19番地,大石中学校西側フェンス,35.981606,139.565613,緯度経度は怪しい
埼玉県,上尾市,38-2,中妻四丁目19番地,大石中学校北側フェンス,35.981606,139.565613,緯度経度は怪しい
埼玉県,上尾市,38-3,中妻五丁目33番地,鴨川中央公園南側,35.984074,139.562103,緯度経度は怪しい
埼玉県,上尾市,38-4,中妻五丁目33番地,鴨川中央公園西側,35.984074,139.562103,緯度経度は怪しい
埼玉県,上尾市,38-5,泉台一丁目5番地,水神公園北側,35.981056,139.563889,緯度経度は怪しい
埼玉県,上尾市,38-6,中妻三丁目16番地,宮前公園東側,35.984005,139.568314,緯度経度は怪しい
埼玉県,上尾市,38-7,中妻五丁目13番地,かえで公園南側,35.987125,139.566849,緯度経度は怪しい
