prefecture,city,number,address,name,lat,long,note
埼玉県,久喜市,1-1,久喜中央1丁目667-2,中央1丁目児童遊園南側,36.07020012,139.6783066,
埼玉県,久喜市,1-2,久喜中央4-7-7,久喜中央コミュニティセンター,36.06903376,139.6725503,
埼玉県,久喜市,1-3,久喜中央1-9-15,株式会社染谷組,36.06939825,139.6752667,
埼玉県,久喜市,1-4,久喜中央1-9,山中ふとん店向駐車場,36.0683255,139.6764026,
埼玉県,久喜市,1-5,久喜中央2-1,久喜駅西口駅前広場南側,36.0651167,139.6768169,
埼玉県,久喜市,1-6,久喜中央3-1-28,久喜剣友会道場,36.0649524,139.67301,
埼玉県,久喜市,1-7,久喜中央2-2-28,新井病院西側,36.06497922,139.6756518,
埼玉県,久喜市,2-1,久喜南4-10,市役所駐車場,36.06249575,139.6697983,
埼玉県,久喜市,2-2,久喜南4-11-22,市役所入口(北)交差点 南側遊歩道,36.0638388,139.6695589,
埼玉県,久喜市,2-3,南5-1-7,J:COM埼玉県央局,36.064402,139.6721795,
埼玉県,久喜市,2-4,南1-6,新二会館,36.06303036,139.6728895,
埼玉県,久喜市,2-5,南4-5,南4丁目なかよし広場,36.06099623,139.6703132,
埼玉県,久喜市,2-6,南2-11-6,masked,36.05941232,139.6736251,
埼玉県,久喜市,2-7,南2-4-5,南2丁目集会所,36.0579022,139.6738642,
埼玉県,久喜市,3-1,本町4-1-1,久喜中学校南側,36.0672173,139.6649855,
埼玉県,久喜市,3-2,本町4-5-28,さいたま地方法務局久喜支所,36.06869117,139.6612716,
埼玉県,久喜市,3-3,本町5-10-47,中央保健センター,36.07088002,139.6654568,
埼玉県,久喜市,3-4,本町4-1-1,久喜中学校北側,36.0683574,139.6657568,
埼玉県,久喜市,3-5,本町2-5-1,久喜小学校西門,36.06789421,139.6686502,
埼玉県,久喜市,3-6,本町2-5-1,久喜小学校南側,36.06661,139.6695014,
埼玉県,久喜市,3-7,本町3-12-1,久喜高等学校南側,36.06537782,139.6675142,
埼玉県,久喜市,4-1,上早見503-3,久喜総合病院北側,36.07159004,139.6555992,
埼玉県,久喜市,4-2,上町17-3,民家,36.0719538,139.6588899,
埼玉県,久喜市,4-3,江面679-3,新川用水路沿い,36.0661207,139.6538814,
埼玉県,久喜市,4-4,上早見215,金勝寺,36.06682671,139.6569971,
埼玉県,久喜市,4-5,江面85,久喜南中学校正門,36.06550921,139.6612659,
埼玉県,久喜市,4-6,江面2530,江面本田集会所,36.06464835,139.6579844,
埼玉県,久喜市,4-7,江面757-2,民家,36.0645293,139.6554004,
埼玉県,久喜市,5-1,本町7-6-2,本町小学校イチョウ門北側フェンス,36.0747595,139.667337,
埼玉県,久喜市,5-2,本町6-8,道合公園,36.07220512,139.6652677,
埼玉県,久喜市,5-3,久喜本27-3,炭火亭北側用水沿,36.0747455,139.6610431,
埼玉県,久喜市,5-4,本町7-6-1,本町小学校南側,36.07536799,139.6692231,
埼玉県,久喜市,5-5,本町1-3,荒鎌公園,36.07107116,139.6723953,
埼玉県,久喜市,5-6,久喜本837-1,久喜北陽高等学校正門,36.0780531,139.6635228,
埼玉県,久喜市,5-7,本町6-17-40,甘棠院南側,36.07108423,139.6685501,
埼玉県,久喜市,6-1,久喜北2-19,パークタウンけやき公園,36.0756153,139.672058,
埼玉県,久喜市,6-2,野久喜833-2,セレーノ香取南側,36.0799202,139.6671048,
埼玉県,久喜市,6-3,古久喜32-2,稲荷台用水沿,36.0811645,139.6696669,
埼玉県,久喜市,6-4,久喜北2-33-86,久喜北小学校西門北側水路沿,36.07836314,139.6715827,
埼玉県,久喜市,6-5,久喜北2-30-1,久喜北小学校東側,36.07730567,139.6728929,
埼玉県,久喜市,6-6,久喜北2-25,五領児童公園,36.07506036,139.6735591,
埼玉県,久喜市,6-7,久喜北2-28,本町浄水場,36.07382101,139.6731216,
埼玉県,久喜市,7-1,久喜北1-12,エルディムサイトウ向い用水沿,36.0758383,139.6759876,
埼玉県,久喜市,7-2,古久喜133-4,和田集会所,36.07690241,139.6763078,
埼玉県,久喜市,7-3,古久喜237-2,駐車場前水路敷フェンス,36.0766717,139.6757632,
埼玉県,久喜市,7-4,古久喜880-1,埼玉県古利根川流域下水道 古久喜中継ポンプ場(古久喜191-2)前,36.0790433,139.6793905,
埼玉県,久喜市,7-5,久喜北1-11-54,老人ホームみんなの家・久喜,36.073563,139.6769917,
埼玉県,久喜市,7-6,久喜北1-1,中央1丁目児童遊園北側,36.07021334,139.6786538,
埼玉県,久喜市,7-7,久喜北1-9-33,富田歯科医院南側,36.0728062,139.6748822,
埼玉県,久喜市,8-1,野久喜474,久喜工業高等学校東側,36.07156085,139.6870249,
埼玉県,久喜市,8-2,古久喜771,久喜工業高等学校西側,36.07118868,139.6850166,
埼玉県,久喜市,8-3,野久喜333,落合畳店東側用水沿,36.0713969,139.6816857,
埼玉県,久喜市,8-4,古久喜845-1,ライオンズガーデン二番館西側線路沿,36.07350973,139.6803028,
埼玉県,久喜市,8-5,古久喜846-5,ライオンズガーデン集会棟東側線路沿,36.07422978,139.6810996,
埼玉県,久喜市,8-6,古久喜687-3,野久喜集会所,36.07656806,139.6837065,
埼玉県,久喜市,8-7,野久喜188-2,野久喜児童遊園入口,36.0737375,139.6900581,
埼玉県,久喜市,9-1,青葉2-8,青葉2丁目公園,36.0694156,139.6945171,
埼玉県,久喜市,9-2,青葉753-1,ふれあいセンター久喜第二駐車場,36.0724066,139.692386,
埼玉県,久喜市,9-3,青毛753-1,ふれあいセンター久喜東側入口,36.07199771,139.6940127,
埼玉県,久喜市,9-4,青毛800,青毛小学校正門,36.0732518,139.6959189,
埼玉県,久喜市,9-5,青毛4-11-5,久喜あおば幼稚園,36.0767728,139.7058566,
埼玉県,久喜市,9-6,青毛4-5-5,大日堂南側,36.07773286,139.702502,
埼玉県,久喜市,9-7,青毛4-4,エンゼル公園,36.07629194,139.7022447,
埼玉県,久喜市,10-1,青葉4-11,青葉4丁目公園,36.07074673,139.7004322,
埼玉県,久喜市,10-2,青葉3-1,青葉公園駐車場,36.0716591,139.6950483,
埼玉県,久喜市,10-3,青葉3-4-1,久喜東中学校正門,36.07223209,139.6976777,
埼玉県,久喜市,10-4,栗原2-20,本郷児童公園,36.07259082,139.7031911,
埼玉県,久喜市,10-5,栗原3-15,川原児童公園,36.07216076,139.7074461,
埼玉県,久喜市,10-6,栗原4-9-12,栗原記念会館,36.0694649,139.7061875,
埼玉県,久喜市,10-7,栗原281-2,第14号水源井,36.06648568,139.7017188,
埼玉県,久喜市,11-1,青葉5-8,青葉5丁目公園,36.066527,139.6971451,
埼玉県,久喜市,11-2,青葉1-3-1,青葉小学校南側,36.06628549,139.6948491,
埼玉県,久喜市,11-3,青葉1-3-1,青葉小学校北側,36.06763136,139.6961295,
埼玉県,久喜市,11-4,青葉1-2-1,青葉コミュニティセンター,36.07017577,139.6960372,
埼玉県,久喜市,11-5,西643,ジェネシス東側けやき通り沿,36.06645775,139.6997903,
埼玉県,久喜市,11-6,西643-2,青葉5丁目バス停南側水路敷,36.06471644,139.6981913,
埼玉県,久喜市,11-7,青葉5-24,サクラ通り沿,36.06372158,139.6967699,
埼玉県,久喜市,12-1,吉羽2-16-10,太田小学校北側,36.06973845,139.687308,
埼玉県,久喜市,12-2,吉羽2-16-10,太田小学校東側,36.06888177,139.6884444,
埼玉県,久喜市,12-3,吉羽3-4-7,吉羽浄水場,36.0686494,139.6904048,
埼玉県,久喜市,12-4,吉羽2-32,おやまの公園,36.0673824,139.6895203,
埼玉県,久喜市,12-5,吉羽3-16,高田公園,36.06640107,139.6914956,
埼玉県,久喜市,12-6,吉羽3-19-10,エモーション寺島自動車向い,36.06450645,139.6915277,
埼玉県,久喜市,12-7,吉羽5-10,沼向公園,36.06346007,139.6941304,
埼玉県,久喜市,13-1,久喜東2-25,太田児童公園,36.06441644,139.6832184,
埼玉県,久喜市,13-2,久喜東2-13,西新田児童公園,36.0656034,139.6818091,
埼玉県,久喜市,13-3,吉羽1-9,吉羽児童公園,36.06855891,139.6840205,
埼玉県,久喜市,13-4,吉羽1-30,吉羽公園,36.06688642,139.6876517,
埼玉県,久喜市,13-5,吉羽1-32-24,こどもデイサービスおおとり園,36.06513293,139.6863662,
埼玉県,久喜市,13-6,吉羽4-12,山下公園,36.06360764,139.6913626,
埼玉県,久喜市,13-7,吉羽5-16,町田商店南側,36.06180652,139.6957458,
埼玉県,久喜市,14-1,久喜東3-25,東公橋北側,36.06037191,139.6831922,
埼玉県,久喜市,14-2,久喜東1-15,久喜簡易裁判所東(東一公園),36.0621953,139.6798082,
埼玉県,久喜市,14-3,久喜東3-1,久喜駅東口中落堀川東大橋,36.0650441,139.6796842,
埼玉県,久喜市,14-4,久喜東3-31,向地児童公園南側,36.06099879,139.6849064,
埼玉県,久喜市,14-5,久喜東1-1,久喜駅東口駅前広場,36.06626971,139.6784024,
埼玉県,久喜市,14-6,久喜東1-27-20,久喜東コミュニティセンター,36.05998765,139.6823467,
埼玉県,久喜市,14-7,久喜東1-27-20,久喜東コミュニティセンター北側駐車場,36.0605063,139.6825265,
埼玉県,久喜市,15-1,久喜東5-4,久喜跨線橋下第1駐車場,36.05963344,139.6765084,
埼玉県,久喜市,15-2,久喜東6-5,つくしの団地内遊水池,36.05589478,139.6767758,
埼玉県,久喜市,15-3,久喜東5-2-2,埼共連久喜ビル西側,36.062475,139.676545,
埼玉県,久喜市,15-4,久喜東5-13,東5丁目公園,36.05975316,139.6786043,
埼玉県,久喜市,15-5,久喜東5-31,アパートメントハウス荻曽根 西側水路,36.05817755,139.6819558,
埼玉県,久喜市,15-6,久喜東4-10-27,東中継ポンプ場,36.05806891,139.6840391,
埼玉県,久喜市,15-7,久喜東4-25,久喜東小前歩道橋東通学路沿,36.05437627,139.6828172,
埼玉県,久喜市,16-1,北青柳754,沙汰踏切西新幹線下水路,36.04977006,139.6695084,
埼玉県,久喜市,16-2,北青柳142-3,国体橋北側,36.05687152,139.6628005,
埼玉県,久喜市,16-3,北青柳51-2,農村センター,36.05523199,139.6660175,
埼玉県,久喜市,16-4,下早見85-3,久喜市役所,36.06170789,139.6672757,
埼玉県,久喜市,16-5,下早見316-1,魚清商店東側,36.05763717,139.6667228,
埼玉県,久喜市,16-6,下早見657,伊第169号踏切道南側,36.05530082,139.679056,
埼玉県,久喜市,16-7,太田袋729-1,太田袋地区農業集落排水処理施設,36.0462116,139.6760726,
埼玉県,久喜市,16-8,江面1277-1,民家前の畑,36.0579829,139.6515954,
埼玉県,久喜市,17-1,原320-1,旧江面第二小学校東側用水沿,36.0456452,139.6462453,
埼玉県,久喜市,17-2,除堀245,不動寺南側,36.04384504,139.642591,
埼玉県,久喜市,17-3,除堀987,民家,36.0466913,139.6398294,
埼玉県,久喜市,17-4,除堀1380,コア ヴィレッジ(旧江面第二小学校西門),36.0456464,139.6446406,
埼玉県,久喜市,17-5,除堀1409-1,大栄電機工業西側,36.0476839,139.6451753,
埼玉県,久喜市,17-6,樋ノ口475-2,黒川重機向かい,36.0447906,139.6532755,
埼玉県,久喜市,17-7,樋ノ口577-1,樋ノ口集荷場北側,36.03968619,139.6508094,
埼玉県,久喜市,18-1,所久喜665,仁丁町通り谷田向停留所北側水路沿,36.0745914,139.6407852,
埼玉県,久喜市,18-2,所久喜796-1,清久コミュニティセンター第二駐車場,36.0769134,139.6367117,
埼玉県,久喜市,18-3,久喜市清久町4-3,西谷大橋北側欄干,36.07021842,139.6332098,
埼玉県,久喜市,18-4,北中曽根1341,武井縫製,36.0791864,139.6271678,
埼玉県,久喜市,18-5,上清久247-1,有限会社吉澤設備工業南側,36.08204915,139.6480972,
埼玉県,久喜市,18-6,上清久44-1,上清久東集荷所北側,36.07920166,139.6544398,
埼玉県,久喜市,18-7,下清久215-3,清福寺向,36.0734158,139.650904,
埼玉県,久喜市,18-8,所久喜228-1,塩崎化成株式会社北側,36.0656716,139.6461903,
埼玉県,久喜市,19-1,菖蒲町菖蒲294-1,中山米菓店隣,36.06690339,139.6026288,
埼玉県,久喜市,19-2,菖蒲町菖蒲1077-1,しょうぶ会館,36.06928813,139.5976049,
埼玉県,久喜市,19-3,菖蒲町菖蒲625,菖蒲小学校正門,36.07010328,139.601055,
埼玉県,久喜市,19-4,菖蒲町菖蒲732-1,八幡神社,36.07343207,139.6044854,
埼玉県,久喜市,19-5,菖蒲町菖蒲2620,塚田出荷所付近,36.08254231,139.6071549,
埼玉県,久喜市,19-6,菖蒲町菖蒲4599,民家,36.0697291,139.6088019,
埼玉県,久喜市,19-7,菖蒲町菖蒲552-1,菖蒲神社北側,36.06799083,139.6039482,
埼玉県,久喜市,20-1,菖蒲町菖蒲445-2,シスター美容室脇,36.06816144,139.6068156,
埼玉県,久喜市,20-2,菖蒲町三箇6276,菖蒲1号街区公園,36.07053546,139.6155678,
埼玉県,久喜市,20-3,菖蒲町菖蒲5013-91,寺田公園,36.06807277,139.6126431,
埼玉県,久喜市,20-4,菖蒲町菖蒲5013-191,金山公園,36.06544621,139.611121,
埼玉県,久喜市,20-5,菖蒲町三箇904-1,民家,36.0628388,139.6126335,
埼玉県,久喜市,20-6,菖蒲町三箇197-4,あやめ保育園向い,36.0605112,139.6076207,
埼玉県,久喜市,20-7,菖蒲町菖蒲427,菖蒲東小学校正門,36.06629224,139.6074047,
埼玉県,久喜市,21-1,菖蒲町菖蒲85-1,菖蒲文化会館(アミーゴ),36.06093264,139.6033038,
埼玉県,久喜市,21-2,菖蒲町菖蒲127-3,旧あやめ保育園南側,36.0638079,139.6040389,
埼玉県,久喜市,21-3,菖蒲町三箇321,民家,36.0652394,139.6052245,
埼玉県,久喜市,21-4,菖蒲町三箇328-1,上中島マンホールポンプ場,36.0631272,139.6050463,
埼玉県,久喜市,21-5,菖蒲町三箇270-3,レオパレスマーベル北側,36.06532734,139.6060944,
埼玉県,久喜市,21-6,菖蒲町菖蒲24,しらさぎ公園駐輪場,36.0606296,139.6059191,
埼玉県,久喜市,21-7,菖蒲町菖蒲193,労働会館(あやめ会館),36.06557405,139.601485,
埼玉県,久喜市,22-1,菖蒲町新堀2057,株式会社ワタナベPRO入口,36.06801811,139.5957753,
埼玉県,久喜市,22-2,菖蒲町新堀840-1,民家付近,36.0668409,139.5911077,
埼玉県,久喜市,22-3,菖蒲町新堀2610-6,元サカエヤ設備,36.07219272,139.5872337,
埼玉県,久喜市,22-4,菖蒲町新堀600,久伊豆神社,36.06521951,139.5964719,
埼玉県,久喜市,22-5,菖蒲町新堀347-3,菖蒲行政センター入口交差点,36.06314025,139.5973425,
埼玉県,久喜市,22-6,菖蒲町上大崎860,菖蒲中学校,36.05734356,139.6046458,
埼玉県,久喜市,22-7,菖蒲町上大崎286-6,民家,36.0516455,139.6144848,
埼玉県,久喜市,23-1,菖蒲町三箇2522-1,菖蒲第14区区民館前,36.07007268,139.6221547,
埼玉県,久喜市,23-2,菖蒲町三箇999,長龍寺北側,36.06098536,139.6159599,
埼玉県,久喜市,23-3,菖蒲町三箇2904,菖蒲老人福祉センター前,36.06407964,139.6258382,
埼玉県,久喜市,23-4,菖蒲町台852,三箇小学校正門,36.05559093,139.62132,
埼玉県,久喜市,23-5,菖蒲町台1581,民家,36.0544557,139.6299587,
埼玉県,久喜市,23-6,菖蒲町台2401,向野集会所前,36.06309525,139.6336526,
埼玉県,久喜市,23-7,菖蒲町台891-7,民家付近,36.0524199,139.6247721,
埼玉県,久喜市,23-8,菖蒲町河原井140-1,河原井稲荷神社,36.04318745,139.6325893,
埼玉県,久喜市,24-1,菖蒲町小林3785-5,民家,36.0530499,139.591295,
埼玉県,久喜市,24-2,菖蒲町小林1786-1,民家,36.0539189,139.5890995,
埼玉県,久喜市,24-3,菖蒲町小林2197,小林小学校正門,36.05496516,139.5832938,
埼玉県,久喜市,24-4,菖蒲町小林2279-2,24区民館前,36.05653932,139.5845943,
埼玉県,久喜市,24-5,菖蒲町小林2746-1,元長谷川酒店付近,36.05927946,139.5763619,
埼玉県,久喜市,24-6,菖蒲町小林3396-4,北東集会所駐車場,36.05877274,139.5817579,
埼玉県,久喜市,24-7,菖蒲町小林905-1,長谷川倉庫株式会社,36.05255287,139.5806953,
埼玉県,久喜市,24-8,菖蒲町小林853,下の寺バス停留所,36.04795337,139.5856357,
埼玉県,久喜市,25-1,菖蒲町下栢間5495-1,森下緑地グラウンド駐車場前,36.04935848,139.5756826,
埼玉県,久喜市,25-2,菖蒲町下栢間2742-1,旧栢間駐在所,36.03584498,139.5772397,
埼玉県,久喜市,25-3,菖蒲町上栢間3321-1,鎮守の森公園,36.04063,139.5747981,
埼玉県,久喜市,25-4,菖蒲町上栢間3874,民家,36.0453875,139.5685307,
埼玉県,久喜市,25-5,菖蒲町下栢間2720,栢間小学校正門向い,36.036003,139.5800344,
埼玉県,久喜市,25-6,菖蒲町下栢間13,民家,36.0314479,139.5833767,
埼玉県,久喜市,25-7,菖蒲町柴山枝郷132-1,柴山小塚地区集落排水処理施設,36.0371251,139.5993455,
埼玉県,久喜市,25-8,菖蒲町柴山枝郷1786-1,民家,36.0500123,139.5996829,
埼玉県,久喜市,26-1,栗橋北2-8-28-1付近,ドラッグストアセキから北側180mの三角地帯,36.1422948,139.7013297,
埼玉県,久喜市,26-2,栗橋北1-8-1,王将旅館西側,36.141147,139.6994432,
埼玉県,久喜市,26-3,栗橋中央2-8-6,福寿院門前,36.13962207,139.7022914,
埼玉県,久喜市,26-4,栗橋中央2-7-1,栗橋中央コミュニティセンター,36.13842012,139.7015265,
埼玉県,久喜市,26-5,栗橋東2-4-6,栗橋郵便局,36.13647962,139.6994219,
埼玉県,久喜市,26-6,栗橋東3-3-1,栗橋小学校北側,36.13588571,139.7013493,
埼玉県,久喜市,26-7,栗橋中央2-3502-1,よしだや呉服店脇,36.1393734,139.70354,
埼玉県,久喜市,27-1,栗橋東5-28-14,栗橋ハイツ集会所北側水路沿,36.13335364,139.7063486,
埼玉県,久喜市,27-2,栗橋東5-3,栗橋ハイツ第1公園西側フェンス,36.1329998,139.7034621,
埼玉県,久喜市,27-3,栗橋東2-13-30-2,サンハイツ駐車場前,36.1323188,139.6989824,
埼玉県,久喜市,27-4,栗橋東6-3215-11,のもと食堂西側,36.13104942,139.7081074,
埼玉県,久喜市,27-5,栗橋東3-3-1,栗橋小学校南側,36.1346078,139.7013068,
埼玉県,久喜市,27-6,栗橋1425,栗橋東中学校正門,36.12803083,139.7038193,
埼玉県,久喜市,27-7,栗橋457,民家前,36.120992,139.7085933,
埼玉県,久喜市,28-1,栗橋東1-6,県営しづか団地受水槽,36.1335707,139.6967193,
埼玉県,久喜市,28-2,栗橋北1-17-8,坪井工業株式会社入口,36.14045144,139.6953374,
埼玉県,久喜市,28-3,栗橋北1-1-1,栗橋駅東口植栽,36.13708103,139.6943816,
埼玉県,久喜市,28-4,栗橋中央1-11-1,栗橋いきいき活動センターしずか館,36.13626563,139.6976543,
埼玉県,久喜市,28-5,栗橋中央1-19-10,サンパレス加瀬向い,36.1341911,139.6951567,
埼玉県,久喜市,28-6,伊坂北1丁目25-18,駅西口第1駐輪場北側,36.1396473,139.6938894,
埼玉県,久喜市,28-7,伊坂北2丁目7-33,伊坂北公園南側,36.1388417,139.6910057,
埼玉県,久喜市,29-1,伊坂中央1丁目16-3,栗橋駅西口駅前広場,36.1362995,139.6936727,
埼玉県,久喜市,29-2,伊坂中央1丁目4-1,栗橋駅西口第2自転車駐車場,36.1365853,139.691302,
埼玉県,久喜市,29-3,伊坂中央1丁目18付近,エルクレール1号棟東側水路沿,36.1342163,139.6928915,
埼玉県,久喜市,29-4,伊坂南2丁目11-2,さくら幼稚園運動場東側,36.132908,139.6880984,
埼玉県,久喜市,29-5,伊坂1551-1,栗橋B&G海洋センター,36.12921245,139.6918819,
埼玉県,久喜市,29-6,伊坂1489-12,伊坂苑公園遊水地北側,36.13141885,139.6896342,
埼玉県,久喜市,29-7,緑1-2003-136,イトーピア遊水地北側,36.12806083,139.6965527,
埼玉県,久喜市,30-1,間鎌251-1,栗橋行政センター,36.12639009,139.6959382,
埼玉県,久喜市,30-2,間鎌290,埼玉みずほ農業協同組合栗橋支店,36.12357391,139.6974378,
埼玉県,久喜市,30-3,佐間1554-2,尾島工務店前交差点,36.11814992,139.6886085,
埼玉県,久喜市,30-4,佐間713-2,ENEOS栗橋松永SS株式会社島田石油前,36.12548554,139.6864403,
埼玉県,久喜市,30-5,佐間266-1,栗橋西小学校北側,36.11944244,139.6835697,
埼玉県,久喜市,30-6,高柳1510,株式会社山口ナット入口前ガードレール,36.11442194,139.6720716,
埼玉県,久喜市,30-7,高柳60,佐間八甫線フェンス,36.1128505,139.688657,
埼玉県,久喜市,30-8,間鎌330-1,栗橋西中学校南側,36.12188309,139.6948318,
埼玉県,久喜市,31-1,栗橋東6-207-16,民家前畑,36.1282666,139.7084345,
埼玉県,久喜市,31-2,小右衛門714-6,彩優会 栗橋病院,36.114712,139.7159815,
埼玉県,久喜市,31-3,南栗橋4-21-1,栗橋南小学校正門,36.11309629,139.7101827,
埼玉県,久喜市,31-4,北広島1146-4,榎本技研前,36.11707457,139.7053652,
埼玉県,久喜市,31-5,河原代575,河原代消防小屋西側,36.11154194,139.6974784,
埼玉県,久喜市,31-6,新井270-1,新井集落センター前,36.10448336,139.6968032,
埼玉県,久喜市,31-7,南栗橋4-1,南栗橋駅西口駅前広場,36.11305293,139.7124422,
埼玉県,久喜市,31-8,南栗橋1-20,南栗橋駅東口駅前広場,36.11344027,139.7131018,
埼玉県,久喜市,32-1,南栗橋11-17-9,レオパレスコンフォートS北側水路敷,36.10920347,139.7005841,
埼玉県,久喜市,32-2,南栗橋11-7,内沼公園前調整池,36.10823782,139.7036648,
埼玉県,久喜市,32-3,南栗橋7-11,狐塚公園北側,36.10659045,139.7104331,
埼玉県,久喜市,32-4,南栗橋5-10,蓮沼公園西側,36.10876787,139.7134839,
埼玉県,久喜市,32-5,小右衛門615,フラワータウン東側入口フェンス,36.11025643,139.7196843,
埼玉県,久喜市,32-6,中里1048-1,栗橋コミュニティセンター,36.10590673,139.7146253,
埼玉県,久喜市,32-7,狐塚590,高秀寺西側,36.09998862,139.707143,
埼玉県,久喜市,33-1,栄1ー19ー9,民家向い,36.0990024,139.6535499,
埼玉県,久喜市,33-2,栄1-4,鷲宮駅西口ロータリー脇駐輪場,36.09628261,139.6558704,
埼玉県,久喜市,33-3,中妻1271,民家裏,36.0934911,139.6458877,
埼玉県,久喜市,33-4,中妻776,鷲宮プレイングMOPS,36.08871552,139.6528566,
埼玉県,久喜市,33-5,中妻43-1,関谷ガラス建材株式会社西側,36.08551215,139.6461247,
埼玉県,久喜市,33-6,久本寺177-3,久本寺集会所西側,36.080825,139.6577268,
埼玉県,久喜市,33-7,上内345-2,民家北側水路沿,36.0847659,139.6671624,
埼玉県,久喜市,34-1,中妻1588-1,鷲宮ハイツ、すずかけ地区遊水池,36.0971653,139.6525982,
埼玉県,久喜市,34-2,葛梅2-1-8,スピティ葛梅 (3階建てマンション)南側,36.09177889,139.6525353,
埼玉県,久喜市,34-3,中妻1627-4,葛梅第1調整池,36.09473865,139.6528667,
埼玉県,久喜市,34-4,葛梅491-9,鷲宮ハイツ、しらかば地区遊水池,36.0934605,139.6508234,
埼玉県,久喜市,34-5,葛梅450-125,民家向い,36.0917874,139.6492348,
埼玉県,久喜市,34-6,葛梅109,鷲宮小学校南側,36.09260666,139.6568498,
埼玉県,久喜市,34-7,葛梅3-7-4,葛梅第2調整池,36.09203399,139.6592836,
埼玉県,久喜市,35-1,上内478,1街区1棟付近ガードレール,36.09190818,139.6602708,
埼玉県,久喜市,35-2,上内478,1街区9棟付近,36.0911516,139.6601438,
埼玉県,久喜市,35-3,上内478,1街区22棟付近,36.08967451,139.6630533,
埼玉県,久喜市,35-4,上内716,上内小学校正門,36.08845431,139.6621684,
埼玉県,久喜市,35-5,上内478,2街区6棟付近鷲宮歯科向い,36.08743028,139.6596738,
埼玉県,久喜市,35-6,上内478,3街区18棟付近,36.08772052,139.6576084,
埼玉県,久喜市,35-7,上内478,3街区1棟付近,36.0860656,139.6599492,
埼玉県,久喜市,36-1,鷲宮3-20-23,角栄第一公園,36.10351787,139.6589866,
埼玉県,久喜市,36-2,鷲宮3-16-5,大橋医院南側水路沿,36.10236514,139.657705,
埼玉県,久喜市,36-3,鷲宮1ー4,宮前橋北側,36.09945587,139.6566102,
埼玉県,久喜市,36-4,鷲宮中央1-2,鷲宮駅東口ロータリー,36.09656164,139.6573451,
埼玉県,久喜市,36-5,砂原1-4-1,砂原小学校正門,36.09619654,139.6618217,
埼玉県,久喜市,36-6,上内1546,さくら美容室前ガードレール,36.09363758,139.6647935,
埼玉県,久喜市,36-7,上内1089-1,宿集会所,36.08700614,139.6663626,
埼玉県,久喜市,37-1,八甫1-58,八甫上集会所向い,36.10740698,139.6746199,
埼玉県,久喜市,37-2,鷲宮3079-4,宝泉寺池,36.10495088,139.6709753,
埼玉県,久喜市,37-3,鷲宮4-19,masked,36.10264376,139.6642103,
埼玉県,久喜市,37-4,鷲宮6-1-2,鷲宮保健センター,36.10133831,139.6674099,
埼玉県,久喜市,37-5,鷲宮4-1-6,鷲宮郵便局,36.10078471,139.6621157,
埼玉県,久喜市,37-6,鷲宮5-13,旭町商店会駐車場,36.09914466,139.6631268,
埼玉県,久喜市,37-7,東大輪2190-4,鷲宮電話交換局,36.09875561,139.6729122,
埼玉県,久喜市,38-1,鷲宮782,鷲宮中学校正門,36.0950066,139.6668099,
埼玉県,久喜市,38-2,西大輪353-1,原集会所,36.09391116,139.6746898,
埼玉県,久喜市,38-3,鷲宮560,鷲宮浄水場,36.09166272,139.6685333,
埼玉県,久喜市,38-4,西大輪760,東鷲宮駅西口ロータリー,36.08949249,139.6788273,
埼玉県,久喜市,38-5,西大輪2-5,西大輪第1調整池,36.09349845,139.6789739,
埼玉県,久喜市,38-6,西大輪4-26,西大輪第2調整池,36.08609567,139.6794683,
埼玉県,久喜市,38-7,鷲宮160-1,内下集会所付近東武鉄道線路沿,36.08105144,139.6767975,
埼玉県,久喜市,38-8,鷲宮421-1,下新井ポンプ場,36.08563234,139.6722903,
埼玉県,久喜市,39-1,八甫2-114-1,八甫下集会所,36.10536596,139.6851098,
埼玉県,久喜市,39-2,八甫3-37-2,八甫コミュニティセンター,36.09953695,139.6954293,
埼玉県,久喜市,39-3,東大輪1552-2,産業団地入口交差点,36.09932866,139.6841288,
埼玉県,久喜市,39-4,東大輪311,桜田小学校正門,36.0910425,139.6873259,
埼玉県,久喜市,39-5,桜田4-31,弦代公園西側,36.08538932,139.6866447,
埼玉県,久喜市,39-6,外野15-2,JR東北本線西側ガードレール,36.08218714,139.6802203,
埼玉県,久喜市,39-7,上川崎601-1,民家南側水路沿,36.0800239,139.6912261,
埼玉県,久喜市,40-1,桜田1-7,大中落川沿,36.09404705,139.6813139,
埼玉県,久喜市,40-2,桜田3-3-14,大中落川沿,36.09246707,139.6827577,
埼玉県,久喜市,40-3,桜田3-10-2,鷲宮東コミュニティセンター,36.09254946,139.6855673,
埼玉県,久喜市,40-4,桜田3-7-6,大中落川沿,36.09013183,139.684902,
埼玉県,久喜市,40-5,桜田1-1,東鷲宮駅東口ロータリー交差点,36.08910387,139.6801433,
埼玉県,久喜市,40-6,桜田1-24-1,JR東北本線線路沿,36.09681346,139.6790687,
埼玉県,久喜市,40-7,桜田1-4,東鷲宮保育園西側線路沿,36.09115341,139.6795124,
埼玉県,久喜市,40-8,桜田2-7-2,桜田運動公園,36.09705302,139.6818138,
