prefecture,city,number,address,name,lat,long,note
埼玉県,加須市,1-1,中央1丁目11-41,加須市商工会館北側フェンス,36.1257482,139.5975053,
埼玉県,加須市,1-2,中央2丁目5-19,中央2丁目町内会館フェンス,36.1242435,139.5988462,
埼玉県,加須市,1-3,富士見町347-1,富士パーキングの東側,36.1207673,139.5956361,
埼玉県,加須市,1-4,元町1-2,民家北側ブロック塀,36.1222799,139.598815,
埼玉県,加須市,1-5,富士見町376-1,富士見公園南側,36.1194348,139.5965265,
埼玉県,加須市,1-6,中央1丁目,加須駅北口ロータリー内植込み,36.1236457,139.5958186,
埼玉県,加須市,1-7,富士見町,加須駅南口ロータリー内,36.1221864,139.5959526,
埼玉県,加須市,2-1,本町4-25,加須小学校校舎北側フェンス,36.124752,139.6037553,
埼玉県,加須市,2-2,本町4-25,加須小学校校舎南側フェンス,36.123399,139.6041979,
埼玉県,加須市,2-3,本町18-27,粕壁屋駐車場北側,36.1265789,139.6029225,
埼玉県,加須市,2-4,東栄1丁目4-3,加須幼稚園南側フェンス,36.1225667,139.6038541,
埼玉県,加須市,2-5,東栄1丁目1372-1,東栄公園東側フェンス,36.1215301,139.6056883,
埼玉県,加須市,2-6,東栄2丁目1164-1,駐車場東側畑,36.1249806,139.6084374,
埼玉県,加須市,2-7,東栄2丁目15-36,栄楽公園南側フェンス,36.1221626,139.6101729,
埼玉県,加須市,3-1,南町2-19,みどり公園地南側フェンス,36.1202422,139.6015866,
埼玉県,加須市,3-2,南町3-51,加須コミュニティセンター南側フェンス,36.120199,139.6002547,
埼玉県,加須市,3-3,南町9-48,民家西側ブロック塀,36.1185669,139.5969086,
埼玉県,加須市,3-4,下高柳1932-1,加須市社会福祉協議会本所東側,36.1135515,139.6042973,
埼玉県,加須市,3-5,南町15-86,ミナミハイツ南側フェンス,36.117545,139.6015565,
埼玉県,加須市,3-6,南町1460-1,南町遊園地南側フェンス,36.1190801,139.6032372,
埼玉県,加須市,3-7,久下1775,民家南側ブロック塀,36.1167901,139.609403,
埼玉県,加須市,4-1,久下1丁目5,久本公園南側フェンス,36.1208921,139.6084912,
埼玉県,加須市,4-2,久下1丁目23,久下公園南側野立て,36.1182825,139.6092583,
埼玉県,加須市,4-3,久下2丁目9,久下中央公園西側フェンス,36.1209269,139.6131656,
埼玉県,加須市,4-4,久下4丁目14,久下南公園東側フェンス,36.1166754,139.6189181,
埼玉県,加須市,4-5,久下4丁目50-1,久下浄水場西側フェンス,36.1167179,139.6154192,
埼玉県,加須市,4-6,久下5丁目7,久下東公園南側フェンス,36.120521,139.6184956,
埼玉県,加須市,4-7,久下5丁目15,久下北公園南側フェンス,36.1200835,139.6210679,
埼玉県,加須市,5-1,不動岡859-33,開発公園No.36-2フェンス,36.1374595,139.5900747,
埼玉県,加須市,5-2,不動岡3丁目,不動岡北みどり公園,36.136551,139.5839176,
埼玉県,加須市,5-3,不動岡2丁目9-18,不動尊西側石塀,36.1355885,139.5848858,
埼玉県,加須市,5-4,不動岡3丁目272,不動岡東いちょう公園,36.1352036,139.5833811,
埼玉県,加須市,5-5,不動岡3丁目27-5,不動岡高校発祥之地公園フェンス,36.1369511,139.5814843,
埼玉県,加須市,5-6,不動岡2丁目829-1,不動岡公園東側,36.1358105,139.5878868,
埼玉県,加須市,5-7,不動岡2丁目829-1,不動岡公園北側,36.1363499,139.5871908,
埼玉県,加須市,6-1,下谷47,民家東側ブロック塀,36.1464468,139.582572,
埼玉県,加須市,6-2,下谷295,民家北側ブロック塀,36.1502144,139.587233,
埼玉県,加須市,6-3,下谷1681,商店北側空地,36.147727,139.5923574,
埼玉県,加須市,6-4,下谷741,民家東側ブロック塀,36.1531356,139.5884218,
埼玉県,加須市,6-5,下谷1316,民家西側垣根,36.1505586,139.5934502,
埼玉県,加須市,6-6,下谷1086,土木プラント北側フェンス,36.1460249,139.6024386,
埼玉県,加須市,7-1,岡古井152-1,民家西側,36.1382997,139.5786478,
埼玉県,加須市,7-2,岡古井176,民家南側(県道際)畑,36.1402124,139.5720468,
埼玉県,加須市,7-3,岡古井435,阿弥陀堂北西側畑,36.1483883,139.5747183,
埼玉県,加須市,7-4,岡古井380,田地先,36.1448618,139.5763437,
埼玉県,加須市,7-5,岡古井1249-1,通殿社敷地,36.1397078,139.5758658,
埼玉県,加須市,8-1,上三俣1268,民家フェンス,36.1363051,139.6095841,
埼玉県,加須市,8-2,上三俣2255,パストラルかぞ南側,36.1355608,139.6042672,
埼玉県,加須市,8-3,北小浜1164-1,安野自動車南側空地,36.1344534,139.6124396,
埼玉県,加須市,8-4,上三俣590,JAほくさい加須中央支店,36.1300186,139.6061494,
埼玉県,加須市,8-5,上三俣1777,三俣北部集会場西側ブロック塀,36.1433207,139.6140467,
埼玉県,加須市,8-6,北小浜1039-6,北小浜第1調整池東側フェンス,36.1313482,139.6114253,
埼玉県,加須市,8-7,睦町1丁目12-20,睦町浄水場フェンス,36.1266192,139.6083202,
埼玉県,加須市,9-1,三俣2丁目8-8,三俣二丁目中央きずな公園南側フェンス,36.1308713,139.6041635,
埼玉県,加須市,9-2,三俣2丁目1-1,市役所本庁舎西側植込,36.1312117,139.6008863,
埼玉県,加須市,9-3,下三俣590,加須市民体育館フェンス,36.1354939,139.6024103,
埼玉県,加須市,9-4,諏訪1丁目10,諏訪公園南側フェンス,36.1316387,139.5979556,
埼玉県,加須市,9-5,三俣1丁目9,三俣一丁目東公園東側,36.1327676,139.5995875,
埼玉県,加須市,9-6,三俣1丁目18-6,三俣一丁目西公園西側,36.1356182,139.5976742,
埼玉県,加須市,9-7,三俣2丁目13,三俣二丁目南公園,36.1294955,139.6043697,
埼玉県,加須市,10-1,多門寺489-1,(旧)こぐれ建設資材置場北側,36.1323817,139.6206264,
埼玉県,加須市,10-2,多門寺150-3,民家東側ブロック塀,36.1255408,139.6214418,
埼玉県,加須市,10-3,多門寺1031,多門寺又根集会所東側,36.1392486,139.6226447,
埼玉県,加須市,10-4,北篠崎225,医王寺西側ブロック塀(野立て),36.1290669,139.6354443,
埼玉県,加須市,10-5,北篠崎1987-1,北篠崎集会所西側フェンス,36.1325902,139.6335717,
埼玉県,加須市,10-6,北篠崎1814-1,masked,36.1335291,139.6418983,
埼玉県,加須市,10-7,多門寺576,多門寺集会所東側フェンス,36.1317119,139.6237898,
埼玉県,加須市,11-1,礼羽615,民家南側,36.1272779,139.5841681,
埼玉県,加須市,11-2,礼羽334-1,礼羽遊園地東側フェンス,36.1266187,139.5884361,
埼玉県,加須市,11-3,礼羽399,今蓮院北側ネットフェンス,36.1254197,139.5849182,
埼玉県,加須市,11-4,礼羽560,礼羽小学校南門東フェンス,36.128623,139.5826868,
埼玉県,加須市,11-5,愛宕1丁目400-1,民家南側畑,36.1330522,139.5874362,
埼玉県,加須市,11-6,愛宕2丁目20-1,民家西側,36.1321052,139.5830851,
埼玉県,加須市,11-7,礼羽151-2,松本こいのぼり工場南側塀,36.1242787,139.5908877,
埼玉県,加須市,12-1,土手1丁目4-27,松勘工業(株)南側フェンス,36.125439,139.5928747,
埼玉県,加須市,12-2,土手1丁目9-5,民家ブロック塀,36.1266017,139.593226,
埼玉県,加須市,12-3,土手2丁目10-31,民家ブロック塀,36.1299177,139.5878188,
埼玉県,加須市,12-4,土手2丁目7-1,民家東側ブロック塀,36.1274062,139.591622,
埼玉県,加須市,12-5,土手2丁目3-28,坂本税理士事務所駐車場北側水路フェンス,36.1281736,139.5897282,
埼玉県,加須市,12-6,土手2丁目8番地13先,民家東側水路フェンス,36.128301,139.5900689,
埼玉県,加須市,12-7,土手2丁目14,土手会館北側ブロック塀,36.128258,139.5933522,
埼玉県,加須市,13-1,馬内50-1,市営諏訪団地跡地,36.1353364,139.5733979,
埼玉県,加須市,13-2,馬内50-2地先,秋葉団地D棟南側水路フェンス,36.135727,139.573212,緯度経度は怪しい
埼玉県,加須市,13-3,馬内434,(株)フカワ北側塀,36.1357073,139.5756248,
埼玉県,加須市,13-4,馬内500-1,秋葉山北側,36.1349101,139.5764154,
埼玉県,加須市,13-5,馬内662-1,民家西側空地,36.1328272,139.578995,
埼玉県,加須市,13-6,馬内887-2,南側畑,36.1317347,139.5716011,
埼玉県,加須市,13-7,馬内339,日穀(株)ブロック塀,36.1325446,139.5830218,
埼玉県,加須市,14-1,川口2丁目12-1,川口コミュニティセンター北側フェンス,36.1123734,139.6594683,
埼玉県,加須市,14-2,鳩山町7,鳩山公園南側植込み,36.1060963,139.6568427,
埼玉県,加須市,14-3,川口3丁目14-1,岡公園北側植込み,36.1116314,139.6633149,
埼玉県,加須市,14-4,川口992-2,天照皇太神社前水路脇フェンス,36.1146741,139.6552613,
埼玉県,加須市,14-5,川口3丁目3-5,花彦東公園南側植込み,36.1095978,139.660603,
埼玉県,加須市,14-6,川口2丁目19,花彦西公園東側植込み,36.1121848,139.6574398,
埼玉県,加須市,14-7,川口1丁目3,川口北公園南側植込み,36.1149726,139.6622375,
埼玉県,加須市,15-1,南大桑918-1,民家西側畑,36.1083855,139.6416864,
埼玉県,加須市,15-2,南大桑727-2,民家ブロック塀,36.1137042,139.6395933,
埼玉県,加須市,15-3,大桑1丁目36,インター3号緑地,36.1194914,139.6398851,
埼玉県,加須市,15-4,南大桑1316-1,民家北側の畑,36.1084136,139.6486695,
埼玉県,加須市,15-5,南大桑2693-1,民家南側,36.1142935,139.6445501,
埼玉県,加須市,15-6,南大桑3480,南大桑自治会集会所フェンス,36.1207876,139.64405,
埼玉県,加須市,15-7,南大桑2881-1,大桑コミュニティセンター西側フェンス,36.1145845,139.6402408,
埼玉県,加須市,16-1,南篠崎2丁目1-6,南篠崎コミュニティセンター西側フェンス,36.1205448,139.6220451,
埼玉県,加須市,16-2,南篠崎2丁目8-1,鎮守前公園テニスコート西側フェンス,36.1205969,139.6241954,
埼玉県,加須市,16-3,南篠崎738-3,水路北側フェンス,36.115535,139.6378875,
埼玉県,加須市,16-4,南篠崎933-1,南篠崎集会所南側植込み,36.1188001,139.6323066,
埼玉県,加須市,16-5,南篠崎998-1,北西集会所北側,36.1222721,139.6353715,
埼玉県,加須市,16-6,南篠崎1328-2,民家南側畑,36.1221844,139.6302997,
埼玉県,加須市,16-7,南篠崎2387-1,民家空き地,36.1232614,139.6236577,
埼玉県,加須市,17-1,花崎1丁目15,花崎駅南公園南側フェンス,36.1084082,139.6326121,
埼玉県,加須市,17-2,花崎1丁目33,六郷公園南側フェンス,36.1069532,139.6364196,
埼玉県,加須市,17-3,花崎2丁目16-1,花崎公会堂西側フェンス,36.1105142,139.6248621,
埼玉県,加須市,17-4,花崎2丁目22,花崎城山公園南側フェンス,36.1112211,139.6275237,
埼玉県,加須市,17-5,花崎3丁目28,房後公園東側フェンス,36.11309,139.6231532,
埼玉県,加須市,17-6,花崎4丁目4,新立公園東側フェンス,36.1150728,139.6121443,
埼玉県,加須市,17-7,花崎4丁目25,花崎愛宕公園西側フェンス,36.1148388,139.6178212,
埼玉県,加須市,18-1,花崎北1丁目46,花崎駅北口ロータリー植込み,36.1100706,139.6341976,
埼玉県,加須市,18-2,花崎北1丁目28-1,加須市花崎ポンプ場東側フェンス,36.1124159,139.6309643,
埼玉県,加須市,18-3,花崎北2丁目16-1,ライオンズガーデン花崎テニスコートネットフェンス,36.113723,139.6329362,
埼玉県,加須市,18-4,花崎北3丁目1,花崎北小学校西側入口脇フェンス,36.114423,139.629164,
埼玉県,加須市,18-5,花崎北3丁目1,花崎北小学校北側入口脇フェンス,36.1146484,139.6299821,
埼玉県,加須市,18-6,花崎北3丁目19-4,取水ポンプ場北側(花崎1号緑地西側),36.114551,139.6267912,
埼玉県,加須市,18-7,花崎北4丁目4,城跡公園西側市道沿,36.1121436,139.6286136,
埼玉県,加須市,19-1,大室172,民家東側ブロック塀,36.0988931,139.6198548,
埼玉県,加須市,19-2,大室685,民家北側ブロック塀,36.098109,139.6204946,
埼玉県,加須市,19-3,船越116,水深コミュニティセンター北側フェンス,36.1014008,139.6230725,
埼玉県,加須市,19-4,船越228-2,地先用水路沿いガードレール,36.1032618,139.6222257,
埼玉県,加須市,19-5,南小浜528,民家南側ブロック塀,36.1026821,139.6129545,
埼玉県,加須市,19-6,油井ケ島459,民家北側ブロック塀,36.0950694,139.6104753,
埼玉県,加須市,19-7,油井ケ島1391,民家南側ブロック塀,36.0915122,139.6142699,
埼玉県,加須市,20-1,北辻731,民家北側ブロック塀,36.0953059,139.6309691,
埼玉県,加須市,20-2,水深874-1,本村耕地集会所南道路南側駐車場,36.0943503,139.6369706,
埼玉県,加須市,20-3,水深2141-1地先水路,加須市水深2141-1地先水路沿い,36.100993,139.6390922,
埼玉県,加須市,20-4,水深2042-26他,開発公園No.11 道路側フェンス,36.1014986,139.6412534,
埼玉県,加須市,20-5,水深1162-1,開発公園No.40 東側フェンス,36.0987055,139.6328728,
埼玉県,加須市,20-6,水深776-1,開発公園No16フェンス,36.0976582,139.637723,
埼玉県,加須市,20-7,水深2177-17,開発公園No.10 南側フェンス,36.1036662,139.6362357,
埼玉県,加須市,21-1,今鉾60-1,民家西側ブロック塀,36.0853398,139.6289662,
埼玉県,加須市,21-2,今鉾126-5,民家南側空地,36.0844383,139.6264984,
埼玉県,加須市,21-3,割目190,民家西側田,36.0822242,139.6251706,
埼玉県,加須市,21-4,割目491-1,久伊豆神社西側,36.0798146,139.6299849,
埼玉県,加須市,21-5,割目220,民家南側畑,36.0834142,139.6212452,
埼玉県,加須市,22-1,下高柳9,開発公園 No65東側フェンス,36.1039335,139.6173269,
埼玉県,加須市,22-2,下高柳347-1,民家北側空地,36.1081082,139.6124884,
埼玉県,加須市,22-3,下高柳1095,民家北側空地,36.1057516,139.6072594,
埼玉県,加須市,22-4,下高柳1643,民家北側(下高柳遊園地南),36.1101506,139.6025414,
埼玉県,加須市,22-5,下高柳1551-1,ヘアーサロン北側畑,36.1070646,139.6019287,
埼玉県,加須市,22-6,常泉547,民家南側田,36.1046332,139.6051674,
埼玉県,加須市,22-7,常泉82,民家東側ブロック塀,36.1056143,139.6015343,
埼玉県,加須市,23-1,中樋遣川2047,北瀬田和西集会所前ガードレール,36.1577517,139.6171207,
埼玉県,加須市,23-2,下樋遣川203,民家東側畑,36.1467326,139.6168793,
埼玉県,加須市,23-3,下樋遣川372-1,駐車場南側畑,36.1563992,139.6134635,
埼玉県,加須市,23-4,下樋遣川834,樋遣川コミュニティセンター西側フェンス,36.154711,139.620887,
埼玉県,加須市,23-5,下樋遣川854-1,民家東側畑,36.1539598,139.6256501,
埼玉県,加須市,23-6,下樋遣川1542,民家南側畑,36.1573001,139.6137532,
埼玉県,加須市,23-7,町屋新田1208-1,民家南畑,36.1566391,139.6104785,
埼玉県,加須市,24-1,上樋遣川5068,民家ブロック塀,36.1524868,139.6369575,
埼玉県,加須市,24-2,下樋遣川5462-1,一両野集会所物置前,36.1506542,139.6323339,
埼玉県,加須市,24-3,古川二丁目6-1,加須北部公園北西入口脇植込み,36.1466984,139.6428496,
埼玉県,加須市,24-4,下樋遣川6671,民家ブロック塀,36.1452746,139.6413092,
埼玉県,加須市,24-5,下樋遣川6602-1,民家南側畑,36.1425628,139.6403071,
埼玉県,加須市,25-1,上樋遣川4881-1,薬師堂入口畑東側,36.1566994,139.6372794,
埼玉県,加須市,25-2,上樋遣川3717,民家東側石塀,36.1701953,139.6360135,
埼玉県,加須市,25-3,上樋遣川4405,御室社駐車場内側フェンス,36.159372,139.6334382,
埼玉県,加須市,25-4,上樋遣川7077,立野八坂神社境内,36.1650102,139.6331209,
埼玉県,加須市,25-5,上樋遣川4772,masked,36.1575681,139.6352622,
埼玉県,加須市,26-1,戸川29,民家西側空地,36.1548573,139.5961484,
埼玉県,加須市,26-2,戸川687,工務店西側空地,36.1580559,139.5958977,
埼玉県,加須市,26-3,戸川807,地蔵院ブロック塀,36.1580208,139.5918478,
埼玉県,加須市,26-4,戸川1540,理髪店東側,36.1611917,139.5953183,
埼玉県,加須市,26-5,戸川1782,戸川集会所南側,36.1587736,139.5975259,
埼玉県,加須市,27-1,志多見427-1,志多見北集会所南側,36.1326306,139.5464439,
埼玉県,加須市,27-2,志多見1132-2,別所遊園地西側フェンス,36.1327665,139.5656216,
埼玉県,加須市,27-3,志多見873-1,志多見集会所南側フェンス,36.1325111,139.5547676,
埼玉県,加須市,27-4,志多見70,八州商會(株)南側フェンス,36.1367148,139.5363706,
埼玉県,加須市,27-5,志多見633,志多見小学校東側フェンス,36.1317593,139.5496889,
埼玉県,加須市,27-6,志多見1639-1,横川興業加須支店南側フェンス,36.1351869,139.5557467,
埼玉県,加須市,27-7,志多見2334-5,さいたま妙松苑北側フェンス,36.1352998,139.5608725,
埼玉県,加須市,28-1,平永412-1,志多見土地改良区第3揚水場南側フェンス,36.1269973,139.5645554,
埼玉県,加須市,28-2,平永262-1,民家北側ブロック塀,36.1287387,139.5676546,
埼玉県,加須市,28-3,平永454-1,民家南側T字路電柱脇,36.126465,139.5615048,
埼玉県,加須市,28-4,平永738,平永集会所,36.1288321,139.5570449,
埼玉県,加須市,28-5,平永1086-1,民家南側フェンス付近,36.122967,139.5594768,
埼玉県,加須市,29-1,阿良川221-1,民家東側塀,36.1290495,139.5390614,
埼玉県,加須市,29-2,阿良川375-1,民家北側塀,36.1243058,139.5366812,
埼玉県,加須市,29-3,阿良川655,民家西側ブロック塀,36.1257435,139.5404327,
埼玉県,加須市,29-4,阿良川855,民家西側塀,36.1261717,139.5423025,
埼玉県,加須市,29-5,阿良川919-1,民家ブロック塀,36.1270819,139.5457821,
埼玉県,加須市,30-1,串作347-1,民家西側ブロック塀,36.1379971,139.5269871,
埼玉県,加須市,30-2,串作398-1,民家西側ブロック塀,36.137418,139.5252994,
埼玉県,加須市,30-3,串作467-1,民家南側ブロック塀フェンス,36.1343462,139.5250133,
埼玉県,加須市,30-4,串作405-1,串作集会所フェンス,36.1367308,139.5274428,
埼玉県,加須市,30-5,串作1069-2,民家北側ブロックフェンス,36.1337256,139.530102,
埼玉県,加須市,31-1,大越197-1,民家北西側公園(前田耕地遊園地),36.1898013,139.6060405,
埼玉県,加須市,31-2,大越523-1,民家北側空地,36.186042,139.6108323,
埼玉県,加須市,31-3,大越561-1付近,民家東側水路付近,36.1881549,139.609695,
埼玉県,加須市,31-4,大越835-3,民家南の畑(県道側),36.181747,139.6103528,
埼玉県,加須市,31-5,大越894,民家南側空地,36.1820145,139.6082584,
埼玉県,加須市,32-1,大越1708-1,農業公社東側塀(野立て),36.1759412,139.6187387,
埼玉県,加須市,32-2,大越1467-6,民家南側畑,36.1837601,139.6171129,
埼玉県,加須市,32-3,大越1991,大越コミュニティセンター東側フェンス,36.1814179,139.6211651,
埼玉県,加須市,32-4,大越3756,野なか公園東側植木,36.1706114,139.6177918,
埼玉県,加須市,32-5,大越2015,民家南側畑,36.1825582,139.6191964,
埼玉県,加須市,32-6,大越2483-1,大越郵便局北側駐車場,36.1802987,139.6271065,
埼玉県,加須市,33-1,大越2328,民家東側ブロック塀,36.1764334,139.6288209,
埼玉県,加須市,33-2,大越2884-1,民家東側ブロック塀,36.174766,139.6311491,
埼玉県,加須市,33-3,大越3387,民家北側ブロック塀,36.1690428,139.6280196,
埼玉県,加須市,33-4,大越3416,民家北側ブロック塀,36.166696,139.6269966,
埼玉県,加須市,33-5,外野434,民家北側ブロック塀,36.1745058,139.6355367,
埼玉県,加須市,34-1,騎西36-1,騎西総合支所南,36.1018106,139.5750551,
埼玉県,加須市,34-2,外川54番130,若草第一公園西側フェンス,36.1060191,139.5788012,
埼玉県,加須市,34-3,騎西10,元町裏公園北側,36.0998594,139.5794076,
埼玉県,加須市,34-4,騎西52-3,騎西小学校西側,36.1037104,139.5719249,
埼玉県,加須市,34-5,騎西1486,新道上公園西側公園内植込み,36.107348,139.5727729,
埼玉県,加須市,34-6,騎西975-1,中央公園東,36.1065331,139.5763056,
埼玉県,加須市,34-7,外川450-1,萩原公園西側フェンス,36.1035853,139.5792203,
埼玉県,加須市,35-1,下崎263,民家南側ブロック,36.0978054,139.5708906,
埼玉県,加須市,35-2,下崎571,民家東側,36.1000248,139.5659273,
埼玉県,加須市,35-3,下崎1128,下崎ふれあいセンター北側フェンス,36.1025777,139.5600711,
埼玉県,加須市,35-4,下崎1798,民家北側フェンス,36.1056855,139.5573698,
埼玉県,加須市,35-5,下崎1280,民家北側フェンス,36.1038563,139.5620162,
埼玉県,加須市,36-1,内田ケ谷120-2 西側,民家西側畑,36.1140424,139.5449989,
埼玉県,加須市,36-2,内田ケ谷468-1,民家東側空地,36.1157851,139.5495139,
埼玉県,加須市,36-3,内田ケ谷662-3,旧田ケ谷幼稚園西側フェンス,36.1143288,139.5509897,
埼玉県,加須市,36-4,内田ケ谷1063-1,寄居集会所西側空地,36.1100129,139.5623964,
埼玉県,加須市,36-5,道地1380-1,天沼団地北側フェンス,36.1148048,139.5579699,
埼玉県,加須市,36-6,道地1473-1,旧ほくさい農協田ケ谷支店西側ブロック,36.1156617,139.5527084,
埼玉県,加須市,36-7,道地1595,道地集会所駐輪所裏フェンス,36.118708,139.5497276,
埼玉県,加須市,37-1,上崎2393-1,民家北側ブロック,36.1080523,139.554098,
埼玉県,加須市,37-2,上崎1904,野原自動車西側ブロック塀,36.1077235,139.5489869,
埼玉県,加須市,37-3,上崎1707-1,民家南側の畑南端道標,36.1089776,139.5422708,
埼玉県,加須市,37-4,上崎1850-1,田ケ谷サンスポーツランド野球場北西側,36.1106386,139.5461181,
埼玉県,加須市,37-5,上崎545-5,民家北側ブロック,36.1028524,139.5413702,
埼玉県,加須市,38-1,外田ケ谷404北,民家東側畑,36.1154099,139.5342889,
埼玉県,加須市,38-2,外田ケ谷1144-2,民家北側ブロック,36.1173327,139.5444021,
埼玉県,加須市,38-3,外田ケ谷347,民家東側ブロック,36.1139537,139.5338164,
埼玉県,加須市,38-4,外田ケ谷796,宝性寺前,36.1180914,139.5364045,
埼玉県,加須市,38-5,外田ケ谷546,民家北側(県道側)ブロック,36.1180835,139.5340322,
埼玉県,加須市,39-1,下種足442-1,民家北,36.0759891,139.5808326,
埼玉県,加須市,39-2,下種足434-1,民家西側畑,36.0771379,139.5790082,
埼玉県,加須市,39-3,中種足397,中種足第2区集出荷所前,36.080737,139.574834,
埼玉県,加須市,39-4,中種足755,民家西側ブロック,36.0788148,139.5728791,
埼玉県,加須市,39-5,中種足123,種足小学校南側フェンス,36.0839601,139.5679254,
埼玉県,加須市,39-6,中種足1230-1,ふるさと広場東,36.0847324,139.5660597,
埼玉県,加須市,40-1,上種足1518-3,上種足6区集会所前フェンス,36.0845864,139.5563961,
埼玉県,加須市,40-2,上種足800,民家東,36.0829412,139.5629643,
埼玉県,加須市,40-3,上種足1172,民家東,36.0872212,139.56176,
埼玉県,加須市,40-4,上種足1394-2,民家南,36.0875052,139.5568583,
埼玉県,加須市,40-5,上種足1342-1,民家南,36.0896984,139.5558526,
埼玉県,加須市,40-6,上種足3355-1,民家南,36.091092,139.5531355,
埼玉県,加須市,40-7,中種足3334-1,民家南,36.0922267,139.5507014,
埼玉県,加須市,41-1,中ノ目214-3,井上商店西側(民家北側ブロック),36.0949341,139.5536459,
埼玉県,加須市,41-2,中ノ目669-1,民家前(南),36.0930384,139.5576049,
埼玉県,加須市,41-3,戸室227,民家北側,36.091664,139.5628696,
埼玉県,加須市,41-4,戸室92,戸室第10区集会所前フェンス付近,36.0883345,139.5673511,
埼玉県,加須市,41-5,戸室1057-1,民家南田,36.0887414,139.5691282,
埼玉県,加須市,41-6,戸室1006,清水酒造の東,36.0885364,139.5735948,
埼玉県,加須市,41-7,西ノ谷1-1,民家南,36.096611,139.5739108,
埼玉県,加須市,42-1,鴻茎9-1,立山公園西側フェンス,36.0971063,139.5825381,
埼玉県,加須市,42-2,鴻茎2360-2,民家西側ブロック,36.0923743,139.5894731,
埼玉県,加須市,42-3,鴻茎1333,旧JAほくさい鴻茎支店前フェンス,36.0851804,139.5941595,
埼玉県,加須市,42-4,鴻茎2083,民家南側フェンス,36.0946741,139.5839282,
埼玉県,加須市,42-5,芋茎1026,民家西側ブロック,36.0817854,139.5896653,
埼玉県,加須市,42-6,芋茎355,民家西側ブロック,36.0783088,139.5894014,
埼玉県,加須市,42-7,芋茎108,民家北側ブロック,36.0756827,139.5933785,
埼玉県,加須市,42-8,芋茎1828,民家前畑,36.0814976,139.5996239,
埼玉県,加須市,43-1,根古屋641-3,民家東側ブロック,36.1035769,139.5840697,
埼玉県,加須市,43-2,牛重161,民家北側ブロック,36.1005714,139.5887529,
埼玉県,加須市,43-3,牛重89-1,民家北側ブロック,36.100965,139.5834988,
埼玉県,加須市,43-4,牛重452,民家北側ブロック,36.0928294,139.6012034,
埼玉県,加須市,43-5,牛重354,民家東側,36.097035,139.5916702,
埼玉県,加須市,43-6,牛重739-1,民家西側ブロック,36.089043,139.6065249,
埼玉県,加須市,43-7,根古屋633-10,キャッスルきさい地内,36.1042248,139.5841588,
埼玉県,加須市,44-1,上高柳199,材木店北側ブロック,36.1123084,139.5951798,
埼玉県,加須市,44-2,日出安647-1,県道久喜騎西線と市道(済生会通り)の交差点南西の畑,36.1103796,139.5867629,
埼玉県,加須市,44-3,上高柳839,民家北側ブロック,36.1156908,139.5849269,
埼玉県,加須市,44-4,上高柳835,民家西側ブロック,36.1142028,139.5841193,
埼玉県,加須市,44-5,日出安921,民家西側ブロック,36.110925,139.5877847,
埼玉県,加須市,44-6,日出安836-1,民家南,36.1097457,139.5899355,
埼玉県,加須市,44-7,日出安736-3,民家東側,36.1112995,139.5840002,
埼玉県,加須市,45-1,正能4,古宮公園東側フェンス,36.1118314,139.5684659,
埼玉県,加須市,45-2,正能14,大道公園西側フェンス,36.1096639,139.5702996,
埼玉県,加須市,45-3,戸崎207-1,正能・戸崎工業団地内公園フェンス(北側),36.1146681,139.5704726,
埼玉県,加須市,45-4,戸崎54-5,民家北側ブロック,36.1164674,139.5786856,
埼玉県,加須市,45-5,戸崎280,民家前ブロック,36.113131,139.5765353,
埼玉県,加須市,45-6,戸崎1410,民家北側ブロック,36.1201998,139.5696049,
埼玉県,加須市,45-7,日出安1395,高柳コミュニティセンター南側,36.1149914,139.5784126,
埼玉県,加須市,46-1,飯積1147,民家ブロック塀,36.1858349,139.6398616,
埼玉県,加須市,46-2,飯積1452-3,masked,36.1869098,139.6357394,
埼玉県,加須市,46-3,飯積1216,かんのん公園西側,36.1882497,139.6359621,
埼玉県,加須市,46-4,飯積969-1,明寿屋商店南側畑の塀(東側)の前,36.191103,139.6338346,
埼玉県,加須市,46-5,飯積185,元郷塗装工業(株)工場前フェンス,36.1899209,139.6284197,
埼玉県,加須市,47-1,麦倉86-3,(株)三洋工業埼玉工場東側畑,36.1949392,139.6420427,
埼玉県,加須市,47-2,麦倉1199-1,西小学校前歩道橋前フェンス(野立て),36.1951345,139.6506518,
埼玉県,加須市,47-3,麦倉1199-1,西小学校プール西側ブロック塀,36.1940544,139.6503929,
埼玉県,加須市,47-4,麦倉638,土地改良区第一揚水機場前水路敷,36.1893955,139.6480923,
埼玉県,加須市,47-5,麦倉1341,民家前畑,36.190691,139.6585276,
埼玉県,加須市,47-6,柳生1198,民家北側(開智未来高西)ブロック塀,36.194391,139.6531525,
埼玉県,加須市,47-47,柳生1782,国道354号線柳生交差点北側,36.199081,139.653687,緯度経度は怪しい
埼玉県,加須市,48-1,麦倉3632,民家西ブロック塀,36.1881036,139.6601532,
埼玉県,加須市,48-2,麦倉3272,民家南フェンス,36.1819834,139.652181,
埼玉県,加須市,48-3,麦倉3122-1,民家北側休耕地,36.1791828,139.6546839,
埼玉県,加須市,48-4,麦倉2447-1,大島集会所前水路敷,36.1857912,139.6488045,
埼玉県,加須市,48-5,麦倉2426-1,商店西側畑,36.1827051,139.6467258,
埼玉県,加須市,48-6,麦倉2337-1,細前共同墓地ブロック塀,36.182244,139.6445599,
埼玉県,加須市,49-1,柳生1946-3,民家西側ブロック塀,36.2016063,139.655674,
埼玉県,加須市,49-2,柳生2121,民家東畑,36.2031297,139.651777,
埼玉県,加須市,49-3,柳生2413,masked,36.2060743,139.6525717,
埼玉県,加須市,49-4,柳生2099,北川辺郵便局前,36.2044195,139.6586507,
埼玉県,加須市,49-5,柳生2817-1,柿沼ストア前(ポケットパーク脇),36.2058123,139.6587655,
埼玉県,加須市,49-6,小野袋1785-3,仕出沼交差点東側用水路敷,36.2092515,139.6578138,
埼玉県,加須市,49-7,小野袋1753-1,民家南側駐車場,36.2106171,139.6611505,
埼玉県,加須市,50-1,小野袋960-5,民家前ブロック塀,36.2062844,139.6628108,
埼玉県,加須市,50-2,小野袋652,小野袋ゲートボール場,36.2044176,139.6687439,
埼玉県,加須市,50-3,柏戸720-3,民家南側畑,36.1990275,139.6738247,
埼玉県,加須市,50-4,柏戸2144,服部工業所前ブロック塀,36.1911753,139.6709265,
埼玉県,加須市,50-5,柏戸2037地先,北川辺体育館前フェンス,36.191583,139.6730125,
埼玉県,加須市,50-6,柏戸271,民家前ブロック塀,36.1974323,139.6819813,
埼玉県,加須市,51-1,向古河685-1,民家北側畑,36.1937916,139.6870703,
埼玉県,加須市,51-2,向古河2549,東小学校南門フェンス,36.185622,139.6887722,
埼玉県,加須市,51-3,向古河2602,印出自動車(有)西ブロック塀,36.1837858,139.68461,
埼玉県,加須市,51-4,向古河2391,masked,36.1816223,139.6855764,
埼玉県,加須市,51-5,伊賀袋75,浅間神社境内,36.1776896,139.6831055,
埼玉県,加須市,51-6,向古河2278-1,民家前(市有地),36.1822556,139.6810232,
埼玉県,加須市,51-7,向古河2025-1,市立北川辺幼稚園西フェンス,36.1864151,139.6724072,
埼玉県,加須市,52-1,駒場421,民家裏ブロック塀,36.1785416,139.6785684,
埼玉県,加須市,52-2,駒場464,あやめ苑前フェンス,36.1774302,139.6795498,
埼玉県,加須市,52-3,駒場423-15地先,民家前フェンス,36.1756255,139.6783627,
埼玉県,加須市,52-4,栄58,万无里苑(元小林魚園前)ブロック塀,36.171958,139.682519,
埼玉県,加須市,52-5,本郷779-1,電気工事店前ブロック塀,36.1644866,139.6870595,
埼玉県,加須市,52-6,栄309,たばこ店前ブロック塀,36.1729334,139.6737502,
埼玉県,加須市,53-1,柳生354-1,加須消防北川辺分署前,36.1919977,139.6590886,
埼玉県,加須市,53-2,麦倉1481-1,北川辺総合支所前,36.1906032,139.6619785,
埼玉県,加須市,53-3,柳生66-1,国保診療所入口,36.190444,139.6680696,
埼玉県,加須市,53-4,栄2438-3,消防第17分団器具置場東側畑,36.1844076,139.6666045,
埼玉県,加須市,53-5,栄2544,萩原鉄工所北ブロック塀,36.1831435,139.6682391,
埼玉県,加須市,53-6,栄1527-1,土地改良区第二揚水機場前フェンス,36.1789204,139.6668184,
埼玉県,加須市,53-7,栄2260-1,南部浄水場跡地フェンス,36.1782905,139.6619735,
埼玉県,加須市,54-1,陽光台1丁目600-56地先,新古河駅西口フェンス,36.1924754,139.6866635,
埼玉県,加須市,54-2,陽光台1丁目843-56地先,新古河薬局前フェンス,36.1906698,139.6853334,
埼玉県,加須市,54-3,陽光台1丁目600-54地先,ウム・ヴェルト新古河事務所前公園,36.1923747,139.6850756,
埼玉県,加須市,54-4,陽光台2丁目843-153地先,民家東水路フェンス,36.1915774,139.6833834,
埼玉県,加須市,54-5,陽光台1丁目600-191地先,民家前水路フェンス,36.1906408,139.6826751,
埼玉県,加須市,55-1,旗井775,大利根東小学校正門脇フェンス,36.1527664,139.6849631,
埼玉県,加須市,55-2,新川通194,民家西農地,36.158054,139.6687581,
埼玉県,加須市,55-3,旗井1127-2,民家東側道路,36.15109,139.6840654,
埼玉県,加須市,55-4,中渡47,民家北側植込み,36.1546865,139.6881054,
埼玉県,加須市,55-5,新川通153-1,子供広場北側,36.1606923,139.669678,
埼玉県,加須市,55-6,外記新田14,鷲神社南側ブロック塀,36.1527653,139.6744157,
埼玉県,加須市,56-1,旗井一丁目43-3,民家ブロック塀,36.1413925,139.6908963,
埼玉県,加須市,56-2,旗井118-1,東ヶ丘集会所前フェンス,36.1451036,139.696936,
埼玉県,加須市,56-3,旗井155-1,香林寺池風の子公園西側,36.1444765,139.6946668,
埼玉県,加須市,56-4,旗井1715,セブンイレブン(旧井澤スタンド)東側(植樹帯),36.1394718,139.6868775,
埼玉県,加須市,56-5,旗井313-1,どんぐり公園西側,36.1411673,139.6869511,
埼玉県,加須市,56-6,旗井556-2,旗井神社東側フェンス,36.1457898,139.6916759,
埼玉県,加須市,56-7,旗井1450-1,大利根子育て支援センター「ぴっぴ」フェンス,36.1462508,139.6837414,
埼玉県,加須市,57-1,細間712,原道コミュニティセンター脇フェンス,36.1584467,139.6527264,
埼玉県,加須市,57-2,細間1070-2地先,民家北側水路敷,36.1546805,139.6606632,
埼玉県,加須市,57-3,道目266-3,島田商店南側,36.1486724,139.6460318,
埼玉県,加須市,57-4,道目455,民家北側水路,36.1523369,139.6481956,
埼玉県,加須市,57-5,砂原694,旧青木商店前,36.1579558,139.6628931,
埼玉県,加須市,57-6,砂原447,十軒農民センター北側,36.1540166,139.6662567,
埼玉県,加須市,57-7,細間560付近,斉藤製作所西側水路脇ガードレール,36.159702,139.6481647,
埼玉県,加須市,58-1,弥兵衛292-1,民家北東フェンス,36.1673645,139.6494109,
埼玉県,加須市,58-2,砂原1072-2,砂原中集会所西フェンス,36.1638466,139.6486784,
埼玉県,加須市,58-3,砂原2083-4,masked,36.1681641,139.6395588,
埼玉県,加須市,58-4,弥兵衛476-1地先,弥兵衛集会所北側,36.1711013,139.6502026,
埼玉県,加須市,58-5,佐波258-1,童謡のふる里おおとね道の駅第2駐車場南側道路脇,36.1696875,139.6445887,
埼玉県,加須市,58-6,砂原1402-2,砂原下集会所駐車場入口(ガードレール付近),36.1624869,139.6444758,
埼玉県,加須市,59-1,北下新井521-1,元和小学校正門脇フェンス,36.1407354,139.6701238,
埼玉県,加須市,59-2,琴寄581-1,加須市童謡のふる里大利根図書第2駐車場道路沿い,36.1324804,139.6741596,
埼玉県,加須市,59-3,北下新井一丁目4,たなばた公園東側,36.1383109,139.684731,
埼玉県,加須市,59-4,琴寄229-9,善定寺近くの防災無線スピーカー付近,36.1272151,139.6820197,
埼玉県,加須市,59-5,琴寄903,運動公園駐車場入口,36.1355578,139.6672015,
埼玉県,加須市,59-6,琴寄466-3,転作促進研究施設脇(植樹帯),36.1292984,139.6722427,
埼玉県,加須市,59-7,琴寄2295,民家前ガードレール付近,36.14566,139.6765345,
埼玉県,加須市,60-1,北平野366-1,稲荷神社内,36.1430034,139.6524856,
埼玉県,加須市,60-2,北下新井1635,工務店前,36.1423614,139.6608661,
埼玉県,加須市,60-3,北下新井1679-1,大利根総合支所正門前,36.1412208,139.6640498,
埼玉県,加須市,60-4,北下新井1705-1,大利根中学校東側フェンス,36.1389479,139.6653255,
埼玉県,加須市,60-5,北平野199,蓮花院裏フェンス,36.1441335,139.6554795,
埼玉県,加須市,61-1,阿佐間769,ファミリーグラウンド脇フェンス,36.1314597,139.655505,
埼玉県,加須市,61-2,間口664-1付近,間口中央交差点南東歩道脇フェンス,36.1243702,139.667846,
埼玉県,加須市,61-3,杓子木202-1,民家前ガードレール付近,36.1386343,139.6477461,
埼玉県,加須市,61-4,阿佐間1408-1,第3浄水場西側フェンス(電柱の間),36.1383381,139.6629405,
埼玉県,加須市,61-5,豊野台1丁目640-16,寺前児童公園北側フェンス,36.131837,139.6527305,
埼玉県,加須市,61-6,豊野台1丁目345-1,星子沼公園北側道路沿い植込みの中,36.1300102,139.6544227,
埼玉県,加須市,61-7,生出313-1,豊野小学校南東フェンス,36.1329727,139.6525252,
埼玉県,加須市,62-1,北大桑516-11,加須スケートパーク駐車場東側フェンス,36.1243743,139.6517815,
埼玉県,加須市,62-2,北大桑933-1,真中畳工業南 旧国道125号沿,36.1240866,139.6439607,
埼玉県,加須市,62-3,北大桑805,香取神社東側フェンス,36.1230489,139.6463492,
埼玉県,加須市,62-4,間口8-1,北大桑・新井新田地区農業集落排水処理施設前フェンス,36.1228546,139.6576147,
埼玉県,加須市,62-5,北大桑1319地先,民家南方道路敷,36.1311402,139.6419104,
埼玉県,加須市,62-6,新井新田234,商店東植樹帯,36.1178576,139.6627918,
