prefecture,city,number,address,name,lat,long,note
埼玉県,北本市,1-1,中丸10丁目419番地1,中丸公民館入口左側,36.02814,139.55353,
埼玉県,北本市,1-2,中丸10丁目55番地,北本市健康増進センター北側入口右側,36.03101,139.55271,
埼玉県,北本市,1-3,山中2丁目128番地,東中学校正門左側,36.03381,139.54843,
埼玉県,北本市,1-4,中丸9丁目25番地,中丸スポーツ広場正門入口左側,36.02622,139.55238,
埼玉県,北本市,1-5,中丸8丁目123番地,カインズ北本店北西側植栽,36.02058,139.55505,
埼玉県,北本市,1-6,北中丸2丁目117番地,鈴木商店南東40m先向側畑地,36.0338,139.55327,
埼玉県,北本市,2-1,朝日1丁目72番地3,ウチダ自動車南西140m先畑地,36.03958,139.55242,
埼玉県,北本市,2-2,朝日2丁目238番地1,ワコーレ・シャトルバス発着所ロータリー内西側,36.04,139.55783,
埼玉県,北本市,2-3,朝日2丁目238番地1,ワコーレA棟南側植栽,36.04013,139.55708,
埼玉県,北本市,2-4,朝日2丁目238番地1,ワコーレA棟北西側植栽(入口左側),36.04097,139.55608,
埼玉県,北本市,2-5,朝日2丁目389番地,ワコーレE棟南向側植栽(水路左岸),36.03895,139.55692,
埼玉県,北本市,2-6,朝日2丁目157番地,白山神社県道312号線側,36.03743,139.55615,
埼玉県,北本市,3-1,宮内7丁目145番地1,中丸小学校正門右側,36.03621,139.54406,
埼玉県,北本市,3-2,宮内6丁目277番地3,宮内スポーツ広場南東側(洗車場北東側),36.03896,139.54491,
埼玉県,北本市,3-3,宮内4丁目136番地,宮内氷川神社南側(参道入口右側),36.04348,139.53916,
埼玉県,北本市,3-4,宮内4丁目345番地,民具収蔵庫(旧学校給食センター)南側,36.04621,139.54213,
埼玉県,北本市,3-5,宮内7丁目147番地,北本リサイクル事業協同組合入口右側,36.03548,139.54523,
埼玉県,北本市,3-6,宮内5丁目115番地2,宮内5丁目公園県道311号線側,36.04116,139.53867,
埼玉県,北本市,3-7,古市場1丁目169番地,北本総合公園正門左側植栽(体育センター入口向側),36.04418,139.54983,
埼玉県,北本市,4-1,深井4丁目45番地1,北小学校正門右側,36.04703,139.52949,
埼玉県,北本市,4-2,深井8丁目226番地1,深井田代バス停北西100m先十字路南側畑地東側,36.04747,139.53425,
埼玉県,北本市,4-3,深井3丁目3番地4,深井3丁目公園,36.04834,139.52272,
埼玉県,北本市,4-4,深井2丁目102番地5,深井2丁目公園南側,36.04577,139.5258,
埼玉県,北本市,4-5,深井3丁目137番地1,仕出し弁当ポパイ食向側畑地,36.04687,139.52628,
埼玉県,北本市,4-6,深井7丁目228番地,桜国屋駐車場北側入口右側,36.05212,139.52934,
埼玉県,北本市,4-7,深井4丁目155番地1,北部公民館南側入口右側,36.04366,139.53386,
埼玉県,北本市,5-1,宮内3丁目12番地1,岡田ハイツ西側畑地,36.04183,139.53277,
埼玉県,北本市,5-2,東間8丁目59番地1,美容室すくすく南東50m先右側駐車場,36.04497,139.53036,
埼玉県,北本市,5-3,宮内1丁目354番地,島田燃料店東向側路肩,36.03676,139.53627,
埼玉県,北本市,5-4,東間8丁目168番地,旧あづまストアー交差点東側花壇北側,36.04283,139.53053,
埼玉県,北本市,5-5,東間8丁目229番地1,東間公園北側,36.04388,139.53198,
埼玉県,北本市,5-6,宮内3丁目167番地2,宮内緑地公園東側,36.04069,139.53515,
埼玉県,北本市,5-7,東間8丁目230番地79,東間ニュータウン公園北西側,36.04262,139.5324,
埼玉県,北本市,6-1,東間5丁目90番地1,サンマンション北本管理棟北向側,36.04202,139.52722,
埼玉県,北本市,6-2,東間6丁目67番地2,東間6丁目わくわく公園東側,36.04274,139.52853,
埼玉県,北本市,6-3,東間4丁目23番地8,斉藤自動車板金塗装南西100m先右側ごみ集積所奥,36.03884,139.53207,
埼玉県,北本市,6-4,東間5丁目90番地3,サンマンション東間公園南東側,36.04045,139.52767,
埼玉県,北本市,6-5,東間2丁目226番地,岩崎畳店北西50m先左側空地東側,36.03857,139.53413,
埼玉県,北本市,6-6,東間1丁目6番地,浅間神社旧中山道側駐車場北側,36.03655,139.53238,
埼玉県,北本市,6-7,東間2丁目62番地6,柳井マンション西側,36.03451,139.53375,
埼玉県,北本市,7-1,本宿1丁目10番地1,解脱会御霊地東側(スズキ販売北側),36.02991,139.5369,
埼玉県,北本市,7-2,本宿7丁目66番地,本宿7丁目公園北西側,36.02676,139.54152,
埼玉県,北本市,7-3,北本3丁目87番地先,加藤建設工業東南100m先右側,36.03527,139.5373,
埼玉県,北本市,7-4,本宿4丁目213番地,国道17号北本四丁目交差点南西130m先南側フェンス,36.03338,139.54172,
埼玉県,北本市,7-5,北本2丁目31番地,北本2丁目公園北東側,36.03264,139.53681,
埼玉県,北本市,7-6,本宿2丁目83番地2,西松屋北東50m先駐車場北側,36.02953,139.53943,
埼玉県,北本市,7-7,本宿8丁目77番地1,石戸踏切東側駐車場南東側,36.02411,139.54017,
埼玉県,北本市,7-8,北本1丁目44番地,北本駅東口駅前ロータリー内(川越観光北本駅東口バス停向側),36.03181,139.53433,
埼玉県,北本市,8-1,中丸6丁目82番地,中丸公園東側(東小学校正門右側),36.02085,139.55174,
埼玉県,北本市,8-2,中丸6丁目215番地1,みんなの家・北本中丸南東側,36.01832,139.55298,
埼玉県,北本市,8-3,中丸7丁目28番地3,ホテルD100m南西先右側空地(三角地),36.01637,139.55234,
埼玉県,北本市,8-4,中丸4丁目51番地1,中丸緑地公園東側,36.02569,139.54898,
埼玉県,北本市,8-5,中丸3丁目92番地,中丸氷川神社東側,36.02704,139.54552,
埼玉県,北本市,8-6,中丸4丁目118番地2,グループホーム愛の家北本西側,36.02393,139.5489,
埼玉県,北本市,8-7,中丸2丁目321番地,中丸2丁目遊園地北側,36.02474,139.54585,
埼玉県,北本市,9-1,二ッ家1丁目47番地,北本二ツ家郵便局北西40m先西側遊水池前,36.01868,139.54669,
埼玉県,北本市,9-2,中丸5丁目696番地,やじりはら公園南側,36.02245,139.54871,
埼玉県,北本市,9-3,二ッ家4丁目156番地2,100えんハウスレモン南側,36.0098,139.55514,
埼玉県,北本市,9-4,二ッ家2丁目221番地,三井団地公園北西側,36.01729,139.55165,
埼玉県,北本市,9-5,二ッ家1丁目322番地,県営二ツ家団地2号棟西向側植栽(ハイデンス立体駐車場裏),36.01502,139.54925,
埼玉県,北本市,9-6,二ッ家4丁目10番地7,二ツ家4丁目バス停右脇,36.01233,139.55161,
埼玉県,北本市,9-7,中丸1丁目7番地3,県営中丸団地1号棟西向側(北本中央緑地),36.02003,139.54331,
埼玉県,北本市,10-1,二ッ家1丁目383番地3,二ツ家1丁目公園北側(マリオン北本側),36.01296,139.54904,
埼玉県,北本市,10-2,大字下石戸下471番地42,南団地遊水池北側(五味工務店前),36.01476,139.5439,
埼玉県,北本市,10-3,二ッ家1丁目323番地,下石戸公園西側,36.01424,139.54796,
埼玉県,北本市,10-4,下石戸6丁目184番地,南団地中央公園南西側,36.01323,139.54405,
埼玉県,北本市,10-5,下石戸6丁目211番地,南団地東三角公園南側,36.01207,139.54597,
埼玉県,北本市,10-6,下石戸6丁目47番地,南団地西公園西側,36.01269,139.54284,
埼玉県,北本市,10-7,下石戸5丁目117番地,東原団地公園北側,36.01764,139.54468,
埼玉県,北本市,11-1,緑3丁目387番地,南小学校正門左側,36.02093,139.5382,
埼玉県,北本市,11-2,緑4丁目198番地,佐久間鉄工斜向かい(旧教育センター敷地南側),36.01908,139.54071,
埼玉県,北本市,11-3,大字下石戸下568番地1,石戸浄水場南100m先東側畑地西側,36.01524,139.53891,
埼玉県,北本市,11-4,大字下石戸下538番地4,久保土地区画整理事務所南東側,36.01384,139.54003,
埼玉県,北本市,11-5,緑3丁目26番地,ゲオ北本店駐車場南西側,36.02331,139.53633,
埼玉県,北本市,11-6,大字下石戸下597番地,久保まんまる公園南入口左側,36.01606,139.54204,
埼玉県,北本市,11-7,下石戸1丁目252番地,セブンイレブン北本緑1丁目店南280m先東側林(社入口北側),36.02076,139.5352,
埼玉県,北本市,12-1,本町1丁目111番地,北本市役所南側夜間通用口前植栽,36.02662,139.5305,
埼玉県,北本市,12-2,本町3丁目179番地,高松ビル向側植栽,36.02703,139.5329,
埼玉県,北本市,12-3,本町3丁目52番地,旧中央保育所南側,36.02333,139.53177,
埼玉県,北本市,12-4,本町4丁目232番地,ストリートフレイバー北東側(みなみ第2幼稚園西向側),36.02122,139.52902,
埼玉県,北本市,12-5,緑1丁目163番地1,解脱会第2駐車場東側入口左側,36.02481,139.53533,
埼玉県,北本市,12-6,緑2丁目3番地,解脱会宝物館駐車場南西側,36.02685,139.53465,
埼玉県,北本市,12-7,本町1丁目1番地,北本中学校正門右側,36.02914,139.52944,
埼玉県,北本市,13-1,西高尾1丁目228番地4,市役所入口バス停(北側)脇植栽,36.02964,139.52935,
埼玉県,北本市,13-2,中央2丁目22番地1,解脱会第5駐車場北西側,36.02883,139.53083,
埼玉県,北本市,13-3,西高尾1丁目131番地,西高尾1丁目三角公園北側,36.03211,139.52936,
埼玉県,北本市,13-4,西高尾1丁目160番地2,西高尾1丁目公園(西高尾バス停脇),36.03145,139.52826,
埼玉県,北本市,13-5,中央2丁目50番地3,サンロード向側植栽,36.03043,139.53119,
埼玉県,北本市,13-6,中央2丁目158番地3,駅西口多目的広場(B区画ロータリー側),36.03123,139.53306,
埼玉県,北本市,13-7,西高尾3丁目103番地1,デイサービスなごやか北本東側,36.03106,139.52674,
埼玉県,北本市,13-8,本町1丁目1番地,北本中学校部室裏,36.02774,139.52835,
埼玉県,北本市,14-1,西高尾8丁目71番地2,西高尾郵便局前バス停(南側)脇,36.03061,139.5205,
埼玉県,北本市,14-2,西高尾7丁目136番地,西高尾7丁目集会所西側,36.03182,139.51984,
埼玉県,北本市,14-3,本町8丁目39番地2,本町8丁目公園西側(真福寺入口バス停脇),36.02353,139.52693,
埼玉県,北本市,14-4,西高尾4丁目208番地4,ながしま洋品店西側向側植栽,36.02897,139.52734,
埼玉県,北本市,14-5,西高尾4丁目213番地,アキュール東側水路脇,36.02828,139.52283,
埼玉県,北本市,14-6,西高尾4丁目198番地3,グリーンハイム西側駐車場前植栽,36.02823,139.52584,
埼玉県,北本市,14-7,本町7丁目14番地,西小学校正門北側斜向い,36.02692,139.52423,
埼玉県,北本市,15-1,高尾1丁目755番地,総合福祉センター南側植栽,36.0263,139.51932,
埼玉県,北本市,15-2,高尾2丁目111番地,高尾2丁目交差点南東畑地北側,36.02768,139.51339,
埼玉県,北本市,15-3,高尾5丁目156番地,民謡教室志之路会向側畑地,36.03131,139.51181,
埼玉県,北本市,15-4,高尾6丁目331番地,高尾さくら公園駐車場東側,36.02467,139.50861,
埼玉県,北本市,15-5,高尾9丁目454番地,野外活動センター入口右側,36.02201,139.50857,
埼玉県,北本市,15-6,石戸2丁目97番地,岡村塗装工業裏北側向畑地,36.02361,139.51888,
埼玉県,北本市,15-7,荒井1丁目122番地,荒井上手公会堂北側栗畑東側,36.02105,139.51713,
埼玉県,北本市,16-1,荒井3丁目92番地,荒井公園北側,36.01779,139.51598,
埼玉県,北本市,16-2,石戸8丁目83番地,原公会堂南西側畑地,36.01622,139.52436,
埼玉県,北本市,16-3,荒井1丁目338番地1,荒井交差点北西側植栽,36.01981,139.5162,
埼玉県,北本市,16-4,荒井3丁目176番地1,メディカルセンター入口交差点南東側畑地,36.01657,139.51727,
埼玉県,北本市,16-5,石戸宿1丁目138番地,石戸宿1丁目交差点北100m西側畑,36.00971,139.51855,
埼玉県,北本市,16-6,石戸宿3丁目225番地,北本市子供公園入口右側,36.00493,139.51002,
埼玉県,北本市,16-7,石戸宿4丁目34番地47,石戸宿4丁目公園東側,36.00446,139.51175,
埼玉県,北本市,16-8,石戸4丁目173番地,チサン第3中央公園南側,36.02151,139.52132,
埼玉県,北本市,17-1,栄7番地,公団1街区23号棟Big-A北本団地店西側,36.01602,139.53238,
埼玉県,北本市,17-2,栄7番地,公団商店街東側公園西側入口右側,36.01614,139.53327,
埼玉県,北本市,17-3,栄7番地,公団2街区23号棟北東向側(水路右岸),36.01538,139.53506,
埼玉県,北本市,17-4,栄7番地,公団4街区4号棟南西側,36.01716,139.53656,
埼玉県,北本市,17-5,栄7番地,公団3街区4号棟北側,36.01697,139.53314,
埼玉県,北本市,17-6,栄7番地,公団1街区3号棟東側(水路右岸),36.01821,139.53044,
埼玉県,北本市,17-7,栄13番地,学習センター建物入口右側,36.0136,139.53311,
