prefecture,city,number,address,name,lat,long,note
埼玉県,春日部市,1-1,粕壁東3丁目2番,春日部市教育センター東側植込み,35.9787831,139.7597773,
埼玉県,春日部市,1-2,粕壁東2丁目16番,八幡神社東側(県道側)金網,35.9826708,139.7623328,
埼玉県,春日部市,1-3,粕壁東2丁目8番,市民文化会館・市立図書館北側駐車場フェンス,35.982143,139.760117,緯度経度は怪しい
埼玉県,春日部市,1-4,粕壁東3丁目2番19号,粕壁小学校南東側フェンス,35.9791096,139.7591874,
埼玉県,春日部市,1-5,粕壁東1丁目15番29号,エクレール春日部III前鉄道柵,35.9786666,139.7568225,
埼玉県,春日部市,1-6,粕壁東1丁目8番,まちなみ公園,35.980531,139.756183,
埼玉県,春日部市,1-7,粕壁1丁目1番,春日部駅東口ロータリー,35.9806053,139.7534687,
埼玉県,春日部市,1-8,粕壁1丁目4番26号地先,歯科医院前 古利根川沿い植込み,35.98249089999999,139.7549816,
埼玉県,春日部市,2-1,粕壁東4丁目1番18号,八坂神社前ガードレール,35.9797157,139.7629618,
埼玉県,春日部市,2-2,粕壁東4丁目6番22号,民家前ガードパイプ,35.9818351,139.7659509,
埼玉県,春日部市,2-3,粕壁東6丁目14番,粕壁東第4公園東側生垣南寄り,35.9772131,139.767604,
埼玉県,春日部市,2-4,緑町2丁目10番地3,川久保公園駐車場入口北側植込み,35.9786647,139.7720567,
埼玉県,春日部市,2-5,粕壁東6丁目1番1号,春日部女子高校体育館前金網,35.9794156,139.7660366,
埼玉県,春日部市,2-6,粕壁東6丁目12番,春日部女子高校南側金網,35.978357,139.767604,
埼玉県,春日部市,2-7,緑町2丁目9番5号,民家塀,35.9777383,139.7700835,
埼玉県,春日部市,2-8,粕壁東6丁目6番,粕壁ポンプ場西側柵,35.9813868,139.77016,
埼玉県,春日部市,3-1,緑町3丁目1番55号,ヤナギ管材(株)東側柵の北寄り,35.9739449,139.7663525,
埼玉県,春日部市,3-2,緑町3丁目8番24号,民家北側ブロック塀,35.9757592,139.7717177,
埼玉県,春日部市,3-3,緑町4丁目13番,市営住宅西側生垣前,35.972214,139.772842,緯度経度は怪しい
埼玉県,春日部市,3-4,緑町5丁目4番,緑小学校正門横柵,35.9697812,139.7722367,
埼玉県,春日部市,3-5,緑町4丁目13番,市営住宅北側道路フェンス,35.972214,139.772842,緯度経度は怪しい
埼玉県,春日部市,3-6,緑町5丁目9番,緑中学校正門左側金網,35.9662495,139.7712782,
埼玉県,春日部市,3-7,緑町3丁目3番17号,ハーモニー春日部入口左側生垣,35.9742708,139.7687524,
埼玉県,春日部市,4-1,緑町6丁目2番,元新宿ふれあい広場フェンス,35.9702498,139.7666456,
埼玉県,春日部市,4-2,緑町6丁目6番7号,整体施術院西側鉄道柵,35.9684911,139.7650818,
埼玉県,春日部市,4-3,緑町1丁目7番4,桐箱製作所柵,35.9729229,139.7661073,
埼玉県,春日部市,4-4,南4丁目10番,南4丁目ちびっこ広場入口左側金網,35.967579,139.763,緯度経度は怪しい
埼玉県,春日部市,4-5,南4丁目6番3号,民家前鉄道柵,35.9688597,139.7644238,
埼玉県,春日部市,4-6,南3丁目18番22号,ひかり第2幼稚園ユリノキ通り側入口右フェンス下,35.970823,139.7628479,
埼玉県,春日部市,4-7,南3丁目18番,ユリノキ・大池通り交差点東側緑地帯,35.9706021,139.7636107,
埼玉県,春日部市,5-1,大沼4丁目110番地,西部第六区画整理記念館前道路フェンス,35.96756,139.758087,緯度経度は怪しい
埼玉県,春日部市,5-2,大沼5丁目44番地,上沖小学校東側正門右フェンス,35.965897,139.756927,緯度経度は怪しい
埼玉県,春日部市,5-3,大沼5丁目146番地,大沼第五公園北側フェンス,35.964764,139.756195,緯度経度は怪しい
埼玉県,春日部市,5-4,一ノ割4丁目3番3号,民家東側ブロック塀,35.9632327,139.7620604,
埼玉県,春日部市,5-5,大沼6丁目92番地,大沼第六公園西側入口右フェンス,35.963863,139.75264,緯度経度は怪しい
埼玉県,春日部市,5-6,大沼3丁目71番地,大沼第三公園北側入口左フェンス,35.967461,139.752441,緯度経度は怪しい
埼玉県,春日部市,5-7,大沼4丁目39番地,大沼第四公園北側入口生垣,35.96851,139.757446,緯度経度は怪しい
埼玉県,春日部市,5-8,南5丁目8番地,大池親水公園大池通り側植込み,35.965778,139.761414,緯度経度は怪しい
埼玉県,春日部市,6-1,南1丁目9番,酒店前内谷陸橋下東武鉄道金網,35.975781,139.755641,
埼玉県,春日部市,6-2,南1丁目20番,春日部コミュニティセンター駐車場南側ガードレール,35.9761018,139.7605759,
埼玉県,春日部市,6-3,南3丁目11番24号,県営春日部南団地1号棟南側道路フェンス,35.9723152,139.7604092,
埼玉県,春日部市,6-4,南1丁目12番23号,粕壁南公民館駐輪場植込み,35.9756235,139.7588851,
埼玉県,春日部市,6-5,南1丁目11番47号,南1丁目第一公園北東側生垣,35.9760839,139.7574938,
埼玉県,春日部市,6-6,南2丁目2番,南二丁目ちびっこ広場入口左側金網,35.9734366,139.7578606,
埼玉県,春日部市,6-7,南2丁目4番地30号,JA南彩春日部支店駐車場敷地北側フェンス,35.9720137,139.7583368,
埼玉県,春日部市,7-1,中央1丁目42番,春日部駅西口公衆トイレ前植込み,35.979084,139.752899,緯度経度は怪しい
埼玉県,春日部市,7-2,中央6丁目2番,春日部市役所前入口右側道路フェンス,35.97533,139.752075,緯度経度は怪しい
埼玉県,春日部市,7-3,中央7丁目2番地1,春日部市役所 北入口西側水路フェンス,35.9739836,139.7548294,
埼玉県,春日部市,7-4,中央7丁目5番,中央町第二公園西側生垣,35.972584,139.755463,緯度経度は怪しい
埼玉県,春日部市,7-5,中央8丁目6番,中央町第三公園南側水路金網,35.969776,139.754364,緯度経度は怪しい
埼玉県,春日部市,7-6,谷原3丁目3番,谷原第四公園北西側生垣,35.971279,139.749573,緯度経度は怪しい
埼玉県,春日部市,7-7,中央6丁目2番,旧春日部市役所立体駐車場北西側生垣,35.97533,139.752075,緯度経度は怪しい
埼玉県,春日部市,8-1,粕壁3丁目8番1号,第9保育所,35.983498,139.7510824,
埼玉県,春日部市,8-2,梅田1丁目81番地1,ヤマサ(∧サ)倉庫春日部久喜線側金網,35.987164,139.747772,緯度経度は怪しい
埼玉県,春日部市,8-3,粕壁5912番地,浜川戸公園南側植込み,35.9832,139.745255,緯度経度は怪しい
埼玉県,春日部市,8-4,粕壁1丁目8番,写真館隣 神明神社入口右側,35.9812204,139.7525104,
埼玉県,春日部市,8-5,粕壁4丁目4番15号,春日部中学校正門左側植込み,35.9844348,139.7484882,
埼玉県,春日部市,8-6,梅田本町1丁目1番1号,春日部工業高校グラウンド脇県道側ネットフェンス,35.990024,139.7459271,
埼玉県,春日部市,8-7,梅田本町1丁目13番,東武鉄道春日部グラウンド県道側フェンス,35.9935129,139.7438074,
埼玉県,春日部市,8-8,粕壁6033番地2,古隅田川沿い遊歩道ベンチ前フェンス,35.985107,139.744644,緯度経度は怪しい
埼玉県,春日部市,9-1,栄町3丁目165番地,谷中公園東側水路金網,35.991402,139.734634,緯度経度は怪しい
埼玉県,春日部市,9-2,栄町1丁目397番地1,深町第二公園武里・内牧線側生垣,35.986797,139.738007,緯度経度は怪しい
埼玉県,春日部市,9-3,梅田3丁目156番地,七曲公園東側フェンス,35.986553,139.73877,緯度経度は怪しい
埼玉県,春日部市,9-4,南栄町6番,南栄町中央児童公園入口左手柵,35.981236,139.73407,緯度経度は怪しい
埼玉県,春日部市,9-5,梅田本町2丁目,北春日部駅西口ロータリー内正面,35.992405,139.742493,緯度経度は怪しい
埼玉県,春日部市,9-6,栄町2丁目212番地,内牧栄町会館,35.987911,139.732849,緯度経度は怪しい
埼玉県,春日部市,9-7,栄町2丁目127番地,塚内公園東側入口右手(石垣上の垣根),35.986851,139.731583,緯度経度は怪しい
埼玉県,春日部市,9-8,栄町1丁目230番地,深町公園北側入口左側柵,35.985855,139.735641,緯度経度は怪しい
埼玉県,春日部市,10-1,浜川戸1丁目20番3,北部浄水場北側フェンス,35.982619,139.7422945,
埼玉県,春日部市,10-2,粕壁6823番地,第3保育所入口フェンス,35.978874,139.744995,緯度経度は怪しい
埼玉県,春日部市,10-3,粕壁6918番地1,粕壁市民センター北側,35.9772522,139.7429409,
埼玉県,春日部市,10-4,粕壁6946番地1,八木崎駅北側植込み,35.978798,139.743149,緯度経度は怪しい
埼玉県,春日部市,10-5,粕壁5539番地,春日部高校正門横柵,35.979725,139.740814,緯度経度は怪しい
埼玉県,春日部市,10-6,八木崎町5番,浜川戸第二公園北側生垣,35.9779905,139.7393366,
埼玉県,春日部市,10-7,浜川戸2丁目9番,西部第三土地区画整理記念館フェンス,35.981506,139.738647,緯度経度は怪しい
埼玉県,春日部市,11-1,中央1丁目5番,中央町第四公園トイレ裏生垣,35.9780476,139.7499553,
埼玉県,春日部市,11-2,中央2丁目13番,中央町第七公園(市役所通り沿い)フェンス,35.977135,139.747574,緯度経度は怪しい
埼玉県,春日部市,11-3,中央4丁目1番,八木崎小学校正門右側金網,35.974739,139.746429,緯度経度は怪しい
埼玉県,春日部市,11-4,中央4丁目1番,八木崎小学校南側角金網,35.974739,139.746429,緯度経度は怪しい
埼玉県,春日部市,11-5,谷原1丁目3番,谷原第一公園東側フェンス,35.972313,139.745682,緯度経度は怪しい
埼玉県,春日部市,11-6,中央3丁目10番7号,足利銀行春日部支店前道路フェンス,35.9741054,139.743849,
埼玉県,春日部市,11-7,中央3丁目7番,中央町第五公園北西側生垣,35.975914,139.743561,緯度経度は怪しい
埼玉県,春日部市,11-8,中央2丁目24番,総合福祉センター駐車場南側植込み,35.9769484,139.7458034,
埼玉県,春日部市,12-1,谷原2丁目10番,谷原第三公園生垣,35.969845,139.745728,緯度経度は怪しい
埼玉県,春日部市,12-2,大沼1丁目76番地,春日部地方庁舎北側フェンス(耐震貯水槽付近・ユリノキ通り側),35.967915,139.746521,緯度経度は怪しい
埼玉県,春日部市,12-3,大沼7丁目12番地,大沼運動公園東側水路フェンス北寄り,35.964336,139.748398,緯度経度は怪しい
埼玉県,春日部市,12-4,一ノ割1731番地,西部浄水場入口右側塀,35.962448,139.751343,緯度経度は怪しい
埼玉県,春日部市,12-5,大沼7丁目12番地,市民体育館正門右側金網,35.964336,139.748398,緯度経度は怪しい
埼玉県,春日部市,12-6,大沼1丁目79番地,大沼第二公園南側防災倉庫前生垣,35.967327,139.746796,緯度経度は怪しい
埼玉県,春日部市,12-7,谷原2丁目12番1号,上谷原区画整理記念館入口左側金網,35.9691043,139.7452037,
埼玉県,春日部市,13-1,豊町1丁目11番,新方袋第二公園東側金網,35.9721187,139.7387778,
埼玉県,春日部市,13-2,豊町1丁目6番,新方袋第三公園隣遊水地金網,35.9719824,139.7402148,
埼玉県,春日部市,13-3,豊町2丁目12番,豊町第二公園南側生垣,35.96891,139.741745,緯度経度は怪しい
埼玉県,春日部市,13-4,豊町1丁目2番2号,新方袋集会所北側道路フェンス,35.974045,139.7391022,
埼玉県,春日部市,13-5,豊町5丁目14番1号,豊春第二公民館入口フェンス,35.9687647,139.7362111,
埼玉県,春日部市,13-6,豊町5丁目12番,豊町第四公園北東側フェンス,35.96931319999999,139.7383786,
埼玉県,春日部市,13-7,南中曽根800番地15,民家隣広場北側金網,35.972023,139.733841,緯度経度は怪しい
埼玉県,春日部市,14-1,南中曽根1074番地,立野小学校体育館前柵,35.965565,139.738953,緯度経度は怪しい
埼玉県,春日部市,14-2,谷原新田2097番地1,春日部市消防本部北側植込み,35.9646318,139.7446856,
埼玉県,春日部市,14-3,豊町4丁目4番,豊町第三公園北側フェンス,35.967098,139.739212,緯度経度は怪しい
埼玉県,春日部市,14-4,増富455番地9,豊春第二十五公園,35.9620293,139.7345359,
埼玉県,春日部市,14-5,豊町6丁目12番地,南中曽根第五公園脇スポーツ広場西側金網,35.966145,139.738007,緯度経度は怪しい
埼玉県,春日部市,14-6,豊町6丁目26番,豊春第八公園,35.9651788,139.7357443,
埼玉県,春日部市,14-7,豊町6丁目7番,豊春第九公園,35.9669088,139.735425,
埼玉県,春日部市,15-1,上大増新田140番地,大増中学校正門横金網,35.961781,139.741165,緯度経度は怪しい
埼玉県,春日部市,15-2,上大増新田140番地,大増中学校南側金網,35.961781,139.741165,緯度経度は怪しい
埼玉県,春日部市,15-3,谷原新田1818番地2,民家前交差点付近フェンス,35.9578121,139.7464096,
埼玉県,春日部市,15-4,下大増新田61番地,春日部高等技術専門校前道路フェンス,35.957439,139.74324,緯度経度は怪しい
埼玉県,春日部市,15-5,上大増新田170番地3,豊春地区集会所西側金網,35.9612119,139.737922,
埼玉県,春日部市,15-6,増富243番地,豊春第十八公園フェンス,35.9595061,139.7332776,
埼玉県,春日部市,15-7,増富158番地,豊春第七公園生垣,35.958092,139.731079,緯度経度は怪しい
埼玉県,春日部市,16-1,南中曽根416番地,南中曽根第七公園垣根,35.969486,139.731583,緯度経度は怪しい
埼玉県,春日部市,16-2,道順川戸37番地,豊春小学校裏門横生垣植込み,35.967724,139.731674,緯度経度は怪しい
埼玉県,春日部市,16-3,道順川戸37番地,豊春小学校正門横生垣,35.967724,139.731674,緯度経度は怪しい
埼玉県,春日部市,16-4,増富605番地,増富遊水池南東側金網,35.964302,139.7312481,
埼玉県,春日部市,16-5,上蛭田700番地33,民家向かい豊春第一公園柵,35.96524850000001,139.7308374,
埼玉県,春日部市,16-6,上蛭田178番地,豊春駅東口植込み,35.9664577,139.725607,
埼玉県,春日部市,16-7,上蛭田405番地8,民家南側塀,35.967992,139.7281922,
埼玉県,春日部市,17-1,上蛭田85番地6,豊春市民センター前遊水池金網,35.9661128,139.7239895,
埼玉県,春日部市,17-2,上蛭田567番地,民家前畑フェンス,35.966862,139.725647,緯度経度は怪しい
埼玉県,春日部市,17-3,上蛭田573番地3,民家前畑県道沿い金網,35.9661126,139.7271046,
埼玉県,春日部市,17-4,上蛭田82番地,第8保育所南西側フェンス,35.965916,139.725266,緯度経度は怪しい
埼玉県,春日部市,17-5,下蛭田344番地,豊春第二公園,35.961529,139.725296,緯度経度は怪しい
埼玉県,春日部市,17-6,下蛭田202番地3,下蛭田集会所防災倉庫左側,35.96273,139.721649,緯度経度は怪しい
埼玉県,春日部市,17-7,増戸604番地2,民家前道路フェンス,35.9571296,139.7250776,
埼玉県,春日部市,17-8,増富59番地,増富自治会館柵,35.962616,139.729065,緯度経度は怪しい
埼玉県,春日部市,18-1,上蛭田179番地24,日立住宅内遊水池広場金網,35.9702099,139.7254399,
埼玉県,春日部市,18-2,上蛭田151番地23,マルヤ駐車場横植込み,35.9690006,139.7248728,
埼玉県,春日部市,18-3,道口蛭田169番地6,カーアーク豊春(駐車場)道路フェンス,35.9675568,139.7232702,
埼玉県,春日部市,18-4,道口蛭田136番地1,ルネ春日部内第1遊水池広場金網,35.9669195,139.7222001,
埼玉県,春日部市,18-5,道口蛭田215番地,豊春第十公園南側金網,35.967171,139.722244,緯度経度は怪しい
埼玉県,春日部市,18-6,花積152番地7,民家南側道路フェンス,35.9643592,139.7184716,
埼玉県,春日部市,18-7,花積506番地2,民家前ガードパイプ,35.9647292,139.7140688,
埼玉県,春日部市,19-1,新方袋99番地,民家北側道路待避所付近,35.978989,139.727097,緯度経度は怪しい
埼玉県,春日部市,19-2,南中曽根757番地,清秀幼稚園正門横ブロック塀,35.974159,139.732315,緯度経度は怪しい
埼玉県,春日部市,19-3,新方袋1090番地,宮川小学校裏門横柵,35.976849,139.725739,緯度経度は怪しい
埼玉県,春日部市,19-4,南中曽根107番地,豊春中学校正門横フェンス,35.973061,139.727524,緯度経度は怪しい
埼玉県,春日部市,19-5,南中曽根262番地134,川面公園入口東側フェンス,35.9753504,139.724751,
埼玉県,春日部市,19-6,南中曽根262番地42,古隅田公園やじま橋南植込み,35.973679,139.7253848,
埼玉県,春日部市,19-7,南中曽根149番地1,豊春中学校南西側フェンス,35.973421,139.7261258,
埼玉県,春日部市,20-1,内牧4401番地2,民家宅西側塀,35.9947258,139.7272575,
埼玉県,春日部市,20-2,内牧2415番地2,内牧小学校正門横生垣,35.993668,139.726868,緯度経度は怪しい
埼玉県,春日部市,20-3,内牧5033番地,四方谷第一公園ぐるぐるパーク南側植込み,35.993908,139.732986,緯度経度は怪しい
埼玉県,春日部市,20-4,内牧1914番地,民家前畑,35.988586,139.728271,緯度経度は怪しい
埼玉県,春日部市,20-5,内牧1498番地,内牧南公民館金網,35.983913,139.727936,緯度経度は怪しい
埼玉県,春日部市,20-6,内牧4185番地先,共栄大学前バス停脇道路フェンス,35.994305,139.723633,緯度経度は怪しい
埼玉県,春日部市,20-7,内牧3137番地1,特別養護老人ホーム彩光苑前民家植木場,35.9947895,139.7180136,
埼玉県,春日部市,21-1,小渕905番地1,小渕小学校正門左側柵,35.998417,139.749329,緯度経度は怪しい
埼玉県,春日部市,21-2,小渕1043番地3先,小渕小学校南側フェンス,35.9972704,139.7489487,
埼玉県,春日部市,21-3,小渕317番地,さいたま春日部市場西側金網(入口左手),35.994946,139.756561,緯度経度は怪しい
埼玉県,春日部市,21-4,小渕493番地,小渕団地10号棟県道側金網,35.9954997,139.7547995,
埼玉県,春日部市,21-5,小渕2060番地2,桃園幼稚園西側金網,35.993568,139.746658,緯度経度は怪しい
埼玉県,春日部市,21-6,小渕932番地5,米久「かがやき」西側柵,35.99165,139.748245,緯度経度は怪しい
埼玉県,春日部市,21-7,小渕2159番地,高齢者福祉センター「幸楽荘」西側道路フェンス,35.998085,139.74559,緯度経度は怪しい
埼玉県,春日部市,22-1,小渕875番地1,小渕放置自転車集積所西側フェンス,35.9903967,139.7524555,
埼玉県,春日部市,22-2,八丁目539番地,民家西側石塀,35.988266,139.755539,緯度経度は怪しい
埼玉県,春日部市,22-3,八丁目520番地1先,八丁目(中)交差点南側フェンス(スシロー前),35.9874024,139.7570875,
埼玉県,春日部市,22-4,八丁目59番地9先,民家前古利根川堤防植込み,35.984558,139.754166,緯度経度は怪しい
埼玉県,春日部市,22-5,小渕733番地1先,民家前古利根川フェンス,35.9889579,139.7499353,
埼玉県,春日部市,22-6,八丁目21番地先,助産院前古利根川フェンス,35.985283,139.752625,緯度経度は怪しい
埼玉県,春日部市,22-7,小渕718番地先,民家前古利根川柵,35.98856,139.750397,緯度経度は怪しい
埼玉県,春日部市,23-1,不動院野1484番地38,大栄住宅内遊水池広場入口右側金網,35.9963781,139.7705841,
埼玉県,春日部市,23-2,八丁目776番地,春日部特別支援学校前道路フェンス,35.989128,139.760696,緯度経度は怪しい
埼玉県,春日部市,23-3,八丁目353番地1,幸松小学校正門横柵,35.9857297,139.7604549,
埼玉県,春日部市,23-4,八丁目195番地,民家塀,35.984325,139.761459,緯度経度は怪しい
埼玉県,春日部市,23-5,八丁目127番地1,民家塀,35.9837382,139.7574467,
埼玉県,春日部市,23-6,小渕73番地1,幸松第二公民館前道路フェンス,35.9888594,139.7566653,
埼玉県,春日部市,23-7,小渕137番地4,春日部サンハイツ2号棟南側植込み,35.991737,139.757553,緯度経度は怪しい
埼玉県,春日部市,23-8,不動院野364番地,東不動院野集会場向い空き地,36.000137,139.767059,緯度経度は怪しい
埼玉県,春日部市,24-1,樋籠586番地,「介護老人保健施設ウイステリア」植込み,35.989143,139.775421,緯度経度は怪しい
埼玉県,春日部市,24-2,樋籠475番地,天神神社前,35.988091,139.771362,緯度経度は怪しい
埼玉県,春日部市,24-3,牛島336番地先,水防倉庫敷地前道路フェンス,35.9845914,139.7696933,
埼玉県,春日部市,24-4,樋堀181番地1,東中学校正門横ふじ墓苑塀,35.9833655,139.7667255,
埼玉県,春日部市,24-5,樋籠79番地1,民家塀,35.9871677,139.7642806,
埼玉県,春日部市,24-6,樋籠234番地,東部浄水場金網,35.988312,139.767349,緯度経度は怪しい
埼玉県,春日部市,24-7,樋籠363番地,春日部東高校東側塀,35.989075,139.769119,緯度経度は怪しい
埼玉県,春日部市,25-1,牛島736番地,牛島幼稚園柵,35.986874,139.774582,緯度経度は怪しい
埼玉県,春日部市,25-2,牛島1276番地,第6保育所金網,35.984089,139.778549,緯度経度は怪しい
埼玉県,春日部市,25-3,牛島1576番地,藤の牛島駅北側,35.9804,139.778168,緯度経度は怪しい
埼玉県,春日部市,25-4,牛島1577番地1先,魚元南側牛島月極駐車場柵,35.979986,139.777804,
埼玉県,春日部市,25-5,牛島60番地,民家前,35.982742,139.773849,緯度経度は怪しい
埼玉県,春日部市,25-6,牛島1613番地,牛島人道橋東側道路フェンス,35.979855,139.77359,緯度経度は怪しい
埼玉県,春日部市,25-7,牛島813番地,宝光院塀,35.984524,139.7742,緯度経度は怪しい
埼玉県,春日部市,26-1,藤塚1520番地211,民家前遊水池西側金網,35.9772769,139.7802851,
埼玉県,春日部市,26-2,藤塚2290番地,民家北側塀,35.9733374,139.7805449,
埼玉県,春日部市,26-3,藤塚1203番地,民家東側空き地ユリノキ通り沿い黄土色柵,35.973167,139.777679,緯度経度は怪しい
埼玉県,春日部市,26-4,本田町2丁目288番地付近,藤塚新田公園生垣,35.969807,139.775116,緯度経度は怪しい
埼玉県,春日部市,26-5,本田町2丁目319番地先,水辺の園しおり西側古利根川堤防,35.96909,139.774261,緯度経度は怪しい
埼玉県,春日部市,26-6,藤塚1452番地,藤塚三本木公園南側(民家宅北側)植込み,35.975601,139.774994,緯度経度は怪しい
埼玉県,春日部市,26-7,藤塚1670番地1,藤塚公民館駐車場西側金網,35.975349,139.779404,緯度経度は怪しい
埼玉県,春日部市,26-8,藤塚2009番地,藤塚野口公園西側水路金網,35.976421,139.781387,緯度経度は怪しい
埼玉県,春日部市,27-1,本田町2丁目140番地,藤塚第三公園東側生垣,35.968193,139.776291,緯度経度は怪しい
埼玉県,春日部市,27-2,本田町1丁目160番地,藤塚第二公園北側生垣,35.967579,139.778564,緯度経度は怪しい
埼玉県,春日部市,27-3,藤塚412番地,民家宅北側ブロック塀,35.965126,139.776733,緯度経度は怪しい
埼玉県,春日部市,27-4,本田町2丁目227番地,本田町区画整理記念館西側フェンス,35.966087,139.776489,緯度経度は怪しい
埼玉県,春日部市,27-5,藤塚428番地1,第5保育所西側金網,35.9644965,139.7748328,
埼玉県,春日部市,27-6,藤塚448番地35,藤塚第七公園北側金網,35.962917,139.776016,緯度経度は怪しい
埼玉県,春日部市,27-7,藤塚82番地2,藤塚小学校北側金網,35.962428,139.7818223,
埼玉県,春日部市,28-1,六軒町332番地,アパート「サニークレスト」西側道路フェンス,35.972336,139.782471,緯度経度は怪しい
埼玉県,春日部市,28-2,六軒町272番地1,民家前道路フェンス,35.965733,139.784927,緯度経度は怪しい
埼玉県,春日部市,28-3,六軒町433番地,藤塚第四公園西側フェンス,35.969563,139.783707,緯度経度は怪しい
埼玉県,春日部市,28-4,藤塚2171番地312,藤塚第五公園水路金網,35.9699676,139.7815032,緯度経度は怪しい
埼玉県,春日部市,28-5,藤塚2697番地1,六軒町区画整理記念館前道路フェンス,35.9670961,139.7842794,
埼玉県,春日部市,28-6,六軒町145番地,藤塚第一公園北側金網,35.966267,139.782394,緯度経度は怪しい
埼玉県,春日部市,28-7,藤塚2315番地1,ホーマック春日部店東側金網,35.971081,139.779755,緯度経度は怪しい
埼玉県,春日部市,29-1,豊野町2丁目14番,豊野町第4緑地北側柵(大日本ピーアール前),35.961704,139.790192,緯度経度は怪しい
埼玉県,春日部市,29-2,豊野町2丁目34番,豊野町第一公園北側フェンス,35.958115,139.794479,緯度経度は怪しい
埼玉県,春日部市,29-3,赤沼475番地,薬師沼親水公園内憩いの家北西側植込み,35.953796,139.794189,緯度経度は怪しい
埼玉県,春日部市,29-4,銚子口999番地,豊野市民センター入口右側柵,35.957272,139.789322,緯度経度は怪しい
埼玉県,春日部市,29-5,豊野町1丁目6番,豊野町第三公園西側柵,35.9598107,139.7901318,緯度経度は怪しい
埼玉県,春日部市,29-6,銚子口1150番地,豊野小学校正門横フェンス,35.959644,139.786606,緯度経度は怪しい
埼玉県,春日部市,29-7,銚子口130番地,豊野中学校正門横金網,35.964188,139.785843,緯度経度は怪しい
埼玉県,春日部市,30-1,赤沼1313番地,赤沼新町集会所東側フェンス,35.953323,139.802505,緯度経度は怪しい
埼玉県,春日部市,30-2,赤沼1736番地,ハイビック株式会社正門向かいガードレール,35.950966,139.799576,緯度経度は怪しい
埼玉県,春日部市,30-3,赤沼1332番地,民家ブロック塀,35.952229,139.802734,緯度経度は怪しい
埼玉県,春日部市,30-4,赤沼770番地,赤沼香取神社北側ブロック塀,35.950546,139.801743,緯度経度は怪しい
埼玉県,春日部市,30-5,赤沼770番地,赤沼香取神社西側ブロック塀,35.950546,139.801743,緯度経度は怪しい
埼玉県,春日部市,30-6,赤沼217番地,民家南側ブロック塀,35.949398,139.797287,緯度経度は怪しい
埼玉県,春日部市,30-7,赤沼704番地2,株式会社筒屋県道側塀,35.9524957,139.8004336,
埼玉県,春日部市,31-1,大枝933番地,民家西側ブロック塀,35.9423857,139.7798692,
埼玉県,春日部市,31-2,大枝1031番地,大枝ふれあい広場フェンス,35.940857,139.782074,緯度経度は怪しい
埼玉県,春日部市,31-3,大枝895番地4,民家北側ブロック塀,35.939293,139.778854,緯度経度は怪しい
埼玉県,春日部市,31-4,大枝826番地,メゾン千間台I西側会之堀川フェンス,35.939751,139.777664,緯度経度は怪しい
埼玉県,春日部市,31-5,大枝898番地5,民家塀,35.9404231,139.7789322,
埼玉県,春日部市,31-6,大枝863番地,池の端集会所フェンス,35.941216,139.778397,緯度経度は怪しい
埼玉県,春日部市,31-7,大枝800番地,大枝橋南側会之堀川フェンス,35.941204,139.777206,緯度経度は怪しい
埼玉県,春日部市,32-1,大枝743番地2,大枝薬師堂会館前芝生部分,35.9435321,139.7752372,
埼玉県,春日部市,32-2,大枝486番地,大枝公園北西側,35.942101,139.77536,緯度経度は怪しい
埼玉県,春日部市,32-3,大枝685番地,武里ゴルフセンター駐車場向かい,35.942005,139.773636,緯度経度は怪しい
埼玉県,春日部市,32-4,大枝742番地2,民家西側水路柵,35.943535,139.774963,緯度経度は怪しい
埼玉県,春日部市,32-5,大枝360番地,武里第十公園東側金網,35.9389563,139.7749936,
埼玉県,春日部市,32-6,大枝372番地先,大枝人道橋横金網,35.938721,139.775116,緯度経度は怪しい
埼玉県,春日部市,32-7,大枝330番地1,「スーパーマルサン武里店」駐車場角南側金網,35.9403942,139.7736006,
埼玉県,春日部市,33-1,大畑457番地1,大畑会館北東側 道路予定地,35.944496,139.772293,緯度経度は怪しい
埼玉県,春日部市,33-2,大畑177番地2,民家南東側畑 4号沿いブロックフェンス,35.9463655,139.7750524,
埼玉県,春日部市,33-3,大畑214番地5先,民家前県道沿い空き地,35.9459458,139.7741837,
埼玉県,春日部市,33-4,大畑201番地,月極大畑駐車場付近道路フェンス,35.946941,139.773132,緯度経度は怪しい
埼玉県,春日部市,33-5,大場450番地,武里駅東口駐車場金網,35.950001,139.769974,緯度経度は怪しい
埼玉県,春日部市,33-6,大畑16番地6,武里第十四公園,35.949404,139.7738187,
埼玉県,春日部市,33-7,大場1218番地1先,武里橋南東側会之堀川フェンス,35.9506702,139.7710004,
埼玉県,春日部市,34-1,備後東4丁目12番16号,民家南側塀,35.9555833,139.7769287,
埼玉県,春日部市,34-2,備後東3丁目23番12号,ニューハイツタテノ駐車場南側柵,35.9558806,139.7741644,
埼玉県,春日部市,34-3,備後東6丁目2番1号,正善小学校北側フェンス,35.9523884,139.7736995,
埼玉県,春日部市,34-4,備後東6丁目2番1号,正善小学校体育館側東側フェンス,35.9523884,139.7736995,
埼玉県,春日部市,34-5,備後東6丁目13番1号,民家北側ブロック塀,35.9494401,139.7753073,
埼玉県,春日部市,34-6,備後東6丁目16番5号,南部浄水場北側金網,35.9506851,139.7718853,
埼玉県,春日部市,34-7,備後東6丁目2番1号,正善小学校南側フェンス,35.9523884,139.7736995,
埼玉県,春日部市,35-1,備後東3丁目1番,美容室向いガードレール,35.9580331,139.7711185,
埼玉県,春日部市,35-2,備後東8丁目635の2,備後第二公園西側柵,35.954468,139.770279,緯度経度は怪しい
埼玉県,春日部市,35-3,備後東7丁目38番,武里東公民館西側フェンス,35.953008,139.7723166,
埼玉県,春日部市,35-4,備後東8丁目24番,備後第一公園南側柵,35.955143,139.771545,緯度経度は怪しい
埼玉県,春日部市,35-5,備後東8丁目30番11号,民家向かい東武鉄道金網,35.9541975,139.7693401,
埼玉県,春日部市,35-6,備後東8丁目11番12号,「のびのび保育恵夢」向かい東武鉄道金網,35.9557723,139.7688396,
埼玉県,春日部市,35-7,備後東8丁目1番,理容室向い鉄道金網,35.9569017,139.7684826,
埼玉県,春日部市,36-1,備後東1丁目23番21号,民家北側金網,35.9622691,139.7680873,
埼玉県,春日部市,36-2,備後東1丁目27番17号,備後香取神社西側金網,35.9625554,139.7685107,
埼玉県,春日部市,36-3,備後東1丁目27番17号,備後香取神社入口横柵,35.9625554,139.7685107,
埼玉県,春日部市,36-4,備後東1丁目13番,備後宮田ちびっこ広場防球ネット,35.9621752,139.7702598,
埼玉県,春日部市,36-5,備後東1丁目21番49号,民家西側有料駐車場ガードレール,35.9611841,139.768862,
埼玉県,春日部市,36-6,備後東2丁目2番,備後宮田第2ちびっこ広場東武鉄道側ガードレール,35.9593228,139.7679235,
埼玉県,春日部市,36-7,備後東1丁目22番32号,春日部内科クリニック向かい東武鉄道柵,35.9610073,139.7673114,
埼玉県,春日部市,37-1,緑町6丁目12番地1,民家南側畑フェンス,35.96640319999999,139.7663261,
埼玉県,春日部市,37-2,緑町6丁目13番地22号,第5小暮荘前鉄道柵,35.96572510000001,139.766119,
埼玉県,春日部市,37-3,南4丁目21番1号,居酒屋やすらぎ前鉄道金網,35.9659479,139.7653,
埼玉県,春日部市,37-4,一ノ割1丁目30番17号,円福寺一ノ割会館前石塀,35.9627609,139.7637473,
埼玉県,春日部市,37-5,一ノ割1丁目29番39号,リビングショップ「エリザー」南側畑,35.9615532,139.7627667,
埼玉県,春日部市,37-6,一ノ割1丁目11番,一ノ割駅舎西側鉄道敷金網,35.9638187,139.7657671,
埼玉県,春日部市,37-7,南4丁目23番地,米店向かい駐車場フェンス,35.9649898,139.762812,
埼玉県,春日部市,38-1,備後西5丁目6番11号,武里小学校西側フェンス,35.9546894,139.7615142,
埼玉県,春日部市,38-2,備後西1丁目13番1号,第4保育所西側金網,35.9585913,139.7654878,
埼玉県,春日部市,38-3,備後西1丁目13番2号,武里市民センター前植込み,35.95886040000001,139.7660461,
埼玉県,春日部市,38-4,備後西1丁目13番2号,武里市民センター南側グラウンド脇生垣,35.95886040000001,139.7660461,
埼玉県,春日部市,38-5,備後西1丁目6番13号,民家前東武鉄道柵,35.9575176,139.7678553,
埼玉県,春日部市,38-6,備後西5丁目5番2号,武里小学校東側柵,35.9554391,139.7627671,
埼玉県,春日部市,38-7,一ノ割2丁目9番14号,セジュール大和柵,35.9578955,139.7631473,
埼玉県,春日部市,39-1,備後西2丁目4番28号,備後角英団地第2遊水池広場南側金網,35.9560525,139.7672296,
埼玉県,春日部市,39-2,備後西2丁目2番16号,「ぼっか」(飲食店)前東武鉄道柵,35.9552432,139.7683594,
埼玉県,春日部市,39-3,備後西3丁目2番1号,備後小学校東側鉄道柵,35.9545278,139.7686645,
埼玉県,春日部市,39-4,備後西3丁目2番1号,備後小学校正門横水路金網,35.9545278,139.7686645,
埼玉県,春日部市,39-5,備後西2丁目28番,備後西ちびっ子広場北側,35.956074,139.766434,緯度経度は怪しい
埼玉県,春日部市,39-6,備後西3丁目6番1号,民家西側ブロック塀,35.9518354,139.7659383,
埼玉県,春日部市,39-7,備後西4丁目3番,備後須賀第2ちびっこ広場南西側フェンス,35.9535607,139.7656872,
埼玉県,春日部市,40-1,一ノ割3丁目7番1号,NTT武里ビル 入口左側フェンス,35.9573451,139.7620036,
埼玉県,春日部市,40-2,一ノ割3丁目4番22号,民家西側ブロック塀,35.95889349999999,139.7613912,
埼玉県,春日部市,40-3,一ノ割947番地2,一ノ割公園東側フェンス,35.9588317,139.7590236,
埼玉県,春日部市,40-4,武里中野51番地,宝性院東側ブロック塀,35.9529955,139.7610772,
埼玉県,春日部市,40-5,武里中野89番地1,中野運動公園南側金網,35.955578,139.760223,緯度経度は怪しい
埼玉県,春日部市,40-6,薄谷128番地5,AZUMA設計前道路フェンス,35.9546994,139.7558456,
埼玉県,春日部市,40-7,薄谷3番地,武里中学校北門横水路金網,35.956242,139.758087,緯度経度は怪しい
埼玉県,春日部市,41-1,武里中野746番地,春日部南中学校西側水路金網,35.950554,139.758377,緯度経度は怪しい
埼玉県,春日部市,41-2,武里中野746番地,春日部南中学校正門横柵,35.950554,139.758377,緯度経度は怪しい
埼玉県,春日部市,41-3,武里中野字南317番地2,畑向かい水路金網,35.951744,139.757828,緯度経度は怪しい
埼玉県,春日部市,41-4,大場1699番地2,民家西側水路柵,35.944916,139.761612,緯度経度は怪しい
埼玉県,春日部市,41-5,武里中野640番地29,民家前道路フェンス,35.9483703,139.7558802,
埼玉県,春日部市,41-6,増田新田391番地59,みどり第二公園,35.94796,139.752838,緯度経度は怪しい
埼玉県,春日部市,41-7,増田新田391番地49,みどり第一公園東側フェンス,35.94796,139.752838,緯度経度は怪しい
埼玉県,春日部市,42-1,大場153番地先,民家東側水路金網,35.949272,139.7621,緯度経度は怪しい
埼玉県,春日部市,42-2,大場776番地1,民家宅南側石塀,35.950305,139.7646225,
埼玉県,春日部市,42-3,大場1277番地1,ドラッグストアセキ武里店県道側フェンス,35.94971719999999,139.7673842,
埼玉県,春日部市,42-4,大場1096番地,武里駅西口ロータリー,35.9489521,139.7703811,
埼玉県,春日部市,42-5,大場822番地,武里西小学校東側フェンス,35.946949,139.76413,緯度経度は怪しい
埼玉県,春日部市,42-6,大場822番地,武里西小学校体育館側柵,35.946949,139.76413,緯度経度は怪しい
埼玉県,春日部市,42-7,大場1522番地1,民家東側水路金網,35.94791,139.762466,緯度経度は怪しい
埼玉県,春日部市,43-1,大枝89番地 武里団地,武里南小学校北側体育館門右側植込み,35.938126,139.77063,緯度経度は怪しい
埼玉県,春日部市,43-2,大枝89番地 武里団地,武里南小学校正門左側フェンス,35.938126,139.77063,緯度経度は怪しい
埼玉県,春日部市,43-3,大枝89番地 武里団地,1街区 4棟跡地東側鉄道向かい生垣,35.938126,139.77063,緯度経度は怪しい
埼玉県,春日部市,43-4,大枝89番地 武里団地,1街区12棟西側生垣,35.938126,139.77063,緯度経度は怪しい
埼玉県,春日部市,43-5,大枝89番地 武里団地,1街区30棟西側けやき通り沿い,35.938126,139.77063,緯度経度は怪しい
埼玉県,春日部市,43-6,大枝89番地 武里団地,1街区34棟東側,35.938126,139.77063,緯度経度は怪しい
埼玉県,春日部市,43-7,大畑292番地,内科隣駐車場フェンス,35.947762,139.770645,緯度経度は怪しい
埼玉県,春日部市,44-1,大枝89番地 武里団地,武里大枝市民センター前植込み,35.938126,139.77063,緯度経度は怪しい
埼玉県,春日部市,44-2,大枝89番地 武里団地,武里南小学校グラウンド南東側敷地(東武伊勢崎線沿い道路脇),35.938126,139.77063,緯度経度は怪しい
埼玉県,春日部市,44-3,大枝89番地 武里団地,4街区12棟西側けやき通り沿い,35.938126,139.77063,緯度経度は怪しい
埼玉県,春日部市,44-4,大枝89番地 武里団地,3街区16棟東側生垣,35.938126,139.77063,緯度経度は怪しい
埼玉県,春日部市,44-5,大枝89番地 武里団地,3街区27棟東側生垣,35.938126,139.77063,緯度経度は怪しい
埼玉県,春日部市,44-6,大枝89番地 武里団地,4街区 5棟東側植込み,35.938126,139.77063,緯度経度は怪しい
埼玉県,春日部市,44-7,大枝89番地 武里団地,4街区 1棟けやき通り沿い,35.938126,139.77063,緯度経度は怪しい
埼玉県,春日部市,45-1,大枝89番地 武里団地,5街区15棟東側生垣,35.938126,139.77063,緯度経度は怪しい
埼玉県,春日部市,45-2,大枝232番地 武里団地,5街区17棟西側金網,35.939655,139.771957,緯度経度は怪しい
埼玉県,春日部市,45-3,大枝89番地 武里団地,5街区 7棟東側武里住宅管理組合向かい植込み,35.938126,139.77063,緯度経度は怪しい
埼玉県,春日部市,45-4,大枝89番地 武里団地,6街区14棟東側植込み,35.938126,139.77063,緯度経度は怪しい
埼玉県,春日部市,45-5,大枝89番地 武里団地,6街区11棟東側植込み,35.938126,139.77063,緯度経度は怪しい
埼玉県,春日部市,45-6,大枝89番地 武里団地,5街区 9棟南側公園生垣,35.938126,139.77063,緯度経度は怪しい
埼玉県,春日部市,45-7,大枝89番地 武里団地,5街区12棟東側生垣,35.938126,139.77063,緯度経度は怪しい
埼玉県,春日部市,46-1,大枝89番地 武里団地,ゆっく武里駐車場北側生垣,35.938126,139.77063,緯度経度は怪しい
埼玉県,春日部市,46-2,大枝89番地 武里団地,こはる薬局西側空き地,35.938126,139.77063,緯度経度は怪しい
埼玉県,春日部市,46-3,大枝89番地 武里団地,近隣公園(武里南地区公民館前),35.938126,139.77063,緯度経度は怪しい
埼玉県,春日部市,46-4,大枝89番地 武里団地,8街区14棟西側,35.938126,139.77063,緯度経度は怪しい
埼玉県,春日部市,46-5,大場656番地1,谷中小記念館南側フェンス,35.944195,139.76358,緯度経度は怪しい
埼玉県,春日部市,46-6,大枝89番地 武里団地,8街区 1棟東側けやき通り沿い,35.938126,139.77063,緯度経度は怪しい
埼玉県,春日部市,46-7,大場128番地,かすかべ環境防災研究センター正門横道路フェンス,35.945225,139.757904,緯度経度は怪しい
埼玉県,春日部市,47-1,大枝89番地 武里団地,6街区 6棟西側サウススポーツパーク東中央,35.938126,139.77063,緯度経度は怪しい
埼玉県,春日部市,47-2,大枝89番地 武里団地,6街区 5棟東側けやき通り沿い,35.938126,139.77063,緯度経度は怪しい
埼玉県,春日部市,47-3,大枝89番地 武里団地,認定こども園ふたば南側柵,35.938126,139.77063,緯度経度は怪しい
埼玉県,春日部市,47-4,大枝89番地 武里団地,6街区16棟北側公園柵,35.938126,139.77063,緯度経度は怪しい
埼玉県,春日部市,47-5,大枝89番地 武里団地,6街区21棟南側水路金網,35.938126,139.77063,緯度経度は怪しい
埼玉県,春日部市,47-6,千間1丁目111番地,大畑人道橋左側道路フェンス,35.937046,139.767319,緯度経度は怪しい
埼玉県,春日部市,47-7,千間1丁目99番地,武里第六公園西側フェンス,35.936516,139.766983,緯度経度は怪しい
埼玉県,春日部市,48-1,米島756番地,川辺小学校正門脇金網,35.974323,139.810593,緯度経度は怪しい
埼玉県,春日部市,48-2,米島756番地,川辺小学校南側フェンス,35.974323,139.810593,緯度経度は怪しい
埼玉県,春日部市,48-3,米島358番地253,米島ニュータウン第2遊水池西側金網,35.9757761,139.8091965,
埼玉県,春日部市,48-4,米島358番地222,外谷津第二公園南側生垣,35.976192,139.807343,緯度経度は怪しい
埼玉県,春日部市,48-5,米島358番地269,民家前植込み,35.976192,139.807343,緯度経度は怪しい
埼玉県,春日部市,48-6,米島358番地279,庄和幼稚園駐車場南側柵,35.976192,139.807343,緯度経度は怪しい
埼玉県,春日部市,48-7,東中野1220番地,中野ふれあい公園入口金網,35.972416,139.815674,緯度経度は怪しい
埼玉県,春日部市,49-1,米島962番地100,殖産自治会館南側フェンス,35.9789934,139.8132389,
埼玉県,春日部市,49-2,新宿新田324番地8,マカロニほうれん荘前東武鉄道柵,35.9807412,139.8118162,
埼玉県,春日部市,49-3,米島962番地138,第6分団車庫前植込み,35.9795112,139.8117581,
埼玉県,春日部市,49-4,米島847番地10,三栄団地内遊水池南側フェンス(民家東側),35.97773,139.814926,緯度経度は怪しい
埼玉県,春日部市,49-5,米島961番地1,サイクルショップ東側ブロック塀,35.9789849,139.8160884,
埼玉県,春日部市,49-6,米島968番地2,埼玉みずほ農協庄和東支店入口横花壇,35.9786756,139.815106,
埼玉県,春日部市,49-7,米島1153番地3,民家東側ブロック塀,35.977494,139.8098165,
埼玉県,春日部市,50-1,米島962番地22,新生公園西側フェンス,35.9795519,139.8150613,
埼玉県,春日部市,50-2,新宿新田327番地318,動物病院前東武鉄道柵,35.9809059,139.8138471,
埼玉県,春日部市,50-3,新宿新田324番地1,旧ヨーク・マート南桜井店前東武鉄道柵,35.98132,139.8115298,
埼玉県,春日部市,50-4,新宿新田274番地9,民家東側東武鉄道柵,35.9809604,139.8181872,
埼玉県,春日部市,50-5,新宿新田325番地5,ファッションセンターしまむら前東武鉄道柵,35.9814274,139.8135873,
埼玉県,春日部市,50-6,新宿新田258番地3,こばとグラウンド北側金網,35.982998,139.818314,緯度経度は怪しい
埼玉県,春日部市,50-7,新宿新田327番地382,ヘアーサロンサクタ前東武鉄道柵,35.9807262,139.8176037,
埼玉県,春日部市,51-1,東中野1563番地,新宿新田集会所入口参道東側畑金網,35.976425,139.821899,緯度経度は怪しい
埼玉県,春日部市,51-2,新宿新田222番地,パークアベニュー南桜井遊水池東側金網,35.977562,139.821289,緯度経度は怪しい
埼玉県,春日部市,51-3,新宿新田351番地1,新宿新田調整池金網フェンス,35.9778549,139.8193699,
埼玉県,春日部市,51-4,新宿新田355番地259,民家前歩道植込み,35.9772045,139.8204909,
埼玉県,春日部市,51-5,新宿新田352番地8,市営住宅南側遊水池金網,35.9773082,139.8194893,
埼玉県,春日部市,51-6,新宿新田225番地49,リーベ公園北側フェンス下,35.978046,139.821259,緯度経度は怪しい
埼玉県,春日部市,51-7,新宿新田350番地2,民家東側道沿いブロック塀,35.9787214,139.8193619,
埼玉県,春日部市,52-1,東中野654番地,中野小学校正門右側フェンス,35.972221,139.822968,緯度経度は怪しい
埼玉県,春日部市,52-2,東中野1515番地,民家ブロック塀,35.973492,139.819061,緯度経度は怪しい
埼玉県,春日部市,52-3,東中野1522番地1,民家北側道沿いブロック塀,35.974919,139.8193477,
埼玉県,春日部市,52-4,新宿新田109番地,旧シンザカヤ向い側江戸川堤防,35.971054,139.825195,緯度経度は怪しい
埼玉県,春日部市,52-5,東中野848番地1,クリーンセンター庄和北側道路フェンス,35.9697607,139.8190251,
埼玉県,春日部市,52-6,東中野45番地,ミニ工業団地内県浄水場排水処理施設フェンス,35.965172,139.823029,緯度経度は怪しい
埼玉県,春日部市,52-7,新宿新田100番地,埼玉県浄水場西側フェンス,35.967857,139.828934,緯度経度は怪しい
埼玉県,春日部市,53-1,飯沼216番地,飯沼中学校正門脇東側フェンス,35.966835,139.809387,緯度経度は怪しい
埼玉県,春日部市,53-2,飯沼80番地2,民家前(県道沿い)水路フェンス,35.9691074,139.8137671,
埼玉県,春日部市,53-3,赤崎250番地,民家前生垣,35.955669,139.805511,緯度経度は怪しい
埼玉県,春日部市,53-4,飯沼307番地,民家裏道路フェンス,35.972012,139.810806,緯度経度は怪しい
埼玉県,春日部市,53-5,赤崎1635番地,民家隣田んぼ沿いフェンス,35.965813,139.804886,緯度経度は怪しい
埼玉県,春日部市,53-6,赤崎467番地2,赤崎集会所向い側民家地内,35.958748,139.803162,緯度経度は怪しい
埼玉県,春日部市,54-1,米崎357番地,庄和南公民館北側道沿い植込み,35.973782,139.804321,緯度経度は怪しい
埼玉県,春日部市,54-2,米島119番地,民家前歩道植込み,35.9761722,139.8032748,
埼玉県,春日部市,54-3,米島233番地,歯科交差点南西側駐車場前歩道植込み,35.976711,139.805862,緯度経度は怪しい
埼玉県,春日部市,54-4,米島261番地191,米島サニータウン団地内遊水池金網,35.9772085,139.8059733,
埼玉県,春日部市,54-5,米島1185番地先,南桜井駅南口ロータリー,35.979847,139.805206,緯度経度は怪しい
埼玉県,春日部市,54-6,米島278番地1,民家北側ブロック塀,35.9796884,139.8054593,
埼玉県,春日部市,54-7,米島69番地2,庄和すずらん幼稚園県道側金網南方に隣接するブロック塀,35.9772181,139.8010385,
埼玉県,春日部市,55-1,永沼2250番地1,葛飾中学校裏門左側,35.9779806,139.7986832,
埼玉県,春日部市,55-2,永沼1819番地1,民家北側ガードレール,35.9723308,139.7935408,
埼玉県,春日部市,55-3,水角1211番地1,コスモ石油ガソリンスタンド北側ガードレール,35.967926,139.795441,緯度経度は怪しい
埼玉県,春日部市,55-4,永沼1157番地1,民家南方向、広域農道沿い三角地帯,35.973392,139.791809,緯度経度は怪しい
埼玉県,春日部市,55-5,永沼634番地2,コンビニ前ガードパイプ,35.9761443,139.7878203,
埼玉県,春日部市,55-6,永沼203番地1,民家西側畑柵,35.974426,139.785736,緯度経度は怪しい
埼玉県,春日部市,55-7,永沼1979番地3,野損橋東側ガードレール,35.9810647,139.7969238,
埼玉県,春日部市,56-1,大衾82番地,民家北側フェンス,35.980453,139.799011,緯度経度は怪しい
埼玉県,春日部市,56-2,大衾277番地60,大衾地区住民コミュニティ広場脇道路フェンス,35.9808538,139.8036565,
埼玉県,春日部市,56-3,大衾196番地12,大衾公園南側フェンス,35.982563,139.8022,緯度経度は怪しい
埼玉県,春日部市,56-4,金崎1040番地1,平松谷橋道路フェンス,35.9865765,139.8027927,
埼玉県,春日部市,56-5,大衾455番地1,庄和浄水場入口右側フェンス,35.9836788,139.8042396,
埼玉県,春日部市,56-6,大衾240番地24,民家前東武鉄道柵,35.9801411,139.8030894,
埼玉県,春日部市,56-7,大衾68番地,民家前東武鉄道柵,35.979919,139.799988,緯度経度は怪しい
埼玉県,春日部市,57-1,大衾496番地1,庄和保健センター入口左側フェンス,35.9846747,139.8072061,
埼玉県,春日部市,57-2,大衾496番地1,桜川小学校正門右側,35.9846747,139.8072061,
埼玉県,春日部市,57-3,大衾496番地216,桜台二区中央公園前歩道植込み,35.983673,139.80542,緯度経度は怪しい
埼玉県,春日部市,57-4,西金野井388番地288,風早第4公園東側フェンス,35.987743,139.805527,緯度経度は怪しい
埼玉県,春日部市,57-5,大衾496番地1,桜川小学校北側フェンス,35.9846747,139.8072061,
埼玉県,春日部市,57-6,大衾600番地2,南桜井団地内みどり公園北側柵,35.982212,139.81102,緯度経度は怪しい
埼玉県,春日部市,57-7,米島1186番地3,南桜井駅北口ロータリー付近東武鉄道柵,35.9804056,139.8087352,
埼玉県,春日部市,58-1,西金野井256番地2,庄和第1保育所正門左側フェンス,35.985989,139.809372,緯度経度は怪しい
埼玉県,春日部市,58-2,西金野井100番地2,県営庄和尾ケ崎団地1号棟西側フェンス,35.9842113,139.8103725,
埼玉県,春日部市,58-3,西金野井69番地15,ガーデンタウン内遊水池北側金網,35.9822222,139.8132067,
埼玉県,春日部市,58-4,西金野井42番地1,県営西金野井団地1号棟東側フェンス,35.9868573,139.8131917,
埼玉県,春日部市,58-5,西金野井1680番地2,犬塚・谷頭わんぱく公園東側フェンス,35.98288,139.820816,緯度経度は怪しい
埼玉県,春日部市,58-6,西金野井1757番地,民家前畑,35.986435,139.818054,緯度経度は怪しい
埼玉県,春日部市,58-7,西金野井1798番地1,民家物置前塀,35.9872938,139.8164921,
埼玉県,春日部市,59-1,西金野井880番地5,西金野井北区集会所東側ガードレール,35.9932699,139.8130551,
埼玉県,春日部市,59-2,西金野井645番地,民家東側香取神社鳥居植込み,35.991177,139.814163,緯度経度は怪しい
埼玉県,春日部市,59-3,西金野井577番地2 73-1,4号街区公園西側フェンス,35.990944,139.81131,緯度経度は怪しい
埼玉県,春日部市,59-4,西金野井1063番地1先,馬場墓地北側空き地 北側道路沿い,35.991177,139.814163,緯度経度は怪しい
埼玉県,春日部市,59-5,西金野井394番地5,NTT庄和電話交換センター 西側フェンス,35.988811,139.807327,緯度経度は怪しい
埼玉県,春日部市,59-6,西金野井596番地6,5号街区公園北側フェンス,35.989452,139.812515,緯度経度は怪しい
埼玉県,春日部市,59-7,西金野井377番地31,東急南桜井団地内遊水池東側フェンス,35.987621,139.804276,緯度経度は怪しい
埼玉県,春日部市,60-1,下柳21番地1,南桜井小入口(民家)沿いブロック塀,35.9924795,139.7951665,
埼玉県,春日部市,60-2,下柳1130番地1,稲荷神社北西方向ガードレール付近,35.9827332,139.7820912,
埼玉県,春日部市,60-3,上柳1720番地先,上柳区駐車場南側道路沿い,35.998093,139.786179,緯度経度は怪しい
埼玉県,春日部市,60-4,下柳371番地,下柳区民センター茶色柵,35.988228,139.791748,緯度経度は怪しい
埼玉県,春日部市,60-5,下柳1554番地1,(有)加藤タイル工業敷地,35.9853017,139.7868759,
埼玉県,春日部市,60-6,金崎839番地1,庄和総合支所入口右側,35.9919647,139.8029364,
埼玉県,春日部市,60-7,金崎52番地3,庄和郵便局前県道北側フェンス,35.9932357,139.7995668,
埼玉県,春日部市,60-8,上柳1022番地,道の駅庄和県道交差点ポケットパーク,35.996937,139.789917,緯度経度は怪しい
埼玉県,春日部市,61-1,神間653番地4,旧富多小学校入口電話ボックス右側植込み,36.011261,139.799225,緯度経度は怪しい
埼玉県,春日部市,61-2,下吉妻1番地1,民家南西側ガードレール,36.011189,139.8069,緯度経度は怪しい
埼玉県,春日部市,61-3,椚567番地2,橋本橋ポンプ小屋南側ガードレール,36.002846,139.805099,緯度経度は怪しい
埼玉県,春日部市,61-4,立野413番地3,(有)飯塚商事倉庫東隣水田県道フェンス,36.009647,139.791092,緯度経度は怪しい
埼玉県,春日部市,61-5,立野1番地1,商店北側県道沿い敷地,36.006908,139.787521,緯度経度は怪しい
埼玉県,春日部市,61-6,立野892番地4,富多橋脇県道フェンス,36.006908,139.787521,緯度経度は怪しい
埼玉県,春日部市,62-1,上吉妻1番地,江戸川小中学校正門脇金網,36.018929,139.805267,緯度経度は怪しい
埼玉県,春日部市,62-2,神間1065番地1,旧庄和北公民館入口脇ガードレール,36.022903,139.800613,緯度経度は怪しい
埼玉県,春日部市,62-3,榎468番地1,(株)さくらフーズ東側フェンス,36.014984,139.78772,緯度経度は怪しい
埼玉県,春日部市,62-4,下吉妻431番地1,民家南東側ガードレール,36.013042,139.809738,緯度経度は怪しい
埼玉県,春日部市,62-5,榎158番地3,民家前ガードレール,36.0105048,139.7847724,
埼玉県,春日部市,62-6,神間352番地1,民家前県道ガードレール,36.01645970000001,139.7977861,
埼玉県,春日部市,62-7,榎943番地2,榎集会所向い道路脇フェンス前,36.014984,139.78772,緯度経度は怪しい
埼玉県,春日部市,63-1,西宝珠花593番地2,大凧文化交流センター正門脇,36.032219,139.809036,緯度経度は怪しい
埼玉県,春日部市,63-2,西宝珠花690番地,西宝珠花集会所南側フェンス,36.031624,139.812439,緯度経度は怪しい
埼玉県,春日部市,63-3,西宝珠花384番地,民家先県道沿いガードレール,36.02972,139.809113,緯度経度は怪しい
埼玉県,春日部市,63-4,上吉妻1230番地1,自動車屋向い側江戸川堤防敷地,36.025562,139.811752,緯度経度は怪しい
埼玉県,春日部市,63-5,西宝珠花70番地,大凧文化保存会上若組事務所北側,36.030251,139.8134,緯度経度は怪しい
埼玉県,春日部市,63-6,西親野井479番地1,親野井神社脇,36.0353289,139.8092511,
埼玉県,春日部市,63-7,塚崎136番地,ポンプ店前道路フェンス,36.030434,139.805222,緯度経度は怪しい
埼玉県,春日部市,64-1,倉常531番地1,商店北側ブロック塀,36.02953,139.786819,緯度経度は怪しい
埼玉県,春日部市,64-2,倉常911番地,倉常会館南側ガードレール,36.022949,139.784317,緯度経度は怪しい
埼玉県,春日部市,64-3,倉常1048番地,電設屋北側県道路肩,36.022949,139.784317,緯度経度は怪しい
埼玉県,春日部市,64-4,倉常1230番地,民家前ガードレール,36.022949,139.784317,緯度経度は怪しい
埼玉県,春日部市,64-5,木崎12番地1,民家前畑県道沿い,36.026985,139.800797,緯度経度は怪しい
埼玉県,春日部市,64-6,木崎142番地,木崎区集会所西側県道路肩,36.031219,139.795959,緯度経度は怪しい
