prefecture,city,number,address,name,lat,long,note
埼玉県,東松山市,1-1,松葉町1丁目1番58号,市役所本庁舎東側植込み,36.042066,139.400508,
埼玉県,東松山市,1-2,松葉町1丁目1番16号,松山第一小学校北側フェンス,36.042893,139.3988738,
埼玉県,東松山市,1-3,本町1丁目3番36号先,上沼公園西側、上沼旅館北,36.043514,139.404439,
埼玉県,東松山市,1-4,本町1丁目4番17号先,上沼公園北東側,36.04428,139.405337,
埼玉県,東松山市,1-5,加美町12番2号,加美町自治会公会堂,36.047162,139.40504,
埼玉県,東松山市,1-6,小松原町6番地,小松原町公園南側,36.04525,139.407856,
埼玉県,東松山市,1-7,小松原町16番地,諏訪公園南側,36.044182,139.410723,
埼玉県,東松山市,2-1,材木町5番12号先,東松山市文書庫南側,36.038618,139.403262,
埼玉県,東松山市,2-2,材木町6番18号先,材木町第一公園西側,36.040807,139.400964,緯度経度は怪しい
埼玉県,東松山市,2-3,材木町1番24号,市役所立体駐車場北側,36.04102,139.404633,緯度経度は怪しい
埼玉県,東松山市,2-4,松葉町1丁目26番,八幡神社付近庚申塔西側,36.041289,139.403311,
埼玉県,東松山市,2-5,材木町1番24号,市役所立体駐車場西側,36.041595,139.401019,緯度経度は怪しい
埼玉県,東松山市,2-6,材木町23番2号先,東松山市商工会駐車場入口,36.0402337,139.3979779,
埼玉県,東松山市,2-7,材木町1番13号,(株)大丸縫製西側,36.0413904,139.4008775,
埼玉県,東松山市,3-1,本町2丁目10番10号先,下沼公園東側,36.03769,139.406111,
埼玉県,東松山市,3-2,箭弓町1丁目19番19号先,東電箭弓変電所北側,36.033877,139.404157,
埼玉県,東松山市,3-3,神明町2丁目5番7号先,しんめい広場北側,36.032853,139.407495,
埼玉県,東松山市,3-4,箭弓町1丁目7番先,箭弓町第一公園東側(税務署前),36.036613,139.403776,
埼玉県,東松山市,3-5,箭弓町1丁目7番先,箭弓町第一公園西側,36.036419,139.40294,
埼玉県,東松山市,3-6,箭弓町1丁目5339番地3,東松山駅東口ロータリー南東側(植え込み),36.034441,139.402366,緯度経度は怪しい
埼玉県,東松山市,3-7,箭弓町1丁目5258番地1,箭弓町広場(ピオパーク)南側(植え込み),36.0368019,139.4014438,緯度経度は怪しい
埼玉県,東松山市,4-1,松本町1丁目542番地4,ポケットパーク北側,36.0406802,139.4072233,緯度経度は怪しい
埼玉県,東松山市,4-2,松本町1丁目4695番地11,松本町一丁目緑地南側,36.037504,139.40907,緯度経度は怪しい
埼玉県,東松山市,4-3,御茶山町7番地3,すぱーく東松山西側,36.035191,139.409362,
埼玉県,東松山市,4-4,六反町4番地,東中学校南側(正門西),36.034782,139.41365,緯度経度は怪しい
埼玉県,東松山市,4-5,六反町12番地,六反町児童公園西側,36.035288,139.415288,緯度経度は怪しい
埼玉県,東松山市,4-6,松本町1丁目9番9号先,松山市民活動センター駐車場北側,36.039064,139.410218,
埼玉県,東松山市,4-7,砂田町7番地,砂田第2公園北側,36.041805,139.413441,緯度経度は怪しい
埼玉県,東松山市,5-1,松葉町2丁目6番11号,松山中学校南側,36.041588,139.397251,
埼玉県,東松山市,5-2,松葉町2丁目6番11号,松山中学校北側,36.042713,139.397128,
埼玉県,東松山市,5-3,松葉町2丁目5番36号,県営滝の本団地北側,36.041358,139.39485,
埼玉県,東松山市,5-4,松葉町2丁目4番56号,東和銀行森林公園出張所西側,36.045023,139.3910879,
埼玉県,東松山市,5-5,松葉町3丁目11番15号,(有)武蔵スバル商会東側フェンス,36.0391614,139.3927649,
埼玉県,東松山市,5-6,松葉町2丁目10番24号,masked,36.043916,139.39562,
埼玉県,東松山市,5-7,松山町2丁目1番17号,masked,36.042046,139.390451,
埼玉県,東松山市,6-1,松山町1丁目6番10号,松山高等学校南側(正門西),36.044635,139.396682,
埼玉県,東松山市,6-2,松山町3丁目5番53号先,市ノ川公会堂北側,36.047924,139.392956,
埼玉県,東松山市,6-3,松山町2丁目6番22号先,前山公園北側,36.04579,139.388422,
埼玉県,東松山市,6-4,松山町2丁目7番48号,masked,36.045051,139.387418,
埼玉県,東松山市,6-5,大字市ノ川649番地1,市ノ川氷川公園北側,36.0485696,139.3931535,緯度経度は怪しい
埼玉県,東松山市,6-6,大字市ノ川569番地1,市の川通線第一公園北側フェンス,36.0486441,139.3903513,緯度経度は怪しい
埼玉県,東松山市,6-7,松山町1丁目15番41号先,いちのかわ保育園駐車場東側,36.047701,139.397182,
埼玉県,東松山市,7-1,美原町1丁目12番,加美町公園南側,36.047275,139.404124,緯度経度は怪しい
埼玉県,東松山市,7-2,大字松山2416番地8,市民病院駐車場東側,36.053722,139.406912,緯度経度は怪しい
埼玉県,東松山市,7-3,大字松山1804番地59,白坂団地内児童公園南側,36.055551,139.404041,緯度経度は怪しい
埼玉県,東松山市,7-4,大字松山1895番地2,北中学校南側フェンス,36.057906,139.400472,
埼玉県,東松山市,7-5,大字野田457番地3,野田自治会館,36.059162,139.38897,緯度経度は怪しい
埼玉県,東松山市,7-6,大字野田1306番地1,県立東松山特別支援学校東側,36.053248,139.386392,緯度経度は怪しい
埼玉県,東松山市,7-7,大字市ノ川30番地,市の川小学校南側フェンス,36.0509649,139.3985072,緯度経度は怪しい
埼玉県,東松山市,8-1,御茶山町12番地,御茶山町児童公園西側,36.034258,139.410171,緯度経度は怪しい
埼玉県,東松山市,8-2,御茶山町14番地14,東松山市民文化センター駐車場東側,36.033834,139.411844,緯度経度は怪しい
埼玉県,東松山市,8-3,六軒町12番地7,福島駐車場北側,36.034558,139.416719,
埼玉県,東松山市,8-4,五領町14番地3,県営五領団地3号棟北側,36.031752,139.418264,
埼玉県,東松山市,8-5,五領町8番地,五領町近隣公園北側,36.031798,139.415137,緯度経度は怪しい
埼玉県,東松山市,8-6,五領町8番地,五領町近隣公園南側,36.030471,139.416528,緯度経度は怪しい
埼玉県,東松山市,8-7,御茶山町19番地4,masked,36.03258,139.40879,緯度経度は怪しい
埼玉県,東松山市,9-1,大字柏崎710番地1,masked,36.02578,139.418086,緯度経度は怪しい
埼玉県,東松山市,9-2,山崎町21番地,東松山市上下水道庁舎東側,36.0265278,139.4267819,緯度経度は怪しい
埼玉県,東松山市,9-3,大字柏崎182番地1,(株)タカハシ北側空き地,36.023838,139.426435,緯度経度は怪しい
埼玉県,東松山市,9-4,山崎町11番地,山崎町児童公園北側,36.029216,139.424313,緯度経度は怪しい
埼玉県,東松山市,9-5,五領町12番地89先(12-97),五領町北児童公園北東側,36.030188,139.417463,
埼玉県,東松山市,9-6,新宿町21番地,新宿町児童公園東側,36.03228,139.421764,緯度経度は怪しい
埼玉県,東松山市,9-7,新宿町14番地,新宿小学校西側(正門南),36.033105,139.419154,緯度経度は怪しい
埼玉県,東松山市,10-1,箭弓町1丁目5292番地2,東松山駅西口駅舎西側,36.034721,139.401297,緯度経度は怪しい
埼玉県,東松山市,10-2,箭弓町3丁目8番地9号,masked,36.03599,139.398473,
埼玉県,東松山市,10-3,箭弓町3丁目13番26号,ボッシュ(株)東側,36.037105,139.397173,
埼玉県,東松山市,10-4,箭弓町3丁目13番26号,ボッシュ(株)西側,36.035308,139.392125,
埼玉県,東松山市,10-5,箭弓町3丁目9番2号,まきの木公園西側,36.0378232,139.3991354,
埼玉県,東松山市,10-6,箭弓町2丁目12番13号先,東松山駅西口駐車場南側,36.033081,139.401932,
埼玉県,東松山市,10-7,幸町1936番19,幸町第二街区公園入口西側,36.031779,139.3982691,緯度経度は怪しい
埼玉県,東松山市,11-1,和泉町1639番地84,和泉町第一街区公園南側,36.032156,139.395341,緯度経度は怪しい
埼玉県,東松山市,11-2,美土里町2番地2先,松美子供広場東側,36.0370224,139.3912227,
埼玉県,東松山市,11-3,美土里町1664-1,ボッシュ(株)社員駐車場南東側,36.033946,139.390137,緯度経度は怪しい
埼玉県,東松山市,11-4,和泉町2番22号,松山女子高等学校北側,36.0340835,139.3949744,
埼玉県,東松山市,11-5,美土里町6番66号,美土里町集会所北側,36.035823,139.387712,
埼玉県,東松山市,11-6,幸町1949番地5,幸町第一街区公園県道側生垣,36.0318528,139.3891149,緯度経度は怪しい
埼玉県,東松山市,11-7,美土里町2041番地1,ボッシュ(株)社員駐車場北東側,36.035169,139.390448,緯度経度は怪しい
埼玉県,東松山市,12-1,松葉町4丁目8番36号先,市民体育館北駐車場北側,36.042222,139.387591,
埼玉県,東松山市,12-2,松葉町4丁目8番22号,市民体育館入口,36.041351,139.38627,
埼玉県,東松山市,12-3,松葉町4丁目7番19号,(有)原留運輸倉庫西側,36.038818,139.38691,
埼玉県,東松山市,12-4,大字石橋1665番地5,焼肉いきな黒塀東松山店北側空き地,36.038867,139.380593,緯度経度は怪しい
埼玉県,東松山市,12-5,大字石橋1525番地2,masked,36.034979,139.381543,緯度経度は怪しい
埼玉県,東松山市,12-6,大字石橋1555番地1,masked,36.035919,139.379718,緯度経度は怪しい
埼玉県,東松山市,12-7,大字石橋1747番地81,関越自動車道側道法面,36.038486,139.374884,緯度経度は怪しい
埼玉県,東松山市,13-1,大字東平1727番地11,やきとり店西側空き地,36.06898,139.407404,緯度経度は怪しい
埼玉県,東松山市,13-2,大字東平1551番地,日本製紙ケミカル(株)入口南側,36.065676,139.408224,緯度経度は怪しい
埼玉県,東松山市,13-3,大字東平1514番地1,東平幼稚園向かい梅林,36.063,139.406539,緯度経度は怪しい
埼玉県,東松山市,13-4,大字東平567番地1,平野市民活動センター北側フェンス,36.0603302,139.4016645,緯度経度は怪しい
埼玉県,東松山市,13-5,大字東平855番地1,松山第二小学校東入口北側,36.060009,139.405586,緯度経度は怪しい
埼玉県,東松山市,13-6,大字野田750番地1,masked,36.061044,139.3984789,緯度経度は怪しい
埼玉県,東松山市,13-7,大字東平567番地1,平野市民活動センター入口北側,36.0601944,139.4009493,緯度経度は怪しい
埼玉県,東松山市,14-1,大字東平1358番地1,masked,36.06277,139.414681,緯度経度は怪しい
埼玉県,東松山市,14-2,大字東平1007番地1,熊野神社子供広場南側,36.061288,139.412371,緯度経度は怪しい
埼玉県,東松山市,14-3,殿山町17番地,殿山北公園南側,36.0582643,139.4140821,
埼玉県,東松山市,14-4,沢口町23番地,沢口北公園北側,36.059015,139.411457,緯度経度は怪しい
埼玉県,東松山市,14-5,沢口町3番地,沢口南公園西側,36.056305,139.41105,緯度経度は怪しい
埼玉県,東松山市,14-6,殿山町31番地1先,月中橋下流月中川東側フェンス,36.0607539,139.4143482,
埼玉県,東松山市,14-7,殿山町5番地,殿山南公園西側,36.055929,139.414244,緯度経度は怪しい
埼玉県,東松山市,15-1,大字大谷3202番地1,旧大岡公民館東側,36.079924,139.395449,緯度経度は怪しい
埼玉県,東松山市,15-2,大字大谷3018番地1先,masked,36.076824,139.397827,緯度経度は怪しい
埼玉県,東松山市,15-3,大字大谷5308番地1,モンゼン商店前畑地,36.074092,139.400872,緯度経度は怪しい
埼玉県,東松山市,15-4,大字大谷2409番地1,masked,36.07654,139.387226,緯度経度は怪しい
埼玉県,東松山市,15-5,大字大谷3699番地,大岡小学校西側,36.073336,139.390453,緯度経度は怪しい
埼玉県,東松山市,15-6,大字大谷1891番地1先,保健事業(株)北側,36.0818879,139.3956482,緯度経度は怪しい
埼玉県,東松山市,15-7,大字大谷1133番地1,東松山ぼたん園附属管理地,36.068719,139.397011,
埼玉県,東松山市,15-8,大字大谷3402番地,大岡市民活動センター東入口南側,36.064498,139.385983,緯度経度は怪しい
埼玉県,東松山市,16-1,大字大谷4838番地1,上岡地蔵前バス停,36.095989,139.397025,緯度経度は怪しい
埼玉県,東松山市,16-2,大字岡1736番地1,上岡集会所向かい,36.096414,139.39774,緯度経度は怪しい
埼玉県,東松山市,16-3,大字大谷4385番地18先,masked,36.091049,139.397021,緯度経度は怪しい
埼玉県,東松山市,16-4,大字岡1179番地1,神光谷バス停横空き地,36.092391,139.400868,緯度経度は怪しい
埼玉県,東松山市,16-5,大字岡283番地先,東松山病院前バス停路肩,36.08553,139.404438,緯度経度は怪しい
埼玉県,東松山市,16-6,大字岡1220番地2,中岡集会所南側フェンス,36.093426,139.4027688,緯度経度は怪しい
埼玉県,東松山市,16-7,大字大谷3980番地4,masked,36.082756,139.404663,緯度経度は怪しい
埼玉県,東松山市,17-1,大字新郷35番地3,工業団地入口交差点南側空き地,36.03297,139.36605,緯度経度は怪しい
埼玉県,東松山市,17-2,大字下唐子1590番地1,松山電化サービス西側畑地,36.029108,139.361713,緯度経度は怪しい
埼玉県,東松山市,17-3,大字石橋2201番地6,石橋第一街区公園,36.030158,139.367983,緯度経度は怪しい
埼玉県,東松山市,17-4,大字新郷642番地,唐子小学校南側(正門東),36.029631,139.36518,緯度経度は怪しい
埼玉県,東松山市,17-5,大字下唐子1604番地,唐子市民活動センター南側,36.027608,139.365635,緯度経度は怪しい
埼玉県,東松山市,17-6,大字下唐子1169番1,唐子中央公園西側駐車場フェンス,36.0270033,139.3623729,緯度経度は怪しい
埼玉県,東松山市,17-7,大字下唐子437番地,高本集会所前子供広場,36.01495,139.364409,緯度経度は怪しい
埼玉県,東松山市,18-1,大字石橋1384番地1,masked,36.035364,139.376284,緯度経度は怪しい
埼玉県,東松山市,18-2,大字石橋1330番地2地先,masked,36.0327686,139.3790981,緯度経度は怪しい
埼玉県,東松山市,18-3,大字石橋1150番地1,青鳥小学校北東側,36.032054,139.383184,緯度経度は怪しい
埼玉県,東松山市,18-4,大字石橋601番地2,masked,36.027312,139.373334,緯度経度は怪しい
埼玉県,東松山市,18-5,大字石橋260番地1,石橋集会所入口バス停西側,36.025718,139.377015,緯度経度は怪しい
埼玉県,東松山市,18-6,大字石橋331番地,南中学校西入口南側,36.023313,139.382593,緯度経度は怪しい
埼玉県,東松山市,18-7,大字坂東山13番,ばんどう山第2公園南側,36.0176253,139.3768785,緯度経度は怪しい
埼玉県,東松山市,19-1,大字神戸722番地15,masked,36.023521,139.351088,緯度経度は怪しい
埼玉県,東松山市,19-2,大字神戸932番地1,市民健康増進センター駐車場北側,36.019437,139.350463,緯度経度は怪しい
埼玉県,東松山市,19-3,大字神戸1305番地,masked,36.017908,139.349674,緯度経度は怪しい
埼玉県,東松山市,19-4,大字神戸874番地3,神戸公会堂西側,36.018354,139.352279,緯度経度は怪しい
埼玉県,東松山市,19-5,大字神戸1346番地1先,たかはし屋西側空き地,36.015402,139.352067,緯度経度は怪しい
埼玉県,東松山市,19-6,大字神戸1645番地1,masked,36.015901,139.356568,緯度経度は怪しい
埼玉県,東松山市,19-7,大字神戸2272番地,クリーンセンター東側,36.0131803,139.3470048,緯度経度は怪しい
埼玉県,東松山市,20-1,大字下唐子1927番地1,関口産業社員寮南側,36.034402,139.350391,緯度経度は怪しい
埼玉県,東松山市,20-2,大字上唐子1253番地1,ラーメン店東側栗畑,36.032302,139.349158,緯度経度は怪しい
埼玉県,東松山市,20-3,大字上唐子1062番地,上唐子集会所北側,36.035582,139.344979,緯度経度は怪しい
埼玉県,東松山市,20-4,大字上唐子779番地1,masked,36.03322,139.344988,緯度経度は怪しい
埼玉県,東松山市,20-5,大字上唐子960番地1,masked,36.034233,139.342326,緯度経度は怪しい
埼玉県,東松山市,20-6,大字上唐子1323番地1,上二運動場広場南東側(物置前),36.0381069,139.3445047,緯度経度は怪しい
埼玉県,東松山市,20-7,大字上唐子1496番地3,ダンススクール北側,36.039445,139.333232,緯度経度は怪しい
埼玉県,東松山市,21-1,あずま町2丁目22番地2,七清水せせらぎ公園南側,36.004337,139.403875,緯度経度は怪しい
埼玉県,東松山市,21-2,あずま町1丁目19番地,川風公園南側,36.007567,139.408614,緯度経度は怪しい
埼玉県,東松山市,21-3,大字高坂1333番地2,高坂駅東口スロープ前フェンス,36.00291,139.39795,緯度経度は怪しい
埼玉県,東松山市,21-4,高坂3丁目24番地1,やつるぎ公園南側,36.0017886,139.4036566,
埼玉県,東松山市,21-5,大字早俣459番地1,早俣集会所用地東側,36.0040465,139.4214674,緯度経度は怪しい
埼玉県,東松山市,21-6,高坂6丁目4番地1,どんぐりやま公園東側,35.9947889,139.4008566,
埼玉県,東松山市,21-7,大字宮鼻172番地1,masked,35.997562,139.407956,緯度経度は怪しい
埼玉県,東松山市,21-8,大字大黒部34番地,(株)ときわ光学研究所高坂工場南側,35.997328,139.40395,緯度経度は怪しい
埼玉県,東松山市,21-9,あずま町1丁目1番地1,川風の散歩道南側,36.006387,139.402697,
埼玉県,東松山市,22-1,大字毛塚875番地,masked,35.996122,139.39531,緯度経度は怪しい
埼玉県,東松山市,22-2,大字西本宿1679番地,西本宿第一子供広場北側,35.99892,139.391119,緯度経度は怪しい
埼玉県,東松山市,22-3,大字西本宿533番地1,関口鉄工所南側路肩,36.001728,139.387334,緯度経度は怪しい
埼玉県,東松山市,22-4,元宿2丁目24番地,中通公園西側,36.002623,139.39123,緯度経度は怪しい
埼玉県,東松山市,22-5,元宿1丁目4番地,上後原公園西側,36.004359,139.395359,緯度経度は怪しい
埼玉県,東松山市,22-6,元宿2丁目6番地1,高坂図書館南側,36.004794,139.393441,
埼玉県,東松山市,22-7,大字西本宿2464番地,西本宿不燃物等埋立地北側公園東側,36.009792,139.388619,緯度経度は怪しい
埼玉県,東松山市,23-1,白山台17番地,白山中学校入口,35.99563,139.38541,緯度経度は怪しい
埼玉県,東松山市,23-2,桜山台5番地,桜山小学校北側,35.994806,139.388243,緯度経度は怪しい
埼玉県,東松山市,23-3,桜山台9番地,ゆすらうめ公園西側,35.992906,139.387245,緯度経度は怪しい
埼玉県,東松山市,23-4,桜山台71番地1,中丸緑地北側,35.990134,139.386587,緯度経度は怪しい
埼玉県,東松山市,23-5,大字田木828番地2,masked,35.989429,139.39163,緯度経度は怪しい
埼玉県,東松山市,23-6,桜山台81番地,かりん緑地(公園内植栽前),35.9887388,139.3846466,緯度経度は怪しい
埼玉県,東松山市,23-7,大字田木428番地1,masked,35.987276,139.39579,緯度経度は怪しい
埼玉県,東松山市,24-1,大字岩殿30番地75先,月ヶ丘会館公園北側,36.000978,139.384046,緯度経度は怪しい
埼玉県,東松山市,24-2,大字岩殿18番地4,道平造園東側,35.9997849,139.3840658,緯度経度は怪しい
埼玉県,東松山市,24-3,松風台8番地2,高坂丘陵市民活動センター北側,35.99477,139.38254,
埼玉県,東松山市,24-4,旗立台1番地,千年谷公園駐車場入口北側,35.991185,139.384301,緯度経度は怪しい
埼玉県,東松山市,24-5,松風台15番地75先,松の木橋北側交差点北西側,35.992255,139.37982,
埼玉県,東松山市,24-6,大字岩殿311番地1,岩殿学生会館東空き地,35.999461,139.378562,緯度経度は怪しい
埼玉県,東松山市,24-7,松風台11番地,かきの木公園西側,35.9925885,139.3815279,緯度経度は怪しい
埼玉県,東松山市,24-8,大字岩殿991番地3,弁天沼西側,36.00557,139.369123,緯度経度は怪しい
埼玉県,東松山市,25-1,大字上野本776番地6,masked,36.026322,139.402385,緯度経度は怪しい
埼玉県,東松山市,25-2,大字上野本520番地,金谷公会堂(氷川神社)南側,36.028608,139.395173,緯度経度は怪しい
埼玉県,東松山市,25-3,大字上野本1959番地先,不動沼南側法面,36.029549,139.391746,緯度経度は怪しい
埼玉県,東松山市,25-4,大字上野本58番地1,masked,36.02744,139.389134,緯度経度は怪しい
埼玉県,東松山市,25-5,大字下青鳥138番地1,masked,36.025482,139.386675,緯度経度は怪しい
埼玉県,東松山市,25-6,大字上野本1300番地1,比企広域市町村圏組合南側,36.021913,139.4039959,緯度経度は怪しい
埼玉県,東松山市,25-7,大字下青鳥765番地1,masked,36.017242,139.40029,緯度経度は怪しい
埼玉県,東松山市,26-1,若松町1丁目18番1号,わかまつ保育園正面,36.027933,139.408222,
埼玉県,東松山市,26-2,若松町2丁目1番22号先,masked,36.027307,139.409144,
埼玉県,東松山市,26-3,若松町1丁目3番13号,masked,36.029637,139.407597,
埼玉県,東松山市,26-4,若松町1丁目1011番,五領沼公園東側,36.0300985,139.4105743,緯度経度は怪しい
埼玉県,東松山市,26-5,若松町2丁目7番先,旧松山光風寮跡空き地南側,36.028447,139.411535,
埼玉県,東松山市,26-6,若松町2丁目14番,若松町公会堂東側フェンス,36.0264164,139.4104355,
埼玉県,東松山市,26-7,若松町2丁目18番1号先,駐車場東407号バイパス路肩,36.026412,139.415602,
埼玉県,東松山市,27-1,大字上野本1196番地3,上野本第一地区公会堂駐車場北側ゴミステーション,36.0243968,139.4056481,緯度経度は怪しい
埼玉県,東松山市,27-2,大字上野本1809番地2,八幡神社東側,36.020981,139.410784,緯度経度は怪しい
埼玉県,東松山市,27-3,大字下野本610番地,野本市民活動センター西側,36.017688,139.411377,緯度経度は怪しい
埼玉県,東松山市,27-4,大字下野本784番地1,masked,36.019532,139.414672,
埼玉県,東松山市,27-5,大字下野本1452番地1先,ト-ツ-創研西側,36.02166,139.419345,緯度経度は怪しい
埼玉県,東松山市,27-6,大字下押垂219番地1,masked,36.008966,139.416271,緯度経度は怪しい
埼玉県,東松山市,27-7,大字下野本1157番地1,野本コミュニティセンター西側,36.015669,139.425947,緯度経度は怪しい
埼玉県,東松山市,28-1,大字古凍28番地1,農業共済組合駐車場フェンス,36.017571,139.431708,
埼玉県,東松山市,28-2,大字古凍593番地1先,masked,36.01696,139.434692,緯度経度は怪しい
埼玉県,東松山市,28-3,大字古凍604番地3,masked,36.014785,139.435113,緯度経度は怪しい
埼玉県,東松山市,28-4,大字古凍730番地,環境センター入口南西側,36.011787,139.437944,緯度経度は怪しい
埼玉県,東松山市,28-5,大字古凍966番地1,(株)柴崎運輸向かい畑地,36.007867,139.43872,緯度経度は怪しい
埼玉県,東松山市,28-6,大字今泉277番地,今泉公会堂南側,36.00926,139.435673,
埼玉県,東松山市,28-7,大字今泉237番地,旧北関東物流(株)東松山営業所 東側フェンス,36.011062,139.43543,緯度経度は怪しい
埼玉県,東松山市,29-1,大字松山2681番地1,岩鼻運動公園野球場西側車道沿い,36.048832,139.4098021,緯度経度は怪しい
埼玉県,東松山市,29-2,大字松山2551番地1,東松山消防署北分署北側,36.050214,139.405794,緯度経度は怪しい
埼玉県,東松山市,29-3,大字松山2819番地9,市営諏訪下団地西側,36.047435,139.408521,緯度経度は怪しい
埼玉県,東松山市,29-4,大字松山2688番地,きらめき市民大学南側,36.047629,139.411886,緯度経度は怪しい
埼玉県,東松山市,29-5,大字松山1684番地11,masked,36.054772,139.410808,緯度経度は怪しい
埼玉県,東松山市,29-6,大字松山1147番地1,masked,36.04712,139.414866,緯度経度は怪しい
埼玉県,東松山市,29-7,大字松山1461番地1,岩鼻運動公園陸上競技場東側駐車場入口,36.052677,139.415043,緯度経度は怪しい
埼玉県,東松山市,30-1,大字東平1957番地21,東平新田自治会館駐車場,36.0732922,139.4120791,緯度経度は怪しい
埼玉県,東松山市,30-2,大字東平1842番地102,東洋機械(株)南西側旧調整池,36.0706189,139.4114197,緯度経度は怪しい
埼玉県,東松山市,30-3,大字東平1877番地2,月中自治会駐車場南側,36.0681554,139.4114253,緯度経度は怪しい
埼玉県,東松山市,30-4,大字東平1417番地2,東平松原街区公園北側,36.065747,139.40995,緯度経度は怪しい
埼玉県,東松山市,30-5,大字東平1333番地2,masked,36.067655,139.413684,緯度経度は怪しい
埼玉県,東松山市,30-6,大字東平1249番地10,月中自治会駐車場南側,36.066853,139.415962,緯度経度は怪しい
埼玉県,東松山市,30-7,大字東平2190番地1,広場西側,36.073829,139.417014,緯度経度は怪しい
