prefecture,city,number,address,name,lat,long,note
埼玉県,さいたま市,1-1-1,西区大字峰岸14番地5,穂積神社遊園地 入口フェンス,35.929054,139.557648,緯度経度は怪しい
埼玉県,さいたま市,1-1-2,西区大字峰岸68番地,市営峰岸住宅 西側フェンス,35.93248,139.555527,緯度経度は怪しい
埼玉県,さいたま市,1-1-3,西区大字峰岸83番地8,峰岸北公園 東側フェンス,35.93248,139.555527,緯度経度は怪しい
埼玉県,さいたま市,1-1-4,西区大字宝来413番地,住宅 南側交差点の南西側水路フェンス,35.926792,139.55452,緯度経度は怪しい
埼玉県,さいたま市,1-1-5,西区大字宝来880番地1,北部配水場 東側フェンス,35.923031,139.556458,緯度経度は怪しい
埼玉県,さいたま市,1-1-6,西区大字宝来1280番地2,中宝来自治会館 北側水路フェンス,35.922459,139.559616,緯度経度は怪しい
埼玉県,さいたま市,1-1-7,西区大字宝来1062番地,大宮国際カントリー 入口看板の反対側水路フェンス,35.920719,139.555923,緯度経度は怪しい
埼玉県,さいたま市,1-2-1,西区大字中釘1506番地1,市立指扇北小学校 北側正門 水路フェンス,35.932861,139.57132,緯度経度は怪しい
埼玉県,さいたま市,1-2-2,西区大字中釘2060番地,中釘自治会館 東側ブロック塀,35.938263,139.571457,緯度経度は怪しい
埼玉県,さいたま市,1-2-3,西区大字高木1572番地6,高木天神公園 南側フェンス,35.938393,139.576187,緯度経度は怪しい
埼玉県,さいたま市,1-2-4,西区西大宮4丁目25番地2,高木第二最終処分場水処理施設 南側フェンス,35.9308973,139.5775059,
埼玉県,さいたま市,1-2-5,西区大字中釘1241番地,秋葉の森総合公園 駐車場入口脇の植込み,35.934654,139.564987,緯度経度は怪しい
埼玉県,さいたま市,1-2-6,西区西大宮4丁目49番地,西大宮4丁目第一公園 西側フェンス,35.932396,139.576645,緯度経度は怪しい
埼玉県,さいたま市,1-2-7,西区大字高木567番地3,市立指扇保育園 東側フェンス,35.927971,139.570801,緯度経度は怪しい
埼玉県,さいたま市,1-2-8,西区大字中釘806番地,秋葉神社公園 南側フェンス,35.930702,139.564728,緯度経度は怪しい
埼玉県,さいたま市,1-3-1,西区西大宮3丁目4番地2,西区役所西側駐車場 南側の植込み,35.9252445,139.5798299,
埼玉県,さいたま市,1-3-2,西区大字指扇1653番地1,古茂塚北公園 北側の植込み,35.917908,139.582886,緯度経度は怪しい
埼玉県,さいたま市,1-3-3,西区大字清河寺619番地3,清河寺バス停 東側道路フェンス,35.934799,139.584106,緯度経度は怪しい
埼玉県,さいたま市,1-3-4,西区西大宮1丁目43番地,西大宮1丁目第二公園 北側フェンス,35.923676,139.575012,緯度経度は怪しい
埼玉県,さいたま市,1-3-5,西区大字清河寺1260番地1,三共リース(株) 道路向かい側の路肩,35.93198,139.588974,緯度経度は怪しい
埼玉県,さいたま市,1-3-6,西区西大宮3丁目48番地,西消防署 南側フェンス,35.929474,139.580673,緯度経度は怪しい
埼玉県,さいたま市,1-3-7,西区西大宮1丁目5番地2,西大宮1丁目第一公園 北側フェンス,35.923607,139.5813297,
埼玉県,さいたま市,1-3-8,西区西大宮3丁目12番地2,西大宮3丁目第一公園 西側フェンス,35.9262096,139.5801678,
埼玉県,さいたま市,1-4-1,西区大字内野本郷965番地1,内野本郷大空公園 西側フェンス,35.937561,139.592224,緯度経度は怪しい
埼玉県,さいたま市,1-4-2,西区大字西新井124番地,大宮花の丘農林公苑 西側駐車場南側フェンス,35.939819,139.589905,緯度経度は怪しい
埼玉県,さいたま市,1-4-3,西区大字西新井64番地5,西新井自治会館 西側正門 右側フェンス,35.939011,139.586533,緯度経度は怪しい
埼玉県,さいたま市,1-4-4,西区大字内野本郷971番地63,上野原北公園 東側フェンス,35.938427,139.591812,緯度経度は怪しい
埼玉県,さいたま市,1-4-5,西区大字内野本郷693番地16,共栄橋付近 歩道フェンス,35.937901,139.594086,緯度経度は怪しい
埼玉県,さいたま市,1-4-6,西区大字内野本郷550番地6,セキ薬局・ミニストップの間 歩道植込み,35.935642,139.593903,緯度経度は怪しい
埼玉県,さいたま市,1-4-7,西区大字内野本郷449番地1,内野本郷バス停向かい側 歩道植込み,35.934547,139.592422,緯度経度は怪しい
埼玉県,さいたま市,1-5-1,西区宮前町1634番地,宮前町二丁目自治会館 西側,35.92947,139.595383,緯度経度は怪しい
埼玉県,さいたま市,1-5-2,西区宮前町1467番地,市立宮前中学校 北西側フェンス,35.929565,139.59819,緯度経度は怪しい
埼玉県,さいたま市,1-5-3,西区宮前町822番地2,(株)日新化成 向かい側道路フェンス,35.929073,139.584137,緯度経度は怪しい
埼玉県,さいたま市,1-5-4,西区宮前町1467番地,市立宮前中学校 南西側フェンス,35.929565,139.59819,緯度経度は怪しい
埼玉県,さいたま市,1-5-5,西区宮前町832番地1,住宅 南側水路フェンス,35.926125,139.589905,緯度経度は怪しい
埼玉県,さいたま市,1-5-6,西区宮前町1102番地1,宮前IC付近 道路フェンス,35.92725,139.589035,緯度経度は怪しい
埼玉県,さいたま市,1-5-7,西区宮前町376番地4,宮前公園 西側フェンス,35.924,139.595184,緯度経度は怪しい
埼玉県,さいたま市,1-6-1,西区三橋6丁目1558番地,市立大宮西中学校 西側フェンス,35.919586,139.589874,緯度経度は怪しい
埼玉県,さいたま市,1-6-2,西区三橋6丁目1709番地3,三橋プール 南側フェンス,35.921919,139.5852141,
埼玉県,さいたま市,1-6-3,西区三橋6丁目1587番地,総合療育センターひまわり学園 西側入口 左側フェンス,35.920925,139.590118,緯度経度は怪しい
埼玉県,さいたま市,1-6-4,西区宮前町541番地11,県南交通前交差点 北東向側フェンス,35.924973,139.588959,緯度経度は怪しい
埼玉県,さいたま市,1-6-5,西区三橋6丁目1181番地5,シティハイツ大宮三橋 8号棟西側フェンス,35.9171841,139.5852798,
埼玉県,さいたま市,1-6-6,西区三橋6丁目1181番地7,西第二公園 南側フェンス,35.916924,139.585587,緯度経度は怪しい
埼玉県,さいたま市,1-6-7,西区三橋6丁目1048番地1,西第三公園 南側フェンス(西部文化センターの向い側),35.917885,139.591019,緯度経度は怪しい
埼玉県,さいたま市,1-6-8,西区三橋6丁目1587番地,総合療育センターひまわり学園 南側フェンス,35.920925,139.590118,緯度経度は怪しい
埼玉県,さいたま市,1-7-1,西区三橋6丁目381番地1,市立三橋西保育園 入口西側フェンス,35.9128889,139.5860514,
埼玉県,さいたま市,1-7-2,西区三橋6丁目605番地2,県営大宮三橋西団地1号棟 南側フェンス,35.916424,139.589478,緯度経度は怪しい
埼玉県,さいたま市,1-7-3,西区三橋5丁目560番地4,三橋5丁目公園 西側フェンス,35.911041,139.594635,緯度経度は怪しい
埼玉県,さいたま市,1-7-4,西区三橋6丁目1218番地,三橋6丁目児童公園 東側植え込み,35.915203,139.585632,緯度経度は怪しい
埼玉県,さいたま市,1-7-5,西区三橋6丁目260番地,三橋6丁目南公園 北側フェンス,35.912514,139.591232,緯度経度は怪しい
埼玉県,さいたま市,1-7-6,西区三橋5丁目20番地2,三橋総合公園 北側駐車場入口 右側,35.914188,139.59404,緯度経度は怪しい
埼玉県,さいたま市,1-7-7,西区三橋5丁目790番地5,三橋総合公園 南側進入口の先のフェンス内,35.909534,139.595825,緯度経度は怪しい
埼玉県,さいたま市,1-8-1,西区三橋5丁目1359番地,市立大宮西小学校 校門横フェンス,35.904217,139.590866,緯度経度は怪しい
埼玉県,さいたま市,1-8-2,西区三橋5丁目936番地2,青葉公園 北側フェンス,35.906685,139.593475,緯度経度は怪しい
埼玉県,さいたま市,1-8-3,西区大字水判土388番地1,水判土公園チビッコ広場 北側,35.902039,139.590469,緯度経度は怪しい
埼玉県,さいたま市,1-8-4,西区三橋5丁目938番地,三橋5丁目自治会館 西側ブロック塀,35.906685,139.593475,緯度経度は怪しい
埼玉県,さいたま市,1-8-5,西区三橋5丁目1862番地,三橋5丁目東公園 入口,35.904205,139.595261,緯度経度は怪しい
埼玉県,さいたま市,1-8-6,西区三橋5丁目2212番地1,三橋5丁目南公園 東側フェンス,35.901672,139.594208,緯度経度は怪しい
埼玉県,さいたま市,1-8-7,西区大字水判土62番地1,水判土交差点 北側市有地 (馬防柵),35.898724,139.590897,緯度経度は怪しい
埼玉県,さいたま市,1-9-1,西区大字佐知川299番地16,春光園うえみず 入口西側フェンス,35.903896,139.587372,緯度経度は怪しい
埼玉県,さいたま市,1-9-2,西区大字佐知川228番地118,佐知川原公園 東側フェンス,35.905983,139.587494,緯度経度は怪しい
埼玉県,さいたま市,1-9-3,西区大字佐知川385番地19,佐知川原第3公園 北側フェンス,35.905643,139.586243,緯度経度は怪しい
埼玉県,さいたま市,1-9-4,西区大字佐知川221番地1,市立大宮西小学校 南西角フェンス,35.90369,139.590057,緯度経度は怪しい
埼玉県,さいたま市,1-9-5,西区大字佐知川1123番地1,市営植水住宅集会所 西側フェンス,35.900265,139.583954,緯度経度は怪しい
埼玉県,さいたま市,1-9-6,西区大字佐知川1123番地1,市営植水住宅1号棟 南側フェンス,35.900265,139.583954,緯度経度は怪しい
埼玉県,さいたま市,1-9-7,西区大字佐知川粕田44番地,佐知川公園 東側フェンス,35.902847,139.583389,緯度経度は怪しい
埼玉県,さいたま市,1-10-1,西区プラザ46番18号,大宮プラザ自治会館入口フェンス(中央通り側),35.9071221,139.5792292,
埼玉県,さいたま市,1-10-2,西区プラザ339番25号,プラザ3号公園 西側フェンス,35.907539,139.578201,緯度経度は怪しい
埼玉県,さいたま市,1-10-3,西区プラザ444番57号,プラザ1号公園 北側フェンス,35.907539,139.578201,緯度経度は怪しい
埼玉県,さいたま市,1-10-4,西区プラザ754番28号,プラザ中央公園 北側フェンス,35.907539,139.578201,緯度経度は怪しい
埼玉県,さいたま市,1-10-5,西区プラザ36番,愛徳幼稚園 西向側(水路側)フェンス,35.906045,139.5778966,
埼玉県,さいたま市,1-10-6,西区プラザ754番28号,プラザ中央公園 南側フェンス,35.907539,139.578201,緯度経度は怪しい
埼玉県,さいたま市,1-10-7,西区プラザ620番87号,プラザ2号公園 北側フェンス,35.907539,139.578201,緯度経度は怪しい
埼玉県,さいたま市,1-10-8,西区大字佐知川1471番地1,金山墓地 北側ブロック塀,35.901707,139.578186,緯度経度は怪しい
埼玉県,さいたま市,1-11-1,西区大字指扇325番地17,五味貝戸東公園 北側入口フェンス,35.909416,139.585571,緯度経度は怪しい
埼玉県,さいたま市,1-11-2,西区大字指扇1185番地6,下戸緑地公園南側,35.911564,139.579773,緯度経度は怪しい
埼玉県,さいたま市,1-11-3,西区大字指扇636番地2,井戸尻公園 東側フェンス,35.908787,139.57988,緯度経度は怪しい
埼玉県,さいたま市,1-11-4,西区大字指扇1078番地,県営大宮指扇団地 北西側水路フェンス,35.912338,139.579285,緯度経度は怪しい
埼玉県,さいたま市,1-11-5,西区大字指扇291番地,指扇道下公園 西側フェンス,35.909008,139.585434,緯度経度は怪しい
埼玉県,さいたま市,1-11-6,西区大字指扇1570番地13,古茂塚第二公園 南側フェンス,35.916065,139.58168,緯度経度は怪しい
埼玉県,さいたま市,1-11-7,西区大字指扇104番地9,青葉西公園 東側フェンス,35.908276,139.588547,緯度経度は怪しい
埼玉県,さいたま市,1-11-8,西区大字指扇331番地,五味貝戸自治会館 東側ブロック塀,35.909008,139.585434,緯度経度は怪しい
埼玉県,さいたま市,1-12-1,西区西大宮1丁目49番地34,市立指扇小学校 西側正門横フェンス,35.9221842,139.5722706,
埼玉県,さいたま市,1-12-2,西区大字指扇3363番地7,大西公園 南側フェンス(LM大宮指扇第2の北側),35.918468,139.577301,緯度経度は怪しい
埼玉県,さいたま市,1-12-3,西区大字指扇領別所109番地3,宮脇公園 西側フェンス,35.923187,139.567398,緯度経度は怪しい
埼玉県,さいたま市,1-12-4,西区大字宝来1656番地39,指扇駅北口ロータリー 中央植え込み,35.917316,139.564911,緯度経度は怪しい
埼玉県,さいたま市,1-12-5,西区大字指扇領別所382番地110,住友2号公園 南側フェンス,35.9221,139.564026,緯度経度は怪しい
埼玉県,さいたま市,1-12-6,西区大字指扇領別所109番地48,住友3号公園 北側フェンス,35.923187,139.567398,緯度経度は怪しい
埼玉県,さいたま市,1-12-7,西区大字高木300番地31,指扇団地公園 南側フェンス,35.92598,139.56958,緯度経度は怪しい
埼玉県,さいたま市,1-12-8,西区大字宝来1760番地11,大宮宝来ハイツ公園 南側フェンス,35.919125,139.558456,緯度経度は怪しい
埼玉県,さいたま市,1-13-1,西区大字指扇2804番地1,赤羽自治会館入口付近フェンス,35.916328,139.570984,緯度経度は怪しい
埼玉県,さいたま市,1-13-2,西区大字指扇2856番地245,指扇台東公園 西側フェンス,35.916344,139.572159,緯度経度は怪しい
埼玉県,さいたま市,1-13-3,西区大字指扇2826番地3,鎮守公園 東側フェンス,35.916344,139.572159,緯度経度は怪しい
埼玉県,さいたま市,1-13-4,西区大字指扇2617番地2,赤羽根第1公園 南東側フェンス,35.916573,139.567383,緯度経度は怪しい
埼玉県,さいたま市,1-13-5,西区大字指扇2809番地1,指扇氷川神社 南側入口付近,35.916344,139.572159,緯度経度は怪しい
埼玉県,さいたま市,1-13-6,西区大字指扇1958番地143,やよい公園 東側フェンス,35.914452,139.574799,緯度経度は怪しい
埼玉県,さいたま市,1-13-7,西区大字指扇1958番地269,わかば公園 南側フェンス,35.914452,139.574799,緯度経度は怪しい
埼玉県,さいたま市,1-14-1,西区大字土屋1766番地1,市立土屋中学校 西側フェンス,35.911091,139.571518,緯度経度は怪しい
埼玉県,さいたま市,1-14-2,西区大字土屋1752番地5,大宮土屋ハイツ公園 西側フェンス,35.911747,139.568466,緯度経度は怪しい
埼玉県,さいたま市,1-14-3,西区大字指扇2285番地,琵琶島公園 北東側フェンス,35.912777,139.572601,緯度経度は怪しい
埼玉県,さいたま市,1-14-4,西区大字土屋258番地1,市立土屋中学校グランド 北東側フェンス,35.911091,139.571518,緯度経度は怪しい
埼玉県,さいたま市,1-14-5,西区大字土屋262番地1,市立土屋中学校 南東側フェンス,35.911091,139.571518,緯度経度は怪しい
埼玉県,さいたま市,1-14-6,西区大字土屋217番地,土屋公園 東側フェンス,35.909801,139.569824,緯度経度は怪しい
埼玉県,さいたま市,1-14-7,西区大字指扇1118番地46,下戸公園 西側フェンス,35.90966,139.578537,緯度経度は怪しい
埼玉県,さいたま市,1-14-8,西区大字指扇2220番地2,さいたま春日部線沿い 道路フェンス,35.913387,139.574432,緯度経度は怪しい
埼玉県,さいたま市,1-15-1,西区大字西遊馬1601番地,大宮武蔵野高等学校 東側正門隣水路フェンス,35.909317,139.560532,緯度経度は怪しい
埼玉県,さいたま市,1-15-2,西区大字西遊馬1969番地7,西遊馬団地 遊水池フェンス(西遊馬団地2号棟の北側),35.918285,139.553085,緯度経度は怪しい
埼玉県,さいたま市,1-15-3,西区大字西遊馬1962番地6,西遊馬団地公園 北側,35.906818,139.561447,緯度経度は怪しい
埼玉県,さいたま市,1-15-4,西区大字西遊馬1441番地1,西遊馬上サ自治会館 入口左側,35.912121,139.561172,緯度経度は怪しい
埼玉県,さいたま市,1-15-5,西区大字西遊馬899番地3,西遊馬公園管理事務所 西側フェンス,35.904137,139.561264,緯度経度は怪しい
埼玉県,さいたま市,1-15-6,西区大字西遊馬980番地1,西遊馬本村自治会館 北側フェンス,35.909027,139.564423,緯度経度は怪しい
埼玉県,さいたま市,1-15-7,西区大字西遊馬1556番地5,西遊馬北公園 南側フェンス,35.911991,139.56398,緯度経度は怪しい
埼玉県,さいたま市,1-16-1,西区大字飯田新田189番地2,市立馬宮西小学校 北側正門横フェンス,35.885693,139.559006,緯度経度は怪しい
埼玉県,さいたま市,1-16-2,西区湯木町1丁目53番地3,湯木自治会館 南側フェンス,35.8951519,139.5553738,
埼玉県,さいたま市,1-16-3,西区大字飯田新田318番地,飯田新田集会場 西側ブロック塀,35.886154,139.553116,緯度経度は怪しい
埼玉県,さいたま市,1-16-4,西区大字飯田新田560番地3,さいたまふじみ野所沢線沿い 道路フェンス,35.883953,139.556061,緯度経度は怪しい
埼玉県,さいたま市,1-16-5,西区大字飯田新田189番地2,市立馬宮西小学校 東側フェンス,35.885693,139.559006,緯度経度は怪しい
埼玉県,さいたま市,1-16-6,西区大字植田谷本村新田179番地4,住宅 北側空地(鉄塔の北側),35.883282,139.560532,緯度経度は怪しい
埼玉県,さいたま市,1-16-7,西区塚本町2丁目152番地,塚本公園 北側フェンス,35.876247,139.561462,緯度経度は怪しい
埼玉県,さいたま市,1-17-1,西区大字二ツ宮589番地1,市立馬宮中学校 西側正門横フェンス,35.89872,139.579361,緯度経度は怪しい
埼玉県,さいたま市,1-17-2,西区大字西遊馬307番地1,西消防署西遊馬出張所 北東側フェンス,35.903496,139.575287,緯度経度は怪しい
埼玉県,さいたま市,1-17-3,西区大字西遊馬533番地1,馬宮コミュニティセンター 正面入口脇,35.905651,139.571976,緯度経度は怪しい
埼玉県,さいたま市,1-17-4,西区大字西遊馬189番地1,市立馬宮東小学校 南側フェンス,35.904213,139.571411,緯度経度は怪しい
埼玉県,さいたま市,1-17-5,西区大字西遊馬119番地,市立馬宮保育園 東側フェンス,35.901653,139.573914,緯度経度は怪しい
埼玉県,さいたま市,1-17-6,西区大字二ツ宮466番地,二ツ宮氷川神社 向かい側水路フェンス,35.897102,139.580566,緯度経度は怪しい
埼玉県,さいたま市,1-17-7,西区大字二ツ宮43番地2,二ツ宮住宅第1公園 西側フェンス,35.892509,139.57785,緯度経度は怪しい
埼玉県,さいたま市,1-18-1,西区大字中野林173番地2,植水公民館・植水支所 東側フェンス,35.893837,139.591293,緯度経度は怪しい
埼玉県,さいたま市,1-18-2,西区大字飯田341番地1,観音堂西側ブロック塀,35.89661,139.585144,緯度経度は怪しい
埼玉県,さいたま市,1-18-3,西区大字中野林225番地1,市立植水小学校 北側フェンス,35.894073,139.594513,緯度経度は怪しい
埼玉県,さいたま市,1-18-4,西区大字中野林225番地1,市立植水小学校 西側正門横フェンス,35.894073,139.594513,緯度経度は怪しい
埼玉県,さいたま市,1-18-5,西区大字中野林463番地2,大宮みどりが丘幼稚園南側(向い側) フェンス,35.894207,139.586929,緯度経度は怪しい
埼玉県,さいたま市,1-18-6,西区大字中野林790番地12,二ツ宮住宅中央公園 東側フェンス,35.890186,139.579437,緯度経度は怪しい
埼玉県,さいたま市,1-18-7,西区大字中野林880番地1,二ツ宮住宅第2公園 西側フェンス,35.887791,139.580765,緯度経度は怪しい
埼玉県,さいたま市,1-19-1,西区大字島根602番地,住宅 道路北側フェンス,35.885128,139.59465,緯度経度は怪しい
埼玉県,さいたま市,1-19-2,西区大字植田谷本516番地17,前通北公園 南西側フェンス,35.893169,139.595688,緯度経度は怪しい
埼玉県,さいたま市,1-19-3,西区大字植田谷本605番地,住宅 西向側フェンス,35.891045,139.595016,緯度経度は怪しい
埼玉県,さいたま市,1-19-4,西区大字植田谷本137番地1,加茂川団地16号棟東側フェンス,35.887135,139.596832,緯度経度は怪しい
埼玉県,さいたま市,1-19-5,西区大字植田谷本137番地1,加茂川団地21号棟西側 調整池フェンス,35.887135,139.596832,緯度経度は怪しい
埼玉県,さいたま市,1-19-6,西区大字植田谷本137番地1,加茂川団地2号棟 南側フェンス,35.887135,139.596832,緯度経度は怪しい
埼玉県,さいたま市,1-19-7,西区大字島根458番地,住宅 東側フェンス,35.885574,139.598602,緯度経度は怪しい
埼玉県,さいたま市,2-1-1,北区別所町42番地1,市立大宮別所小学校西側フェンス,35.9551726,139.597547,
埼玉県,さいたま市,2-1-2,北区別所町34番地,神明公園北側フェンス,35.954235,139.598953,緯度経度は怪しい
埼玉県,さいたま市,2-1-3,北区別所町67番地,庚申公園南側フェンス,35.958061,139.598251,緯度経度は怪しい
埼玉県,さいたま市,2-1-4,北区別所町75番地,東公園西側フェンス,35.960327,139.59671,緯度経度は怪しい
埼玉県,さいたま市,2-1-5,北区別所町95番地,別所公園南側フェンス,35.957451,139.594543,緯度経度は怪しい
埼玉県,さいたま市,2-1-6,北区別所町119番地,小山公園北側フェンス,35.960209,139.590927,緯度経度は怪しい
埼玉県,さいたま市,2-1-7,北区別所町1000番地38,別所北公園南側フェンス,35.955296,139.59227,緯度経度は怪しい
埼玉県,さいたま市,2-1-8,北区別所町1125番地20,滝宮公園南側フェンス,35.9590228,139.5998152,
埼玉県,さいたま市,2-2-1,北区吉野町2丁目251番地5,吉野緑地公園北側,35.959225,139.612579,緯度経度は怪しい
埼玉県,さいたま市,2-2-2,北区吉野町1丁目408番地1,浅間公園北側フェンス,35.956692,139.610901,緯度経度は怪しい
埼玉県,さいたま市,2-2-3,北区吉野町2丁目18番地7,吉野団地公園東側フェンス,35.954174,139.603378,緯度経度は怪しい
埼玉県,さいたま市,2-2-4,北区吉野町2丁目25番地1,諏訪公園東側フェンス,35.955231,139.602051,緯度経度は怪しい
埼玉県,さいたま市,2-2-5,北区吉野町2丁目213番地,つつじヶ丘公園西側フェンス,35.958382,139.604996,緯度経度は怪しい
埼玉県,さいたま市,2-2-6,北区吉野町2丁目195番地1,宮原コミュニティセンター南側駐車場入口付近,35.9585662,139.600959,
埼玉県,さいたま市,2-2-7,北区吉野町2丁目236番地1,神山公園北側フェンス,35.9622867,139.6093726,
埼玉県,さいたま市,2-3-1,北区今羽町596番地,市立泰平中学校西側フェンス,35.949554,139.62648,緯度経度は怪しい
埼玉県,さいたま市,2-3-2,北区今羽町477番地24,今羽町団地中央公園西側入口横フェンス,35.948776,139.622208,緯度経度は怪しい
埼玉県,さいたま市,2-3-3,北区今羽町244番地2,市営今羽住宅内広場西側フェンス,35.95410529999999,139.6218913,
埼玉県,さいたま市,2-3-4,北区今羽町477番地32,今羽町団地西公園南側フェンス,35.948776,139.622208,緯度経度は怪しい
埼玉県,さいたま市,2-3-5,北区今羽町628番地,市立泰平小学校西側フェンス,35.949554,139.62648,緯度経度は怪しい
埼玉県,さいたま市,2-3-6,北区今羽町114番地2,今羽中公園東側,35.952236,139.621399,緯度経度は怪しい
埼玉県,さいたま市,2-3-7,北区今羽町477番地3,リ・コンフェリーレ今羽町南 中島都市下水路北側,35.9477103,139.6220963,
埼玉県,さいたま市,2-4-1,北区宮原町4丁目66番地4,宮原公民館東側,35.9469755,139.6110689,
埼玉県,さいたま市,2-4-2,北区宮原町4丁目42番地,松原公園南側フェンス,35.946304,139.614807,緯度経度は怪しい
埼玉県,さいたま市,2-4-3,北区吉野町1丁目8番地5,前谷公園西側,35.9476502,139.618655,
埼玉県,さいたま市,2-4-4,北区吉野町1丁目42番地,仲原公園西側フェンス,35.951824,139.617828,緯度経度は怪しい
埼玉県,さいたま市,2-4-5,北区吉野町1丁目379番地1,吉野公園西側フェンス,35.95283149999999,139.6123157,
埼玉県,さいたま市,2-4-6,北区吉野町1丁目385番地1,夷屋公園東側フェンス,35.952389,139.609055,緯度経度は怪しい
埼玉県,さいたま市,2-4-7,北区吉野町1丁目379番地1,吉野公園南側フェンス,35.95283149999999,139.6123157,
埼玉県,さいたま市,2-4-8,北区宮原町4丁目42番地,松原公園北側植込み,35.946304,139.614807,緯度経度は怪しい
埼玉県,さいたま市,2-5-1,北区宮原町4丁目102番地6,市立宮原小学校西側フェンス,35.949326,139.605818,
埼玉県,さいたま市,2-5-2,北区宮原町4丁目115番地,鍛治公園東側フェンス,35.949444,139.603119,緯度経度は怪しい
埼玉県,さいたま市,2-5-3,北区宮原町4丁目121番地,領家北公園北側 入口右側フェンス,35.950855,139.606064,緯度経度は怪しい
埼玉県,さいたま市,2-5-4,北区宮原町4丁目129番地,市立宮原中学校北側フェンス,35.951778,139.605118,緯度経度は怪しい
埼玉県,さいたま市,2-5-5,北区宮原町4丁目91番地,領家中央公園南側フェンス,35.949963,139.608765,緯度経度は怪しい
埼玉県,さいたま市,2-5-6,北区宮原町4丁目19番地,領家南公園東側フェンス,35.945286,139.610947,緯度経度は怪しい
埼玉県,さいたま市,2-5-7,北区宮原町4丁目98番地2,宮原4丁目公園東側入口右側フェンス,35.947052,139.605469,緯度経度は怪しい
埼玉県,さいたま市,2-6-1,北区奈良町125番地6,市立奈良保育園西側フェンス,35.9491032,139.5979903,
埼玉県,さいたま市,2-6-2,北区奈良町136番地先,奈良町BC団地4号棟西向側フェンス,35.950871,139.595078,緯度経度は怪しい
埼玉県,さいたま市,2-6-3,北区奈良町136番地50,奈良町BC団地3号棟南側奈良公園フェンス,35.950871,139.595078,緯度経度は怪しい
埼玉県,さいたま市,2-6-4,北区奈良町165番地3,奈良北公園北側フェンス,35.952946,139.594345,緯度経度は怪しい
埼玉県,さいたま市,2-6-5,北区奈良町162番地8,松本医院北側水路フェンス,35.9537561,139.594469,
埼玉県,さいたま市,2-6-6,北区奈良町135番地3,市営奈良住宅集会所北側フェンス,35.9488127,139.5972395,
埼玉県,さいたま市,2-6-7,北区奈良町134番地2,市営奈良住宅2号棟東側フェンス,35.948311,139.597275,緯度経度は怪しい
埼玉県,さいたま市,2-7-1,北区奈良町91番地1,市立大宮北高等学校北側フェンス,35.9459749,139.6008619,
埼玉県,さいたま市,2-7-2,北区奈良町79番地78,奈良団地第2公園東側 入口左側フェンス,35.94614,139.598648,緯度経度は怪しい
埼玉県,さいたま市,2-7-3,北区奈良町91番地1,市立大宮北高等学校東側フェンス,35.9459749,139.6008619,
埼玉県,さいたま市,2-7-4,北区奈良町94番地2,奈良町自治会館東側フェンス,35.9479823,139.6015309,
埼玉県,さいたま市,2-7-5,北区奈良町79番地135,奈良団地第1公園西側フェンス,35.94614,139.598648,緯度経度は怪しい
埼玉県,さいたま市,2-7-6,北区奈良町91番地1,市立大宮北高等学校南側フェンス,35.9459749,139.6008619,
埼玉県,さいたま市,2-7-7,北区奈良町30番地10,さいたま市ふれあい広場西側フェンス,35.9465943,139.6040453,
埼玉県,さいたま市,2-8-1,北区日進町3丁目209番地,市立日進北小学校西側正門横フェンス,35.936733,139.603821,緯度経度は怪しい
埼玉県,さいたま市,2-8-2,北区日進町3丁目278番地2,西谷第2公園内北側フェンス,35.936039,139.599991,緯度経度は怪しい
埼玉県,さいたま市,2-8-3,北区日進町3丁目209番地,市立日進北小学校北側フェンス,35.936733,139.603821,緯度経度は怪しい
埼玉県,さいたま市,2-8-4,北区日進町3丁目389番地,住宅東向側フェンス,35.93692,139.598999,緯度経度は怪しい
埼玉県,さいたま市,2-8-5,北区日進町3丁目478番地2,宇賀神会計事務所南側畑,35.9382096,139.6064113,
埼玉県,さいたま市,2-8-6,北区日進町3丁目698番地,県営大宮日進あかしや団地東側フェンス,35.939407,139.603531,緯度経度は怪しい
埼玉県,さいたま市,2-8-7,北区日進町3丁目717番地,県営大宮日進さつき団地南側フェンス,35.939571,139.605377,緯度経度は怪しい
埼玉県,さいたま市,2-9-1,北区日進町2丁目1915番地4,産業振興会館北側入口付近,35.9330466,139.6090739,
埼玉県,さいたま市,2-9-2,北区日進町3丁目32番地8,西谷第1公園西側入口右側フェンス,35.933434,139.601807,緯度経度は怪しい
埼玉県,さいたま市,2-9-3,北区日進町2丁目1125番地,日進駅第1自転車駐車場 北側フェンス,35.93161,139.605774,緯度経度は怪しい
埼玉県,さいたま市,2-9-4,北区日進町3丁目209番地,市立日進北小学校南側フェンス,35.936733,139.603821,緯度経度は怪しい
埼玉県,さいたま市,2-9-5,北区日進町2丁目1464番地,番場公園東側フェンス,35.934132,139.598648,緯度経度は怪しい
埼玉県,さいたま市,2-9-6,北区日進町2丁目1499番地,上加自然の森北西角木柵,35.933022,139.600388,緯度経度は怪しい
埼玉県,さいたま市,2-9-7,北区日進町2丁目1464番地,番場公園東側フェンス(花と木の広場入口付近),35.934132,139.598648,緯度経度は怪しい
埼玉県,さいたま市,2-9-8,北区日進町2丁目1916番地2他,うねうね公園北側入口付近 鉄塔横,35.9351944,139.6086981,
埼玉県,さいたま市,2-10-1,北区宮原町3丁目282番地,宮原町3丁目自治会館南側入口横フェンス,35.939342,139.611832,緯度経度は怪しい
埼玉県,さいたま市,2-10-2,北区宮原町3丁目364番地1 北中ビル南側,宮原駅東口公園,35.9412565,139.6095425,
埼玉県,さいたま市,2-10-3,北区宮原町3丁目,宮原駅西口ロータリー植込み,35.93795,139.610947,緯度経度は怪しい
埼玉県,さいたま市,2-10-4,北区宮原町3丁目547番地付近,宮原ロイヤルハイツ東側 水路フェンス,35.940208,139.608231,緯度経度は怪しい
埼玉県,さいたま市,2-10-5,北区東大成町2丁目741番地,ロイヤルシティ北側 東大成2丁目北公園北側フェンス,35.93401,139.6129,緯度経度は怪しい
埼玉県,さいたま市,2-10-6,北区宮原町3丁目439番地2,住宅西側水路フェンス,35.9422147,139.6070626,
埼玉県,さいたま市,2-10-7,北区宮原町3丁目581番地先,サンパーク宮原西No4  西側水路フェンス,35.939217,139.608658,緯度経度は怪しい
埼玉県,さいたま市,2-11-1,北区宮原町2丁目39番地,宮原町2丁目自治会館西側入口横フェンス,35.941536,139.614471,緯度経度は怪しい
埼玉県,さいたま市,2-11-2,北区宮原町2丁目39番地,宮原町2丁目自治会館東側入口横フェンス,35.941536,139.614471,緯度経度は怪しい
埼玉県,さいたま市,2-11-3,北区宮原町2丁目74番地,宮原南公園東側フェンス,35.940285,139.618393,緯度経度は怪しい
埼玉県,さいたま市,2-11-4,北区宮原町2丁目79番地,宮原公園北側フェンス,35.941525,139.617416,緯度経度は怪しい
埼玉県,さいたま市,2-11-5,北区宮原町2丁目98番地,原殿公園南側フェンス,35.945847,139.617355,緯度経度は怪しい
埼玉県,さいたま市,2-11-6,北区宮原町2丁目125番地,東宮原ぼうさい広場南側,35.943359,139.620056,緯度経度は怪しい
埼玉県,さいたま市,2-11-7,北区宮原町2丁目98番地,原殿公園北側フェンス,35.945847,139.617355,緯度経度は怪しい
埼玉県,さいたま市,2-11-8,北区宮原町2丁目125番地,東宮原ぼうさい広場西側駐車場入口付近,35.943359,139.620056,緯度経度は怪しい
埼玉県,さいたま市,2-12-1,北区本郷町1番地,市立大砂土小学校東側フェンス,35.937225,139.627441,緯度経度は怪しい
埼玉県,さいたま市,2-12-2,北区本郷町1番地,市立大砂土小学校北側東寄りフェンス,35.937225,139.627441,緯度経度は怪しい
埼玉県,さいたま市,2-12-3,北区本郷町1番地,市立大砂土小学校西側フェンス,35.937225,139.627441,緯度経度は怪しい
埼玉県,さいたま市,2-12-4,北区本郷町92番地1,本郷第6公園北側フェンス,35.93882,139.625763,緯度経度は怪しい
埼玉県,さいたま市,2-12-5,北区本郷町286番地,大宮災害対策庫北側フェンス,35.938911,139.630249,緯度経度は怪しい
埼玉県,さいたま市,2-12-6,北区本郷町655番地1,本郷第4公園南側フェンス,35.942398,139.622681,緯度経度は怪しい
埼玉県,さいたま市,2-12-7,北区本郷町655番地1,本郷第4公園西側フェンス,35.942398,139.622681,緯度経度は怪しい
埼玉県,さいたま市,2-12-8,北区本郷町92番地1,本郷第6公園南側フェンス,35.93882,139.625763,緯度経度は怪しい
埼玉県,さいたま市,2-13-1,北区本郷町1122番地,本郷会館入口東側,35.9441679,139.6263241,
埼玉県,さいたま市,2-13-2,北区本郷町890番地1,本郷第1公園北側入口左側フェンス,35.946754,139.623398,緯度経度は怪しい
埼玉県,さいたま市,2-13-3,北区本郷町1157番地1,本郷第5公園北側入口左側フェンス,35.945938,139.628952,緯度経度は怪しい
埼玉県,さいたま市,2-13-4,北区本郷町1257番地1,本郷第3公園東側フェンス,35.943832,139.630096,緯度経度は怪しい
埼玉県,さいたま市,2-13-5,北区本郷町1457番地,本郷第2公園東側フェンス,35.940659,139.631866,緯度経度は怪しい
埼玉県,さいたま市,2-13-6,北区本郷町1457番地,本郷第2公園西側フェンス,35.940659,139.631866,緯度経度は怪しい
埼玉県,さいたま市,2-13-7,北区本郷町1157番地,本郷第5公園南側フェンス,35.945938,139.628952,緯度経度は怪しい
埼玉県,さいたま市,2-14-1,北区見沼3丁目75番地,市立土呂中学校東側正門左側フェンス,35.938663,139.637772,緯度経度は怪しい
埼玉県,さいたま市,2-14-2,北区土呂町2丁目15番地,神明西公園西側フェンス,35.932373,139.633881,緯度経度は怪しい
埼玉県,さいたま市,2-14-3,北区土呂町2丁目24番地1,彩の国さいたま人づくり広域連合 自治人材開発センター入口左側フェンス,35.9291614,139.6331145,
埼玉県,さいたま市,2-14-4,北区土呂町2丁目42番地,大宮弁天公園西側フェンス,35.928711,139.636078,緯度経度は怪しい
埼玉県,さいたま市,2-14-5,北区土呂町2丁目83番地2,見沼公園西側フェンス,35.93483,139.63736,緯度経度は怪しい
埼玉県,さいたま市,2-14-6,北区見沼3丁目75番地,市立土呂中学校西側フェンス,35.938663,139.637772,緯度経度は怪しい
埼玉県,さいたま市,2-14-7,北区土呂町2丁目49番地,見晴公園西側,35.930378,139.638397,緯度経度は怪しい
埼玉県,さいたま市,2-14-8,北区見沼2丁目94番地,見沼グリーンセンター南側,35.932793,139.637665,緯度経度は怪しい
埼玉県,さいたま市,2-15-1,北区土呂町352番地,市立植竹中学校西側正門横フェンス,35.933815,139.627335,緯度経度は怪しい
埼玉県,さいたま市,2-15-2,北区土呂町352番地,市立植竹中学校東側フェンス,35.933815,139.627335,緯度経度は怪しい
埼玉県,さいたま市,2-15-3,北区土呂町1丁目13番地,富士見公園北側,35.93187,139.631104,緯度経度は怪しい
埼玉県,さいたま市,2-15-4,北区土呂町1丁目42番地,土呂公園西側フェンス,35.93478,139.630905,緯度経度は怪しい
埼玉県,さいたま市,2-15-5,北区土呂町1丁目42番地,土呂公園東側フェンス,35.93478,139.630905,緯度経度は怪しい
埼玉県,さいたま市,2-15-6,北区土呂町352番地,市立植竹中学校南側フェンス,35.933815,139.627335,緯度経度は怪しい
埼玉県,さいたま市,2-15-7,北区土呂町1丁目36番地16,土呂西公園東側入口左側フェンス,35.933735,139.628632,緯度経度は怪しい
埼玉県,さいたま市,2-15-8,北区本郷町1562番地1,本郷第7公園南側フェンス,35.938873,139.63382,緯度経度は怪しい
埼玉県,さいたま市,2-16-1,北区宮原町1丁目852番地1,プラザノース正面北区役所側入口付近,35.9315024,139.620187,
埼玉県,さいたま市,2-16-2,北区宮原町1丁目87番地4,宮原町1丁目南公園南側入口横フェンス,35.93399,139.619522,緯度経度は怪しい
埼玉県,さいたま市,2-16-3,北区宮原町1丁目555番地1,中島東公園南側フェンス,35.9380172,139.6216397,
埼玉県,さいたま市,2-16-4,北区宮原町1丁目428番地,住宅東側水路フェンス,35.9369547,139.6200312,
埼玉県,さいたま市,2-16-5,北区宮原町1丁目246番地,宮原1丁目子供公園北側フェンス,35.935001,139.619476,緯度経度は怪しい
埼玉県,さいたま市,2-16-6,北区宮原町1丁目852番地1,プラザノース東側(図書館側)入口付近,35.9315024,139.620187,
埼玉県,さいたま市,2-16-7,北区宮原町1丁目184番地24,加茂宮公園西側フェンス,35.936138,139.624435,緯度経度は怪しい
埼玉県,さいたま市,2-16-8,北区宮原町1丁目224番地先,JAさいたま あぐりセンター駐車場西側水路フェンス,35.9359403,139.6205188,
埼玉県,さいたま市,2-17-1,北区東大成町2丁目12番地,市立東大成小学校東側正門横フェンス,35.925369,139.618286,緯度経度は怪しい
埼玉県,さいたま市,2-17-2,北区東大成町2丁目12番地,市立東大成小学校北側フェンス,35.925369,139.618286,緯度経度は怪しい
埼玉県,さいたま市,2-17-3,北区東大成町2丁目12番地,市立東大成小学校西側フェンス,35.925369,139.618286,緯度経度は怪しい
埼玉県,さいたま市,2-17-4,北区東大成町2丁目445番地1,水道総合センター東側,35.9291073,139.6198285,
埼玉県,さいたま市,2-17-5,北区東大成町2丁目736番地1先,陶芸会館北向側駐車場フェンス,35.934299,139.613571,緯度経度は怪しい
埼玉県,さいたま市,2-17-6,北区東大成町2丁目390番地,砂久保遊園地西側入口横フェンス,35.9287463,139.6171894,
埼玉県,さいたま市,2-17-7,北区東大成町2丁目404番地2,東大成2丁目公園南側入口横フェンス,35.928909,139.618164,緯度経度は怪しい
埼玉県,さいたま市,2-18-1,北区日進町2丁目576番地,みどり公園南側フェンス,35.929123,139.608795,緯度経度は怪しい
埼玉県,さいたま市,2-18-2,北区日進町2丁目111番地1,松原東公園北側入口横水路フェンス,35.930401,139.611252,緯度経度は怪しい
埼玉県,さいたま市,2-18-3,北区日進町2丁目203番地,松原第1公園西側フェンス,35.931217,139.609756,緯度経度は怪しい
埼玉県,さいたま市,2-18-4,北区日進町2丁目634番地,松原中央公園東側フェンス,35.929829,139.609253,緯度経度は怪しい
埼玉県,さいたま市,2-18-5,北区日進町2丁目702番地,松原第3公園南側フェンス,35.93116,139.608856,緯度経度は怪しい
埼玉県,さいたま市,2-18-6,北区日進町2丁目384番地,松原第2公園西側フェンス,35.929108,139.610092,緯度経度は怪しい
埼玉県,さいたま市,2-18-7,北区日進町2丁目1125番地22,日進駅南口自転車駐車場南側フェンス,35.9315483,139.6066045,
埼玉県,さいたま市,2-19-1,北区日進町2丁目918番地,市立日進小学校西側正門横フェンス,35.929756,139.605347,緯度経度は怪しい
埼玉県,さいたま市,2-19-2,北区日進町2丁目480番地,埼玉大学附属特別支援学校北側フェンス,35.925453,139.610992,緯度経度は怪しい
埼玉県,さいたま市,2-19-3,北区大成町4丁目712番地,(有)大成精密西向側雑木林,35.928825,139.613708,緯度経度は怪しい
埼玉県,さいたま市,2-19-4,北区日進町2丁目480番地,埼玉大学附属特別支援学校西側フェンス,35.925453,139.610992,緯度経度は怪しい
埼玉県,さいたま市,2-19-5,北区日進町2丁目918番地,市立日進小学校北側フェンス,35.929756,139.605347,緯度経度は怪しい
埼玉県,さいたま市,2-19-6,北区日進町2丁目918番地,市立日進小学校南側フェンス,35.929756,139.605347,緯度経度は怪しい
埼玉県,さいたま市,2-19-7,北区日進町2丁目1185番地,上加公園北側フェンス,35.927372,139.604675,緯度経度は怪しい
埼玉県,さいたま市,2-19-8,北区大成町4丁目714番地3,大成4丁目西公園東側フェンス,35.929062,139.61438,緯度経度は怪しい
埼玉県,さいたま市,2-20-1,北区日進町1丁目551番地,日進町1丁目自治会館西側,35.923859,139.604828,緯度経度は怪しい
埼玉県,さいたま市,2-20-2,北区日進町1丁目551番地,日進町1丁目自治会館南側,35.923859,139.604828,緯度経度は怪しい
埼玉県,さいたま市,2-20-3,北区日進町1丁目701番地1,旧日進学校給食センター南側正門横フェンス,35.92536279999999,139.5983196,
埼玉県,さいたま市,2-20-4,北区日進町1丁目701番地1,旧日進学校給食センター東側フェンス,35.92536279999999,139.5983196,
埼玉県,さいたま市,2-20-5,北区日進町1丁目756番地1,下加公園北側フェンス,35.92548,139.602676,緯度経度は怪しい
埼玉県,さいたま市,2-20-6,北区日進町1丁目311番地,日進公園北側,35.921898,139.60434,緯度経度は怪しい
埼玉県,さいたま市,2-20-7,北区日進町1丁目800番地1,市立日進西保育園西側フェンス,35.9262878,139.6042545,
埼玉県,さいたま市,2-21-1,北区日進町1丁目312番地2,日進公園コミュニティセンター南側フェンス,35.920105,139.604156,緯度経度は怪しい
埼玉県,さいたま市,2-21-2,北区日進町1丁目40番地2,農業・食品産業技術総合研究機構南側フェンス,35.9178702,139.603247,
埼玉県,さいたま市,2-21-3,北区日進町1丁目107番地,朝日カーメンテナンス(株)東側フェンス,35.920376,139.595779,緯度経度は怪しい
埼玉県,さいたま市,2-21-4,北区日進町1丁目40番地12,公務員宿舎RT棟南側フェンス,35.917867,139.599577,
埼玉県,さいたま市,2-21-5,北区日進町1丁目40番地12,公務員宿舎RJ棟南東側,35.917867,139.599577,
埼玉県,さいたま市,2-21-6,北区日進町1丁目40番地2,農業・食品産業技術総合研究機構北側フェンス,35.9178702,139.603247,
埼玉県,さいたま市,2-21-7,北区日進町1丁目40番地2,農業・食品産業技術総合研究機構東側フェンス,35.9178702,139.603247,
埼玉県,さいたま市,2-22-1,北区櫛引町2丁目503番地,市立日進中学校西側フェンス,35.922535,139.609924,緯度経度は怪しい
埼玉県,さいたま市,2-22-2,北区大成町4丁目228番地2,大成4丁目公園南側フェンス,35.920078,139.612686,緯度経度は怪しい
埼玉県,さいたま市,2-22-3,北区大成町4丁目265番地,県営大宮稲荷下住宅2号棟西側フェンス,35.9209204,139.6124581,
埼玉県,さいたま市,2-22-4,北区大成町4丁目414番地,稲荷第2公園西側フェンス,35.92395,139.6147,緯度経度は怪しい
埼玉県,さいたま市,2-22-5,北区櫛引町2丁目503番地,市立日進中学校東側フェンス,35.922535,139.609924,緯度経度は怪しい
埼玉県,さいたま市,2-22-6,北区櫛引町2丁目817番地,大宮三島公園北側フェンス,35.922302,139.606949,緯度経度は怪しい
埼玉県,さいたま市,2-22-7,北区櫛引町2丁目482番地2,櫛引公園南側フェンス,35.921135,139.607925,緯度経度は怪しい
埼玉県,さいたま市,2-22-8,北区櫛引町2丁目503番地,市立日進中学校南側フェンス,35.922535,139.609924,緯度経度は怪しい
埼玉県,さいたま市,2-23-1,北区東大成町1丁目483番地,東大成1丁目自治会館南側 住宅北側,35.920017,139.622742,緯度経度は怪しい
埼玉県,さいたま市,2-23-2,北区東大成町1丁目159番地,県営大宮長山住宅5棟南側植込み,35.922432,139.620987,緯度経度は怪しい
埼玉県,さいたま市,2-23-3,北区東大成町1丁目159番地,県営大宮長山団地6棟東側植込み,35.922432,139.620987,緯度経度は怪しい
埼玉県,さいたま市,2-23-4,北区東大成町1丁目159番地,県営大宮長山団地5棟東側植込み,35.922432,139.620987,緯度経度は怪しい
埼玉県,さいたま市,2-23-5,北区東大成町1丁目159番地,県営大宮長山団地3棟西側駐輪場植込み,35.922432,139.620987,緯度経度は怪しい
埼玉県,さいたま市,2-23-6,北区東大成町1丁目350番地先,住宅北側歩道,35.9199048,139.6203091,
埼玉県,さいたま市,2-23-7,北区東大成町1丁目631番地1,仲仙道公園東側入口横フェンス,35.92025,139.623657,緯度経度は怪しい
埼玉県,さいたま市,2-24-1,北区植竹町1丁目593番地1,高齢者生きがい活動センター西側入口横フェンス,35.9277015,139.6241343,
埼玉県,さいたま市,2-24-2,北区植竹町1丁目102番地1,鈴浦公園南側フェンス,35.924503,139.626968,緯度経度は怪しい
埼玉県,さいたま市,2-24-3,北区植竹町1丁目145番地,東植竹公園東側フェンス,35.922855,139.625137,緯度経度は怪しい
埼玉県,さいたま市,2-24-4,北区植竹町1丁目467番地,植竹北公園西側フェンス,35.926468,139.623001,緯度経度は怪しい
埼玉県,さいたま市,2-24-5,北区植竹町1丁目241番地,こまどり公園南側フェンス,35.922821,139.623871,緯度経度は怪しい
埼玉県,さいたま市,2-24-6,北区植竹町1丁目334番地,大宮植竹南住宅南側フェンス,35.925282,139.626694,緯度経度は怪しい
埼玉県,さいたま市,2-24-7,北区植竹町1丁目345番地3,源太郎公園北側フェンス,35.925934,139.625778,緯度経度は怪しい
埼玉県,さいたま市,2-25-1,北区植竹町2丁目1番地,市立植竹小学校西側正門横フェンス,35.929649,139.626343,緯度経度は怪しい
埼玉県,さいたま市,2-25-2,北区植竹町2丁目1番地,市立植竹小学校南側フェンス,35.929649,139.626343,緯度経度は怪しい
埼玉県,さいたま市,2-25-3,北区植竹町2丁目68番地,県立特別支援学校 大宮ろう学園北側フェンス,35.93174,139.625961,緯度経度は怪しい
埼玉県,さいたま市,2-25-4,北区植竹町2丁目85番地,県営大宮植竹住宅駐車場の西側,35.930428,139.628403,緯度経度は怪しい
埼玉県,さいたま市,2-25-5,北区盆栽町185番地,(公財)鉄道弘済会コリノ大宮公園南側フェンス,35.924011,139.629196,緯度経度は怪しい
埼玉県,さいたま市,2-25-6,北区盆栽町267番地1,盆栽四季の家南側駐車場入口横,35.9267594,139.6332544,
埼玉県,さいたま市,2-25-7,北区盆栽町430番地,盆栽西公園北側フェンス,35.927235,139.628128,緯度経度は怪しい
埼玉県,さいたま市,3-1-1,大宮区大成町2丁目282番地,大成小学校北側フェンス,35.914425,139.614151,緯度経度は怪しい
埼玉県,さいたま市,3-1-2,大宮区大成町2丁目176番地,大成2丁目公園東側フェンス,35.913876,139.615326,緯度経度は怪しい
埼玉県,さいたま市,3-1-3,大宮区大成町2丁目478番地1,精進場第2公園東側フェンス,35.914104,139.610931,緯度経度は怪しい
埼玉県,さいたま市,3-1-4,大宮区大成町3丁目241番地,大成3丁目公園東側フェンス,35.918644,139.616501,緯度経度は怪しい
埼玉県,さいたま市,3-1-5,大宮区大成町3丁目254番地2,駐車場西側歩道,35.918877,139.617432,緯度経度は怪しい
埼玉県,さいたま市,3-1-6,大宮区大成町2丁目310番地,大成小学校西側フェンス,35.914425,139.614151,緯度経度は怪しい
埼玉県,さいたま市,3-1-7,大宮区大成町3丁目562番地,精進場公園東側フェンス,35.918079,139.612289,緯度経度は怪しい
埼玉県,さいたま市,3-1-8,大宮区大成町3丁目562番地,精進場公園西側フェンス,35.918079,139.612289,緯度経度は怪しい
埼玉県,さいたま市,3-2-1,大宮区大成町2丁目379番地,大成中学校東側正門横フェンス,35.913097,139.612473,緯度経度は怪しい
埼玉県,さいたま市,3-2-2,大宮区大成町1丁目205番地,八幡神社南側フェンス,35.908863,139.614594,緯度経度は怪しい
埼玉県,さいたま市,3-2-3,大宮区大成町1丁目205番地,八幡自治会館北側勝手口前,35.908863,139.614594,緯度経度は怪しい
埼玉県,さいたま市,3-2-4,大宮区大成町1丁目5番地,市営桜木駐車場北側西寄りフェンス,35.908863,139.614594,緯度経度は怪しい
埼玉県,さいたま市,3-2-5,大宮区大成町2丁目269番地,大成小学校南側フェンス,35.913391,139.613907,緯度経度は怪しい
埼玉県,さいたま市,3-2-6,大宮区大成町1丁目465番地,埼玉県視覚障害者福祉センター南側フェンス,35.909561,139.612762,緯度経度は怪しい
埼玉県,さいたま市,3-2-7,大宮区大成町2丁目379番地,大成中学校グランド西側フェンス下,35.913097,139.612473,緯度経度は怪しい
埼玉県,さいたま市,3-3-1,大宮区櫛引町1丁目406番地,櫛引町1丁目自治会館,35.910858,139.609451,緯度経度は怪しい
埼玉県,さいたま市,3-3-2,大宮区櫛引町1丁目779番地2,渋谷コート3号館南側歩道,35.9155616,139.6055975,
埼玉県,さいたま市,3-3-3,大宮区櫛引町1丁目9番地,渋谷マンション北側フェンス,35.906315,139.612595,緯度経度は怪しい
埼玉県,さいたま市,3-3-4,大宮区櫛引町1丁目440番地1,熊野下公園北側,35.911961,139.610046,緯度経度は怪しい
埼玉県,さいたま市,3-3-5,大宮区櫛引町1丁目654番地,櫛引氷川神社西側ブロック塀,35.913727,139.607895,緯度経度は怪しい
埼玉県,さいたま市,3-3-6,大宮区櫛引町1丁目810番地,個人宅西側ガードレール,35.915089,139.607834,緯度経度は怪しい
埼玉県,さいたま市,3-3-7,大宮区櫛引町1丁目826番地,県営大宮櫛引団地1号棟東側フェンス,35.915382,139.608902,緯度経度は怪しい
埼玉県,さいたま市,3-3-8,大宮区櫛引町1丁目528番地,ハローワーク大宮駐車場入口横フェンス,35.91209,139.607452,緯度経度は怪しい
埼玉県,さいたま市,3-4-1,大宮区三橋1丁目664番地,大宮なみき幼稚園西側正門横フェンス,35.90781,139.603363,緯度経度は怪しい
埼玉県,さいたま市,3-4-2,大宮区三橋1丁目55番地,大平公園南側正門横フェンス,35.909012,139.605652,緯度経度は怪しい
埼玉県,さいたま市,3-4-3,大宮区三橋1丁目55番地,大平公園東側フェンス,35.909012,139.605652,緯度経度は怪しい
埼玉県,さいたま市,3-4-4,大宮区三橋1丁目629番地4,三橋1丁目西公園東側柵,35.909363,139.601425,緯度経度は怪しい
埼玉県,さいたま市,3-4-5,大宮区三橋1丁目850番地1,県営大宮三橋住宅1号棟南側水路フェンス,35.91417130000001,139.6005336,
埼玉県,さいたま市,3-4-6,大宮区三橋1丁目850番地1,県営大宮三橋住宅6号棟北側,35.91417130000001,139.6005336,
埼玉県,さいたま市,3-4-7,大宮区三橋1丁目55番地,大平公園北西角フェンス,35.909012,139.605652,緯度経度は怪しい
埼玉県,さいたま市,3-4-8,大宮区三橋1丁目745番地2,三橋三島公園南側フェンス,35.907726,139.602432,緯度経度は怪しい
埼玉県,さいたま市,3-5-1,大宮区三橋2丁目20番地,三橋小学校西側フェンス,35.90353,139.604828,緯度経度は怪しい
埼玉県,さいたま市,3-5-2,大宮区三橋2丁目20番地,三橋小学校北側フェンス三橋公民館隣,35.90353,139.604828,緯度経度は怪しい
埼玉県,さいたま市,3-5-3,大宮区三橋2丁目20番地,三橋小学校南側正門横フェンス,35.90353,139.604828,緯度経度は怪しい
埼玉県,さいたま市,3-5-4,大宮区三橋2丁目929番地,三橋保育園南側ブロック塀,35.902325,139.605591,緯度経度は怪しい
埼玉県,さいたま市,3-5-5,大宮区三橋2丁目250番地,並木公園東側フェンス,35.900909,139.602448,緯度経度は怪しい
埼玉県,さいたま市,3-5-6,大宮区三橋2丁目250番地,並木公園西側フェンス,35.900909,139.602448,緯度経度は怪しい
埼玉県,さいたま市,3-5-7,大宮区三橋2丁目428番地2,三橋2丁目公園北入口横フェンス,35.903889,139.600082,緯度経度は怪しい
埼玉県,さいたま市,3-5-8,大宮区三橋1丁目1300番地,三橋中学校北西角フェンス,35.904564,139.602814,緯度経度は怪しい
埼玉県,さいたま市,3-6-1,大宮区三橋4丁目96番地,大宮国際中等教育学校東側中央フェンス(柵),35.895927,139.599442,緯度経度は怪しい
埼玉県,さいたま市,3-6-2,大宮区三橋4丁目96番地,大宮国際中等教育学校東側南寄りフェンス(柵),35.895927,139.599442,緯度経度は怪しい
埼玉県,さいたま市,3-6-3,大宮区三橋4丁目3番地,釣具店Growth南側水路フェンス,35.8988545,139.5984631,
埼玉県,さいたま市,3-6-4,大宮区三橋4丁目96番地,大宮国際中等教育学校北側フェンス(柵),35.895927,139.599442,緯度経度は怪しい
埼玉県,さいたま市,3-6-5,大宮区三橋4丁目258番地,三橋天神公園西側フェンス,35.895302,139.602158,緯度経度は怪しい
埼玉県,さいたま市,3-6-6,大宮区三橋2丁目565番地2,個人宅西側水路フェンス,35.897446,139.59996,緯度経度は怪しい
埼玉県,さいたま市,3-6-7,大宮区三橋4丁目904番地,個人宅西側フェンス,35.890667,139.603378,緯度経度は怪しい
埼玉県,さいたま市,3-6-8,大宮区三橋2丁目580番地2,並木南公園南側入口横フェンス,35.8973023,139.6003426,
埼玉県,さいたま市,3-7-1,大宮区三橋3丁目52番地,さいたま市立三つ和会館県道側フェンス,35.897469,139.609085,緯度経度は怪しい
埼玉県,さいたま市,3-7-2,大宮区上小町1043番地,かみこ公園北側フェンス,35.897751,139.61235,緯度経度は怪しい
埼玉県,さいたま市,3-7-3,大宮区三橋3丁目118番地,みつわ公園東側フェンス,35.896606,139.609772,緯度経度は怪しい
埼玉県,さいたま市,3-7-4,大宮区上小町1208番地1,いずみ高校テニスコート西側柵,35.8951273,139.6117417,
埼玉県,さいたま市,3-7-5,大宮区三橋3丁目118番地,みつわ公園北側角地,35.896606,139.609772,緯度経度は怪しい
埼玉県,さいたま市,3-7-6,大宮区三橋3丁目85番地,ジョイナステニスアカデミー南側壁(柵),35.897617,139.6064,緯度経度は怪しい
埼玉県,さいたま市,3-7-7,大宮区三橋2丁目736番地,三橋2丁目南公園北側,35.8987091,139.6040172,
埼玉県,さいたま市,3-8-1,大宮区上小町845番地4,上小保育園東側正門横フェンス,35.8999924,139.6113381,
埼玉県,さいたま市,3-8-2,大宮区上小町1110番地,小村田神社公園,35.899441,139.614288,緯度経度は怪しい
埼玉県,さいたま市,3-8-3,大宮区上小町422番地,かみこ幼稚園南向側フェンス,35.90242,139.609192,緯度経度は怪しい
埼玉県,さいたま市,3-8-4,大宮区上小町1096番地,山本第1月極駐車場北側フェンス,35.899166,139.613068,緯度経度は怪しい
埼玉県,さいたま市,3-8-5,大宮区上小町1036番地2,西南公園南側,35.8985115,139.61251,
埼玉県,さいたま市,3-8-6,大宮区上小町615番地4,県道新方須賀さいたま線 内海工務店前,35.901009,139.609344,緯度経度は怪しい
埼玉県,さいたま市,3-8-7,大宮区上小町535番地,アルファクラブ武蔵野ビル東側フェンス,35.902981,139.613327,緯度経度は怪しい
埼玉県,さいたま市,3-9-1,大宮区上小町1337番地,上小小学校北西側,35.896652,139.616928,緯度経度は怪しい
埼玉県,さいたま市,3-9-2,大宮区上小町1337番地,上小小学校東側フェンス,35.896652,139.616928,緯度経度は怪しい
埼玉県,さいたま市,3-9-3,大宮区上小町1337番地,上小小学校南西側フェンス,35.896652,139.616928,緯度経度は怪しい
埼玉県,さいたま市,3-9-4,大宮区上小町1043番地,かみこ公園南側フェンス,35.897751,139.61235,緯度経度は怪しい
埼玉県,さいたま市,3-9-5,大宮区桜木町4丁目609番地,個人宅南向側フェンス,35.897591,139.618515,緯度経度は怪しい
埼玉県,さいたま市,3-9-6,大宮区中央区本町東6丁目11番1号先,埼玉精神神経センター北東側フェンス,35.901855,139.6306,緯度経度は怪しい
埼玉県,さいたま市,3-9-7,大宮区桜木町4丁目534番地,大宮配水場管理棟北側正門横フェンス,35.895443,139.618958,緯度経度は怪しい
埼玉県,さいたま市,3-10-1,大宮区桜木町4丁目219番地,桜木中学校北側正門横フェンス,35.9048,139.61702,緯度経度は怪しい
埼玉県,さいたま市,3-10-2,大宮区桜木町4丁目219番地,桜木中学校西側南フェンス,35.9048,139.61702,緯度経度は怪しい
埼玉県,さいたま市,3-10-3,大宮区桜木町4丁目219番地,桜木中学校西側北寄りフェンス,35.9048,139.61702,緯度経度は怪しい
埼玉県,さいたま市,3-10-4,大宮区桜木町4丁目174番地,桜木公園北側フェンス,35.905285,139.614548,緯度経度は怪しい
埼玉県,さいたま市,3-10-5,大宮区桜木町4丁目328番地9,桜木小学校西側北寄りフェンス,35.9032883,139.6164027,
埼玉県,さいたま市,3-10-6,大宮区桜木町4丁目328番地9,桜木小学校西側西門横フェンス,35.9032883,139.6164027,
埼玉県,さいたま市,3-10-7,大宮区桜木町4丁目926番地先,桜四条公園北側フェンス,35.903564,139.615158,緯度経度は怪しい
埼玉県,さいたま市,3-11-1,大宮区桜木町1丁目7番地7,鐘塚公園東側,35.9052022,139.6195206,
埼玉県,さいたま市,3-11-2,大宮区桜木町1丁目7番地8,鐘塚公園北側,35.905506,139.619995,緯度経度は怪しい
埼玉県,さいたま市,3-11-3,大宮区桜木町3丁目172番地13,桜木神明公園東側フェンス,35.915588,139.618195,緯度経度は怪しい
埼玉県,さいたま市,3-11-4,大宮区桜木町1丁目213番地1,桜木1丁目公園南側フェンス,35.902653,139.622513,緯度経度は怪しい
埼玉県,さいたま市,3-11-5,大宮区桜木町3丁目1番地1,市営桜木駐車場北側東寄りフェンス,35.9096284,139.6181454,
埼玉県,さいたま市,3-11-6,大宮区桜木町2丁目462番地,桜成公園西側フェンス,35.907738,139.617584,緯度経度は怪しい
埼玉県,さいたま市,3-11-7,大宮区桜木町3丁目1番地1,市営桜木駐車場東側フェンス,35.9096284,139.6181454,
埼玉県,さいたま市,3-12-1,大宮区大門町2丁目119番地,大宮門街(かどまち)正面入口前フェンス,35.907307,139.627335,緯度経度は怪しい
埼玉県,さいたま市,3-12-2,大宮区大門町1丁目13番地先,高島屋北側歩道フェンス,35.907112,139.625626,緯度経度は怪しい
埼玉県,さいたま市,3-12-3,大宮区下町3丁目47番地先,さいたま市民会館おおみや北側氷川参道沿い,35.904072,139.630112,緯度経度は怪しい
埼玉県,さいたま市,3-12-4,大宮区大門町2丁目79番地先,EIGHT BURGER前植え込み,35.907307,139.627335,緯度経度は怪しい
埼玉県,さいたま市,3-12-5,大宮区大門町3丁目45番地,富士火災大宮ビル前,35.907768,139.62941,緯度経度は怪しい
埼玉県,さいたま市,3-12-6,大宮区東町1丁目16番地2,大宮東町第一生命ビル前,35.9074327,139.6317934,
埼玉県,さいたま市,3-12-7,大宮区下町3丁目8番地先,氷川住宅東側氷川参道沿い,35.904072,139.630112,緯度経度は怪しい
埼玉県,さいたま市,3-12-8,大宮区吉敷町1丁目120番地1,山丸公園中央付近,35.9023964,139.6309957,
埼玉県,さいたま市,3-13-1,大宮区宮町3丁目84番地,大宮北小学校西側正門南寄りフェンス,35.911427,139.627853,緯度経度は怪しい
埼玉県,さいたま市,3-13-2,大宮区高鼻町1丁目339番地,個人宅東側氷川参道沿い,35.91378,139.629929,緯度経度は怪しい
埼玉県,さいたま市,3-13-3,大宮区高鼻町1丁目194番地,個人宅西側ブロック塀,35.911762,139.630203,緯度経度は怪しい
埼玉県,さいたま市,3-13-4,大宮区宮町2丁目90番地,宇治病院北側フェンス,35.909866,139.628357,緯度経度は怪しい
埼玉県,さいたま市,3-13-5,大宮区宮町3丁目84番地,大宮北小学校北側フェンス,35.911427,139.627853,緯度経度は怪しい
埼玉県,さいたま市,3-13-6,大宮区宮町3丁目113番地3,大宮北公民館東側フェンス,35.9115096,139.6285773,
埼玉県,さいたま市,3-13-7,大宮区高鼻町1丁目440番地先,個人宅西側歩道,35.91634,139.62944,緯度経度は怪しい
埼玉県,さいたま市,3-14-1,大宮区土手町3丁目24番地,個人宅北側歩道植栽,35.915405,139.625885,緯度経度は怪しい
埼玉県,さいたま市,3-14-2,大宮区土手町1丁目154番地,県営大宮土手町住宅77-2号棟西側フェンス,35.914501,139.622314,緯度経度は怪しい
埼玉県,さいたま市,3-14-3,大宮区土手町1丁目153番地,県営大宮土手町住宅77-2号棟東側フェンス,35.915051,139.622116,緯度経度は怪しい
埼玉県,さいたま市,3-14-4,大宮区土手町1丁目153番地,県営大宮土手町住宅76-1号棟東側フェンス,35.915051,139.622116,緯度経度は怪しい
埼玉県,さいたま市,3-14-5,大宮区土手町3丁目184番地,大宮税務署西側フェンス,35.917118,139.62616,緯度経度は怪しい
埼玉県,さいたま市,3-14-6,大宮区土手町2丁目97番地,多子稲荷神社西側,35.914593,139.627319,緯度経度は怪しい
埼玉県,さいたま市,3-14-7,大宮区土手町3丁目285番地,北大宮駅線路南側広告看板フェンス裏手,35.916981,139.62471,緯度経度は怪しい
埼玉県,さいたま市,3-15-1,大宮区寿能町1丁目21番地,大宮北中学校南側正門横ブロック塀,35.921692,139.632248,緯度経度は怪しい
埼玉県,さいたま市,3-15-2,大宮区寿能町1丁目31番地1,大宮公園駅前ハイツ南側フェンス,35.9227192,139.6316406,
埼玉県,さいたま市,3-15-3,大宮区寿能町2丁目195番地1,県営大宮寿能住宅運動広場東側,35.9214249,139.6357658,
埼玉県,さいたま市,3-15-4,大宮区寿能町2丁目195番地1,県営大宮寿能住宅外来駐車場北側フェンス,35.9214249,139.6357658,
埼玉県,さいたま市,3-15-5,大宮区寿能町2丁目140番地,寿能保育園南側入口横フェンス,35.921398,139.636124,緯度経度は怪しい
埼玉県,さいたま市,3-15-6,大宮区寿能町2丁目155番地,寿能公園南側フェンス,35.921352,139.638367,緯度経度は怪しい
埼玉県,さいたま市,3-15-7,大宮区高鼻町4丁目130番地,公園緑地協会本部東側フェンス,35.918793,139.63179,緯度経度は怪しい
埼玉県,さいたま市,3-16-1,大宮区堀の内町3丁目145番地,大宮東小学校西側正門横フェンス,35.913998,139.635788,緯度経度は怪しい
埼玉県,さいたま市,3-16-2,大宮区堀の内町2丁目276番地2,水路フェンス,35.9131055,139.6377957,
埼玉県,さいたま市,3-16-3,大宮区堀の内町3丁目145番地,大宮東小学校南側フェンス,35.913998,139.635788,緯度経度は怪しい
埼玉県,さいたま市,3-16-4,大宮区堀の内町3丁目367番地,堀の内町3丁目自治会館南側フェンス,35.917637,139.637726,緯度経度は怪しい
埼玉県,さいたま市,3-16-5,大宮区高鼻町1丁目170番地先,旧大宮図書館西側氷川参道沿い,35.911236,139.63028,緯度経度は怪しい
埼玉県,さいたま市,3-16-6,大宮区堀の内町3丁目145番地,大宮東小学校東側フェンス,35.913998,139.635788,緯度経度は怪しい
埼玉県,さいたま市,3-16-7,大宮区高鼻町2丁目405番地,埼玉県大宮公園事務所入口横フェンス,35.913952,139.632416,緯度経度は怪しい
埼玉県,さいたま市,3-17-1,大宮区堀の内町1丁目123番地2,大宮東中学校南側正門フェンス,35.908325,139.635559,緯度経度は怪しい
埼玉県,さいたま市,3-17-2,大宮区天沼町1丁目148番地1,白菊保育園東側フェンス,35.9060249,139.6399887,
埼玉県,さいたま市,3-17-3,大宮区天沼町1丁目194番地,天沼児童センター西側フェンス,35.905937,139.636841,緯度経度は怪しい
埼玉県,さいたま市,3-17-4,大宮区堀の内町1丁目50番地先,駐車場東側水路フェンス,35.910927,139.641739,緯度経度は怪しい
埼玉県,さいたま市,3-17-5,大宮区堀の内町1丁目99番地,大宮東中学校北側東寄りフェンス,35.908325,139.635559,緯度経度は怪しい
埼玉県,さいたま市,3-17-6,大宮区堀の内町1丁目410番地2,個人宅南西側ブロック塀,35.9104155,139.6376874,
埼玉県,さいたま市,3-17-7,大宮区堀の内町1丁目99番地,大宮東中学校東側フェンス,35.908325,139.635559,緯度経度は怪しい
埼玉県,さいたま市,3-17-8,大宮区堀の内町1丁目182番地2,堀の内1丁目公園フェンス,35.910149,139.639114,緯度経度は怪しい
埼玉県,さいたま市,3-18-1,大宮区堀の内町1丁目615番地,大宮開成高等学校南側フェンス東側入口の端から,35.912548,139.643799,緯度経度は怪しい
埼玉県,さいたま市,3-18-2,大宮区天沼町1丁目760番地,第二東中学校西側フェンス,35.90921,139.645798,緯度経度は怪しい
埼玉県,さいたま市,3-18-3,大宮区堀の内町2丁目612番地,芝川公園北側フェンス,35.911186,139.648254,緯度経度は怪しい
埼玉県,さいたま市,3-18-4,大宮区天沼町1丁目760番地,第二東中学校南側フェンス西側寄り,35.90921,139.645798,緯度経度は怪しい
埼玉県,さいたま市,3-18-5,大宮区堀の内町1丁目615番地,大宮開成高等学校北東側フェンス,35.912548,139.643799,緯度経度は怪しい
埼玉県,さいたま市,3-18-6,大宮区堀の内町1丁目606番地先,グランドシティサウスタワー向かい西側水路フェンス,35.911846,139.642029,緯度経度は怪しい
埼玉県,さいたま市,3-18-7,大宮区堀の内町1丁目577番地1,堀の内ポンプ場北西側フェンス,35.911846,139.642029,緯度経度は怪しい
埼玉県,さいたま市,3-19-1,大宮区天沼町2丁目1077番地,芝川小学校南側正門横フェンス,35.904934,139.645523,緯度経度は怪しい
埼玉県,さいたま市,3-19-2,大宮区天沼町1丁目347番地,個人宅南向側畑,35.90514,139.643234,緯度経度は怪しい
埼玉県,さいたま市,3-19-3,大宮区天沼町1丁目523番地2,ドルミ公園北側,35.908382,139.642487,緯度経度は怪しい
埼玉県,さいたま市,3-19-4,大宮区天沼町1丁目337番地,個人宅北側駐車場フェンス,35.904945,139.641739,緯度経度は怪しい
埼玉県,さいたま市,3-19-5,大宮区天沼町2丁目930番地,個人宅南向側空地,35.902771,139.64212,緯度経度は怪しい
埼玉県,さいたま市,3-19-6,大宮区天沼町2丁目999番地3,個人宅東側フェンス,35.9041739,139.6439446,
埼玉県,さいたま市,3-19-7,大宮区天沼町2丁目1062番地14先,個人宅南向側フェンス,35.9023099,139.6451675,
埼玉県,さいたま市,3-20-1,大宮区天沼町2丁目362番地,大宮南中学校西側正門横フェンス,35.899437,139.638,緯度経度は怪しい
埼玉県,さいたま市,3-20-2,大宮区天沼町2丁目179番地,なかよし公園北側フェンス,35.903225,139.638901,緯度経度は怪しい
埼玉県,さいたま市,3-20-3,大宮区天沼町2丁目323番地,大宮高等学校西側正門北寄りフェンス,35.899437,139.638,緯度経度は怪しい
埼玉県,さいたま市,3-20-4,大宮区天沼町2丁目362番地,大宮南中学校グラウンド西側フェンス,35.899437,139.638,緯度経度は怪しい
埼玉県,さいたま市,3-20-5,大宮区天沼町2丁目438番地1,天沼保育園南側フェンス,35.8988196,139.639489,
埼玉県,さいたま市,3-20-6,大宮区天沼町2丁目725番地2,個人宅南西側都市計画道路用地囲い柵,35.901863,139.640244,緯度経度は怪しい
埼玉県,さいたま市,3-20-7,大宮区大原7丁目1番1号,浦和下木崎住宅第3団地西側フェンス,35.9007105,139.643096,
埼玉県,さいたま市,3-21-1,大宮区吉敷町3丁目87番地,大宮南小学校北側フェンス,35.900581,139.633881,緯度経度は怪しい
埼玉県,さいたま市,3-21-2,大宮区吉敷町3丁目87番地,大宮南小学校東側フェンス,35.900581,139.633881,緯度経度は怪しい
埼玉県,さいたま市,3-21-3,大宮区吉敷町3丁目87番地,大宮南小学校西側フェンス,35.900581,139.633881,緯度経度は怪しい
埼玉県,さいたま市,3-21-4,大宮区吉敷町1丁目124番地1,大宮区役所北西側植栽,35.901691,139.630554,緯度経度は怪しい
埼玉県,さいたま市,3-21-5,大宮区吉敷町4丁目197番地3,ほこすぎ橋東広場フェンス,35.897736,139.634247,緯度経度は怪しい
埼玉県,さいたま市,3-21-6,大宮区吉敷町1丁目46番地先,大宮区役所東側氷川参道沿い,35.901169,139.628265,緯度経度は怪しい
埼玉県,さいたま市,3-21-7,大宮区吉敷町4丁目223番地2,大宮南公民館北側フェンス,35.8983553,139.6356852,
埼玉県,さいたま市,3-21-8,大宮区吉敷町4丁目87番地1,一の鳥居ひろば西側外柵,35.898163,139.631271,緯度経度は怪しい
埼玉県,さいたま市,3-22-1,大宮区北袋町1丁目190番地,日商岩井大宮平和台マンションB北側,35.893559,139.639786,緯度経度は怪しい
埼玉県,さいたま市,3-22-2,大宮区北袋町1丁目190番地,日商岩井大宮平和台マンションA北側,35.893559,139.639786,緯度経度は怪しい
埼玉県,さいたま市,3-22-3,大宮区北袋町1丁目190番地,平和台公園東側フェンス,35.893559,139.639786,緯度経度は怪しい
埼玉県,さいたま市,3-22-4,大宮区北袋町2丁目81番地,首都高速新都心出口横植栽,35.895893,139.643539,緯度経度は怪しい
埼玉県,さいたま市,3-22-5,大宮区北袋町2丁目237番地,北袋天神公園東側,35.894112,139.645035,緯度経度は怪しい
埼玉県,さいたま市,3-22-6,大宮区北袋町2丁目158番地,北袋ふれあい公園北側植栽,35.895065,139.644104,緯度経度は怪しい
埼玉県,さいたま市,3-22-7,大宮区北袋町2丁目401番地2,北袋公園北側フェンス,35.890812,139.644806,緯度経度は怪しい
埼玉県,さいたま市,3-22-8,大宮区北袋町1丁目700番地,シントシティ南側植栽,35.89304,139.638672,緯度経度は怪しい
埼玉県,さいたま市,4-1-1,見沼区東大宮2丁目45番地,市立見沼小学校東側正門横フェンス,35.948463,139.632706,緯度経度は怪しい
埼玉県,さいたま市,4-1-2,見沼区東大宮2丁目15番地,堀の内公園東側フェンス,35.946175,139.636963,緯度経度は怪しい
埼玉県,さいたま市,4-1-3,見沼区東大宮2丁目15番地,堀の内公園西側フェンス,35.946175,139.636963,緯度経度は怪しい
埼玉県,さいたま市,4-1-4,見沼区東大宮2丁目42番地,東北原公園西側フェンス,35.949085,139.634247,緯度経度は怪しい
埼玉県,さいたま市,4-1-5,見沼区東大宮2丁目49番地8,市営砂住宅2号棟北側,35.9503541,139.634575,
埼玉県,さいたま市,4-1-6,見沼区東大宮3丁目4番地1,県営大宮砂住宅RC-26号棟南側フェンス,35.9519523,139.6326992,
埼玉県,さいたま市,4-1-7,見沼区東大宮3丁目5番地1,県営大宮砂住宅B号棟西側,35.95248,139.631287,緯度経度は怪しい
埼玉県,さいたま市,4-2-1,見沼区東大宮4丁目40番地3,東大宮4丁目自治会館北側入口横フェンス,35.9523603,139.6364776,
埼玉県,さいたま市,4-2-2,見沼区東大宮4丁目11番地,原際公園南側入口西側の植込み,35.948452,139.638062,緯度経度は怪しい
埼玉県,さいたま市,4-2-3,見沼区東大宮4丁目26番地11,東大宮駅第1自転車駐車場西側フェンス,35.9507209,139.6401013,
埼玉県,さいたま市,4-2-4,見沼区東大宮4丁目66番地,原中公園南側フェンス入口の西側,35.952358,139.639496,緯度経度は怪しい
埼玉県,さいたま市,4-2-5,見沼区東大宮4丁目66番地,原中公園東側フェンス,35.952358,139.639496,緯度経度は怪しい
埼玉県,さいたま市,4-2-6,見沼区東大宮4丁目42番地,中北原公園北西側フェンス,35.951588,139.635452,緯度経度は怪しい
埼玉県,さいたま市,4-2-7,見沼区東大宮4丁目42番地,中北原公園南東側フェンス,35.951588,139.635452,緯度経度は怪しい
埼玉県,さいたま市,4-3-1,見沼区東大宮1丁目13番地14,東大宮自治会館入口横フェンス,35.9438555,139.6412989,
埼玉県,さいたま市,4-3-2,見沼区東大宮1丁目4番地,稲荷公園南側フェンス,35.944134,139.639832,緯度経度は怪しい
埼玉県,さいたま市,4-3-3,見沼区東大宮1丁目26番地,築地公園西側フェンス,35.942215,139.640549,緯度経度は怪しい
埼玉県,さいたま市,4-3-4,見沼区東大宮5丁目17番地,立山公園西側フェンス,35.945152,139.641464,緯度経度は怪しい
埼玉県,さいたま市,4-3-5,見沼区東大宮5丁目42番地1,東大宮中央公園北側フェンス,35.9487526,139.6438343,
埼玉県,さいたま市,4-3-6,見沼区東大宮5丁目42番地1,東大宮中央公園東側フェンス,35.9487526,139.6438343,
埼玉県,さいたま市,4-3-7,見沼区東大宮7丁目5番地18,市立東大宮放課後児童クラブ入口横フェンス,35.946757,139.6454734,
埼玉県,さいたま市,4-3-8,見沼区東大宮7丁目38番地,登戸公園西側フェンス,35.944706,139.644913,緯度経度は怪しい
埼玉県,さいたま市,4-4-1,見沼区島町533番地2,市立島小学校北側体育館横フェンス,35.9468252,139.6516892,
埼玉県,さいたま市,4-4-2,見沼区島町533番地2,市立島小学校裏北門横フェンス,35.9468252,139.6516892,
埼玉県,さいたま市,4-4-3,見沼区東大宮6丁目12番地,大宮大原公園西側フェンス,35.952469,139.64679,緯度経度は怪しい
埼玉県,さいたま市,4-4-4,見沼区東大宮6丁目42番地,藁田島公園西側フェンス,35.950459,139.648087,緯度経度は怪しい
埼玉県,さいたま市,4-4-5,見沼区東大宮6丁目42番地,藁田島公園南側フェンス,35.950459,139.648087,緯度経度は怪しい
埼玉県,さいたま市,4-4-6,見沼区東大宮6丁目61番地1,一本松公園東側フェンス,35.948071,139.648849,緯度経度は怪しい
埼玉県,さいたま市,4-4-7,見沼区島町606番地3,三番関公園南側入口横,35.94643,139.652176,緯度経度は怪しい
埼玉県,さいたま市,4-4-8,見沼区堀崎町1432番地,上ノ台公園西側フェンス,35.943367,139.649429,緯度経度は怪しい
埼玉県,さいたま市,4-5-1,見沼区丸ヶ崎町45番地1,春岡幼稚園正門北,35.9579483,139.6508773,
埼玉県,さいたま市,4-5-2,見沼区丸ヶ崎町42番地,有無公園南西側フェンス,35.957314,139.651688,緯度経度は怪しい
埼玉県,さいたま市,4-5-3,見沼区丸ヶ崎町42番地,有無公園北東側フェンス,35.957314,139.651688,緯度経度は怪しい
埼玉県,さいたま市,4-5-4,見沼区丸ヶ崎町23番地,中原公園西側フェンス,35.955494,139.649384,緯度経度は怪しい
埼玉県,さいたま市,4-5-5,見沼区丸ヶ崎町23番地,中原公園東側フェンス,35.955494,139.649384,緯度経度は怪しい
埼玉県,さいたま市,4-5-6,見沼区丸ヶ崎町13番地13,市立東大宮保育園西側フェンス,35.9536173,139.6513742,
埼玉県,さいたま市,4-5-7,見沼区丸ヶ崎町8番地3,氷川神社北西側ブロック塀,35.95324790000001,139.6498473,
埼玉県,さいたま市,4-6-1,見沼区春野2丁目2番1号,市立春野中学校北側校門横,35.9569647,139.6629146,
埼玉県,さいたま市,4-6-2,見沼区春野2丁目2番1号,市立春野中学校西側歩道沿い,35.9569647,139.6629146,
埼玉県,さいたま市,4-6-3,見沼区春野3丁目16番,上ノ前公園南側入口横フェンス,35.961189,139.657028,緯度経度は怪しい
埼玉県,さいたま市,4-6-4,見沼区大字丸ヶ崎1904番地1,薬師堂前広場南側,35.957294,139.655518,緯度経度は怪しい
埼玉県,さいたま市,4-6-5,見沼区春野3丁目9番,上ノ前西公園南側入口横フェンス,35.9609502,139.6561299,
埼玉県,さいたま市,4-6-6,見沼区春野3丁目14番8号,市立春野図書館駐車場北側フェンス,35.9594149,139.6593696,
埼玉県,さいたま市,4-6-7,見沼区大字丸ヶ崎2054番地先,ベスタック(株)南側フェンス,35.964294,139.665314,緯度経度は怪しい
埼玉県,さいたま市,4-7-1,見沼区春野1丁目10番1号,市立春野小学校北側,35.9572208,139.6676207,
埼玉県,さいたま市,4-7-2,見沼区春野1丁目10番1号,市立春野小学校東側校門近く,35.9572208,139.6676207,
埼玉県,さいたま市,4-7-3,見沼区春野1丁目10番1号,市立春野小学校南側フェンス,35.9572208,139.6676207,
埼玉県,さいたま市,4-7-4,見沼区春野1丁目5番1号,アーバンみらい東大宮内郵便局南側,35.9545612,139.6691694,
埼玉県,さいたま市,4-7-5,見沼区深作2丁目7番地,観音寺下公園西側,35.950794,139.670944,緯度経度は怪しい
埼玉県,さいたま市,4-7-6,見沼区深作2丁目7番地,観音寺下公園東側,35.950794,139.670944,緯度経度は怪しい
埼玉県,さいたま市,4-7-7,見沼区深作2丁目36番地,大宮戸崎公園南側入口横フェンス,35.948936,139.672211,緯度経度は怪しい
埼玉県,さいたま市,4-8-1,見沼区深作1丁目5番地1,春岡公民館西側入口横フェンス,35.9507689,139.6643416,
埼玉県,さいたま市,4-8-2,見沼区深作3丁目8番地,海崎公園南側入口横フェンス,35.954079,139.660202,緯度経度は怪しい
埼玉県,さいたま市,4-8-3,見沼区深作1丁目4番地,西郭公園北側フェンス,35.951069,139.664139,緯度経度は怪しい
埼玉県,さいたま市,4-8-4,見沼区深作1丁目21番地,中ノ島公園西側入口横フェンス,35.948071,139.666306,緯度経度は怪しい
埼玉県,さいたま市,4-8-5,見沼区大字宮ヶ谷塔765番地,春おか広場南側フェンス,35.939728,139.680054,緯度経度は怪しい
埼玉県,さいたま市,4-8-6,見沼区宮ヶ谷塔3丁目236番地,氷川神社社務所西側フェンス,35.939102,139.676483,緯度経度は怪しい
埼玉県,さいたま市,4-8-7,見沼区卸町1丁目58番地,イタリア料理あらじん南側水路フェンス,35.94957,139.675613,緯度経度は怪しい
埼玉県,さいたま市,4-9-1,見沼区春岡2丁目29番地1,市立春岡小学校東側正門横フェンス,35.9495058,139.6620224,
埼玉県,さいたま市,4-9-2,見沼区春岡2丁目29番地1,市立春岡小学校北側フェンス,35.9495058,139.6620224,
埼玉県,さいたま市,4-9-3,見沼区春岡2丁目29番地1,市立春岡小学校西側フェンス,35.9495058,139.6620224,
埼玉県,さいたま市,4-9-4,見沼区大字深作236番地9,新田公園西側入口横フェンス,35.953049,139.652908,緯度経度は怪しい
埼玉県,さいたま市,4-9-5,見沼区春岡2丁目19番地1,入ノ山公園西側,35.9510688,139.6594277,
埼玉県,さいたま市,4-9-6,見沼区春岡3丁目30番地1,西原公園西側入口横,35.9497937,139.6566306,
埼玉県,さいたま市,4-9-7,見沼区春岡2丁目42番地1,稲荷台公園西側フェンス,35.94741339999999,139.6631138,
埼玉県,さいたま市,4-9-8,見沼区春岡3丁目42番地1,春岡中央公園南側植込み,35.9472824,139.6591493,
埼玉県,さいたま市,4-10-1,見沼区島町148番地,ふれあい広場第14号北側フェンス,35.941776,139.655853,緯度経度は怪しい
埼玉県,さいたま市,4-10-2,見沼区島町235番地1,島町自治会館東側フェンス,35.9420266,139.655532,
埼玉県,さいたま市,4-10-3,見沼区島町951番地,島町自然の森西側フェンス,35.942913,139.65654,緯度経度は怪しい
埼玉県,さいたま市,4-10-4,見沼区島町951番地,島町自然の森北側フェンス,35.942913,139.65654,緯度経度は怪しい
埼玉県,さいたま市,4-10-5,見沼区島町1086番地1,薬王寺内雑木林南側,35.9429458,139.6591152,
埼玉県,さいたま市,4-10-6,見沼区島町2丁目6番地10号,島町地蔵公園西側,35.9449917,139.6586007,
埼玉県,さいたま市,4-10-7,見沼区大字小深作262番地1,市営春岡住宅内公園西側フェンス,35.94117,139.662018,緯度経度は怪しい
埼玉県,さいたま市,4-11-1,見沼区堀崎町128番地1,さいたま市大宮武道館 西側入口横,35.9375248,139.6529592,
埼玉県,さいたま市,4-11-2,見沼区堀崎町12番地1,堀崎公園南側フェンス,35.9369854,139.6531105,
埼玉県,さいたま市,4-11-3,見沼区堀崎町12番地1,堀崎公園テニスコート北側フェンス,35.9369854,139.6531105,
埼玉県,さいたま市,4-11-4,見沼区堀崎町48番地1,さいたま市職員研修センター北側フェンス,35.9348455,139.6570467,
埼玉県,さいたま市,4-11-5,見沼区堀崎町1200番地252,堀崎町団地集会所北側フェンス,35.9405059,139.6523123,
埼玉県,さいたま市,4-11-6,見沼区堀崎町556番地2,堀崎南公園南側フェンス,35.9361625,139.655533,
埼玉県,さいたま市,4-11-7,見沼区堀崎町1200番地69,堀崎団地第2公園西側フェンス,35.939537,139.651718,緯度経度は怪しい
埼玉県,さいたま市,4-11-8,見沼区堀崎町467番地7,堀崎町自警消防団建物南側 私有地,35.9387257,139.6558229,
埼玉県,さいたま市,4-12-1,見沼区大和田町2丁目998番地,市立大砂土東小学校南側正門横フェンス,35.937214,139.646759,緯度経度は怪しい
埼玉県,さいたま市,4-12-2,見沼区大和田町2丁目998番地,市立大砂土東小学校北側裏門横フェンス,35.937214,139.646759,緯度経度は怪しい
埼玉県,さいたま市,4-12-3,見沼区大和田町2丁目998番地,市立大砂土東小学校東側フェンス,35.937214,139.646759,緯度経度は怪しい
埼玉県,さいたま市,4-12-4,見沼区大和田町2丁目1068番地1,大和田北緑地公園東側入口横フェンス,35.9351999,139.6470435,
埼玉県,さいたま市,4-12-5,見沼区東大宮7丁目42番地,砂中央公園北側フェンス,35.940323,139.646637,緯度経度は怪しい
埼玉県,さいたま市,4-12-6,見沼区大和田町2丁目1439番地,北山公園西側フェンス,35.932205,139.650284,緯度経度は怪しい
埼玉県,さいたま市,4-12-7,見沼区東大宮7丁目42番地,砂中央公園東側フェンス,35.940323,139.646637,緯度経度は怪しい
埼玉県,さいたま市,4-12-8,見沼区大和田町2丁目1045番地1,松の子の森自然緑地東側柵,35.932755,139.647888,緯度経度は怪しい
埼玉県,さいたま市,4-13-1,見沼区東大宮1丁目100番地1,市立大砂土中学校南側正門横フェンス,35.937542,139.6444094,
埼玉県,さいたま市,4-13-2,見沼区東大宮1丁目100番地1,市立大砂土中学校北側フェンス,35.937542,139.6444094,
埼玉県,さいたま市,4-13-3,見沼区東大宮1丁目100番地1,市立大砂土中学校東側フェンス,35.937542,139.6444094,
埼玉県,さいたま市,4-13-4,見沼区東大宮1丁目78番地,本村公園東側フェンス,35.941299,139.641586,緯度経度は怪しい
埼玉県,さいたま市,4-13-5,見沼区大和田町2丁目335番地4,天神山公園南東側フェンス,35.930336,139.642426,緯度経度は怪しい
埼玉県,さいたま市,4-13-6,見沼区大和田町2丁目306番地5,大砂土緑地植込み内住宅北側,35.93055,139.643951,緯度経度は怪しい
埼玉県,さいたま市,4-13-7,見沼区大和田町2丁目233番地1,大砂土緑地植込み内住宅南側,35.932755,139.647888,緯度経度は怪しい
埼玉県,さいたま市,4-14-1,見沼区大和田町1丁目356番地,県立大宮商業高等学校東側正門横フェンス,35.927193,139.645187,緯度経度は怪しい
埼玉県,さいたま市,4-14-2,見沼区大和田町1丁目396番地,大和田自治会館 正面フェンス,35.926388,139.645508,緯度経度は怪しい
埼玉県,さいたま市,4-14-3,見沼区大和田町1丁目285番地,大和田緑地公園東側フェンス,35.920437,139.645813,緯度経度は怪しい
埼玉県,さいたま市,4-14-4,見沼区大和田町1丁目301番地1,大和田公園遊園地東側入口横フェンス,35.922989,139.643799,緯度経度は怪しい
埼玉県,さいたま市,4-14-5,見沼区大和田町1丁目52番地1,大和田公園大宮体育館北側入口西側フェンス,35.922989,139.643799,緯度経度は怪しい
埼玉県,さいたま市,4-14-6,見沼区大和田町1丁目1738番地10,大和田1丁目北公園南側フェンス,35.9283795,139.6541504,
埼玉県,さいたま市,4-14-7,見沼区大和田町1丁目1387番地1,市営大和田駅南自転車駐車場西側フェンス,35.9275342,139.6504301,
埼玉県,さいたま市,4-15-1,見沼区大字蓮沼1070番地,市立蓮沼小学校西側正門横フェンス,35.934086,139.660995,緯度経度は怪しい
埼玉県,さいたま市,4-15-2,見沼区大字蓮沼1070番地,市立蓮沼小学校北側裏門横フェンス,35.934086,139.660995,緯度経度は怪しい
埼玉県,さいたま市,4-15-3,見沼区大字蓮沼936番地,蓮沼公園北側フェンス,35.932953,139.654068,緯度経度は怪しい
埼玉県,さいたま市,4-15-4,見沼区風渡野2丁目6番地1,風の子第二公園 東側フェンス,35.935875,139.671555,緯度経度は怪しい
埼玉県,さいたま市,4-15-5,見沼区大字風渡野571番地,七里駅第2自転車駐車場北側フェンス,35.935528,139.666016,緯度経度は怪しい
埼玉県,さいたま市,4-15-6,見沼区風渡野1丁目2番地2,風の子公園 西側植込み,35.937733,139.668488,緯度経度は怪しい
埼玉県,さいたま市,4-15-7,見沼区大字蓮沼1085番地12先,住宅東側フェンス,35.933811,139.663467,緯度経度は怪しい
埼玉県,さいたま市,4-15-8,見沼区大字蓮沼1225番地34先,住宅東側フェンス,35.932022,139.664581,緯度経度は怪しい
埼玉県,さいたま市,4-16-1,見沼区大字小深作268番地19,市立春里中学校東側正門横フェンス,35.940819,139.662506,緯度経度は怪しい
埼玉県,さいたま市,4-16-2,見沼区大字小深作268番地19,市立春里中学校西側フェンス,35.940819,139.662506,緯度経度は怪しい
埼玉県,さいたま市,4-16-3,見沼区大字小深作268番地19,市立春里中学校南側フェンス,35.940819,139.662506,緯度経度は怪しい
埼玉県,さいたま市,4-16-4,見沼区大字小深作367番地14,小深作北公園南側入口横フェンス,35.945332,139.665237,緯度経度は怪しい
埼玉県,さいたま市,4-16-5,見沼区大字小深作604番地先,神明神社北東側フェンス,35.941261,139.667099,緯度経度は怪しい
埼玉県,さいたま市,4-16-6,見沼区大字小深作562番地9,大宮七里ハウス西側,35.94109,139.665695,緯度経度は怪しい
埼玉県,さいたま市,4-16-7,見沼区大字小深作256番地,住宅西側ブロック塀,35.939461,139.660629,緯度経度は怪しい
埼玉県,さいたま市,4-16-8,見沼区大字小深作710番地1先,岡本きもの教室西側フェンス,35.937878,139.673767,緯度経度は怪しい
埼玉県,さいたま市,4-17-1,見沼区大字東宮下312番地,市立七里小学校北東側正門横フェンス,35.929123,139.676407,緯度経度は怪しい
埼玉県,さいたま市,4-17-2,見沼区大字東宮下312番地,市立七里小学校北西側フェンス,35.929123,139.676407,緯度経度は怪しい
埼玉県,さいたま市,4-17-3,見沼区東宮下2丁目181番地,東宮下親水公園北西側入口横,35.933327,139.681961,緯度経度は怪しい
埼玉県,さいたま市,4-17-4,見沼区大字東宮下654番地37,神宮台第1公園南側フェンス,35.934307,139.675323,緯度経度は怪しい
埼玉県,さいたま市,4-17-5,見沼区大字東宮下619番地1,神宮台第2公園東側フェンス,35.931816,139.676819,緯度経度は怪しい
埼玉県,さいたま市,4-17-6,見沼区大字新堤40番地,市立七里東保育園北西側フェンス,35.930813,139.671432,緯度経度は怪しい
埼玉県,さいたま市,4-17-7,見沼区大字東門前1番地4,谷中公園南側入口横フェンス,35.929478,139.667023,緯度経度は怪しい
埼玉県,さいたま市,4-17-8,見沼区大字新堤152番地,県営大宮東宮下団地児童会集会所南側,35.927574,139.67131,緯度経度は怪しい
埼玉県,さいたま市,4-18-1,見沼区大字大谷1634番地2,市立大谷中学校北側正門東寄り,35.925255,139.66745,緯度経度は怪しい
埼玉県,さいたま市,4-18-2,見沼区大字大谷1634番地2,市立大谷中学校北側正門西寄り,35.925255,139.66745,緯度経度は怪しい
埼玉県,さいたま市,4-18-3,見沼区大字大谷1634番地2,市立大谷中学校西側南門横フェンス,35.925255,139.66745,緯度経度は怪しい
埼玉県,さいたま市,4-18-4,見沼区大字大谷1634番地2,市立大谷中学校南西側フェンス,35.925255,139.66745,緯度経度は怪しい
埼玉県,さいたま市,4-18-5,見沼区見沼区蓮沼下特定土地区画整理事業地内,蓮沼ふれあい広場 南側,35.896145,139.68042,緯度経度は怪しい
埼玉県,さいたま市,4-18-6,見沼区大字大谷1664番地4,県営大宮七里第二団地1号棟東側,35.925255,139.66745,緯度経度は怪しい
埼玉県,さいたま市,4-18-7,見沼区大字大谷1822番地2,県営大宮七里団地3号棟西側植込み,35.92503,139.670761,緯度経度は怪しい
埼玉県,さいたま市,4-18-8,見沼区大字大谷1822番地2,県営大宮七里団地RL棟西側フェンス,35.92503,139.670761,緯度経度は怪しい
埼玉県,さいたま市,4-19-1,見沼区大和田町1丁目1230番地92,市立大和田保育園東側入口横ブロック塀,35.9244256,139.6522651,
埼玉県,さいたま市,4-19-2,見沼区大和田町1丁目1230番地92,市立大和田保育園南側フェンス,35.9244256,139.6522651,
埼玉県,さいたま市,4-19-3,見沼区大和田町1丁目1275番地4,南新田公園東側植込み,35.925411,139.650955,緯度経度は怪しい
埼玉県,さいたま市,4-19-4,見沼区大和田町1丁目1889番地13,大和田1丁目公園西側フェンス,35.92569,139.655167,緯度経度は怪しい
埼玉県,さいたま市,4-19-5,見沼区大和田町1丁目1508番地,住宅北西側空き地,35.924519,139.654221,緯度経度は怪しい
埼玉県,さいたま市,4-19-6,見沼区大和田町1丁目1469番地先,(有)ライフステージ西側水路フェンス,35.9226871,139.6549865,
埼玉県,さいたま市,4-19-7,見沼区大和田町1丁目1153番地,住宅南西側ブロック,35.922264,139.653244,緯度経度は怪しい
埼玉県,さいたま市,4-20-1,見沼区大字南中丸357番地,市立大宮八幡中学校北側正門横フェンス,35.918953,139.653427,緯度経度は怪しい
埼玉県,さいたま市,4-20-2,見沼区大字南中丸357番地,市立大宮八幡中学校西側フェンス,35.918953,139.653427,緯度経度は怪しい
埼玉県,さいたま市,4-20-3,見沼区大字南中丸357番地,市立大宮八幡中学校南側フェンス,35.918953,139.653427,緯度経度は怪しい
埼玉県,さいたま市,4-20-4,見沼区大字南中丸1280番地29,青葉北公園西側フェンス,35.921532,139.657166,緯度経度は怪しい
埼玉県,さいたま市,4-20-5,見沼区大字南中丸777番地6先,南中丸第3公園東側水路フェンス,35.916451,139.655655,緯度経度は怪しい
埼玉県,さいたま市,4-20-6,見沼区大字南中丸834番地4,南中丸第1公園西側フェンス,35.916187,139.656601,緯度経度は怪しい
埼玉県,さいたま市,4-20-7,見沼区大字南中丸1111番地50,青葉南公園東側フェンス,35.917389,139.659561,緯度経度は怪しい
埼玉県,さいたま市,4-20-8,見沼区大字南中丸296番地,八幡公園東側フェンス,35.917599,139.650803,緯度経度は怪しい
埼玉県,さいたま市,4-21-1,見沼区大字南中野563番地,うてな中野公園南西側,35.912155,139.656143,緯度経度は怪しい
埼玉県,さいたま市,4-21-2,見沼区大字南中野563番地,うてな中野公園北東側,35.912155,139.656143,緯度経度は怪しい
埼玉県,さいたま市,4-21-3,見沼区大字中川1131番地1,第二産業道路「高井」バス停前,35.913033,139.652481,緯度経度は怪しい
埼玉県,さいたま市,4-21-4,見沼区大字南中丸31番地,住宅東側ブロック塀,35.910351,139.651138,緯度経度は怪しい
埼玉県,さいたま市,4-21-5,見沼区大字南中丸734番地61先,住宅前水路フェンス,35.912838,139.657791,緯度経度は怪しい
埼玉県,さいたま市,4-21-6,見沼区大字南中丸584番地,南中丸集会所ゲートボール場入口横,35.915585,139.654877,緯度経度は怪しい
埼玉県,さいたま市,4-21-7,見沼区大字南中野740番地,道半山北公園西側フェンス,35.915123,139.64978,緯度経度は怪しい
埼玉県,さいたま市,4-22-1,見沼区大字大谷18番地,市立大谷小学校東側門横フェンス,35.921005,139.666031,緯度経度は怪しい
埼玉県,さいたま市,4-22-2,見沼区大字大谷18番地,市立大谷小学校南側門横フェンス,35.921005,139.666031,緯度経度は怪しい
埼玉県,さいたま市,4-22-3,見沼区大字大谷240番地29先,南平台第1公園北向側フェンス,35.921581,139.669037,緯度経度は怪しい
埼玉県,さいたま市,4-22-4,見沼区大字大谷597番地3,思い出の里児童公園北側フェンス,35.91824,139.676743,緯度経度は怪しい
埼玉県,さいたま市,4-22-5,見沼区大字大谷724番地52,日生住宅公園北側フェンス,35.918167,139.674377,緯度経度は怪しい
埼玉県,さいたま市,4-22-6,見沼区大字大谷156番地,生協大谷公園西側フェンス,35.918938,139.666153,緯度経度は怪しい
埼玉県,さいたま市,4-22-7,見沼区大字南中野975番地2,グリーンライフ猿花キャンプ場西側入口左横,35.916534,139.664581,緯度経度は怪しい
埼玉県,さいたま市,4-22-8,見沼区大字大谷1271番地,七里コミュニティセンター第2駐車場 西側フェンス,35.920444,139.6754,緯度経度は怪しい
埼玉県,さいたま市,4-23-1,見沼区大字東宮下215番地1,市立東宮下小学校西側フェンス,35.925739,139.678101,緯度経度は怪しい
埼玉県,さいたま市,4-23-2,見沼区大字大谷1812番地,県営大宮東宮下団地27号棟前広場西側フェンス,35.926559,139.671295,緯度経度は怪しい
埼玉県,さいたま市,4-23-3,見沼区大字大谷1974番地1,県営大宮東宮下団地24号棟前公園東側フェンス,35.926167,139.674561,緯度経度は怪しい
埼玉県,さいたま市,4-23-4,見沼区大字大谷1985番地,市立七里保育園北側水路フェンス,35.926292,139.675323,緯度経度は怪しい
埼玉県,さいたま市,4-23-5,見沼区大字膝子795番地1,膝子公園東側入口横フェンス,35.923454,139.681961,緯度経度は怪しい
埼玉県,さいたま市,4-23-6,見沼区大字大谷483番地1,さいたま市環境整備センター入口横,35.91642,139.671814,緯度経度は怪しい
埼玉県,さいたま市,4-23-7,見沼区大字膝子734番地先,住宅南西側フェンス,35.922222,139.684616,緯度経度は怪しい
埼玉県,さいたま市,4-24-1,見沼区大字御蔵551番地,市立片柳中学校東側正門横フェンス,35.906712,139.673721,緯度経度は怪しい
埼玉県,さいたま市,4-24-2,見沼区大字御蔵526番地1,住宅東側畑,35.908096,139.673706,緯度経度は怪しい
埼玉県,さいたま市,4-24-3,見沼区大字御蔵1064番地1,特別養護老人ホーム あおぞら 南側,35.901207,139.671249,緯度経度は怪しい
埼玉県,さいたま市,4-24-4,見沼区大字山172番地,山自治会館西側入口,35.90361,139.679779,緯度経度は怪しい
埼玉県,さいたま市,4-24-5,見沼区大字御蔵1149番地,御蔵南公園 外縁斜面,35.89983,139.669281,緯度経度は怪しい
埼玉県,さいたま市,4-24-6,見沼区大字片柳1438番地2,住宅南側,35.902073,139.688477,緯度経度は怪しい
埼玉県,さいたま市,4-24-7,見沼区片柳1丁目222番地先,ふれあい農園片柳直売所駐車場北側の水路フェンス,35.897549,139.69281,緯度経度は怪しい
埼玉県,さいたま市,4-25-1,見沼区さいたま市見沼区東新井117-2,片柳公民館北側フェンス,35.935276,139.654449,緯度経度は怪しい
埼玉県,さいたま市,4-25-2,見沼区大字東新井244番地1,市立片柳小学校西側フェンス,35.910564,139.670761,緯度経度は怪しい
埼玉県,さいたま市,4-25-3,見沼区大字御蔵1567番地1,配水場北側フェンス,35.907825,139.666931,緯度経度は怪しい
埼玉県,さいたま市,4-25-4,見沼区大字笹丸172番地,住宅南東側畑,35.912277,139.67366,緯度経度は怪しい
埼玉県,さいたま市,4-25-5,見沼区染谷3丁目147番地1,片柳コミュニティセンター南側フェンス,35.9095963,139.6841546,
埼玉県,さいたま市,4-25-6,見沼区染谷3丁目88番地,染谷ふれあい公園南側入口横,35.910515,139.683731,緯度経度は怪しい
埼玉県,さいたま市,4-25-7,見沼区染谷1丁目237番地,(株)八雲造園南西側,35.911919,139.683441,緯度経度は怪しい
埼玉県,さいたま市,4-26-1,見沼区大字東新井710番地5,市立海老沼小学校西側正門横フェンス,35.906288,139.659561,緯度経度は怪しい
埼玉県,さいたま市,4-26-2,見沼区大字東新井710番地5,市立海老沼小学校北側フェンス,35.906288,139.659561,緯度経度は怪しい
埼玉県,さいたま市,4-26-3,見沼区大字東新井710番地5,市立海老沼小学校南側入口横フェンス,35.906288,139.659561,緯度経度は怪しい
埼玉県,さいたま市,4-26-4,見沼区大字南中野66番地62,代官山公園北側フェンス,35.906021,139.657669,緯度経度は怪しい
埼玉県,さいたま市,4-26-5,見沼区大字東新井710番地84,海老沼中公園東側,35.906288,139.659561,緯度経度は怪しい
埼玉県,さいたま市,4-26-6,見沼区大字東新井710番地49,海老沼中央公園南側フェンス,35.906288,139.659561,緯度経度は怪しい
埼玉県,さいたま市,4-26-7,見沼区大字東新井710番地50先,大宮東新井団地「団地東」バス停水路脇フェンス,35.906288,139.659561,緯度経度は怪しい
埼玉県,さいたま市,4-27-1,見沼区大字東新井710番地78,市立片柳児童センター西側フェンス,35.906288,139.659561,緯度経度は怪しい
埼玉県,さいたま市,4-27-2,見沼区大字東新井710番地78,市立片柳児童センター正面入口横フェンス,35.906288,139.659561,緯度経度は怪しい
埼玉県,さいたま市,4-27-3,見沼区大字東新井710番地77,大ヶ谷戸公園東側フェンス,35.906288,139.659561,緯度経度は怪しい
埼玉県,さいたま市,4-27-4,見沼区大字東新井866番地42,海老沼南公園南側フェンス,35.901779,139.663681,緯度経度は怪しい
埼玉県,さいたま市,4-27-5,見沼区大字御蔵1393番地1,鎌倉公園南東側フェンス,35.905003,139.665878,緯度経度は怪しい
埼玉県,さいたま市,4-27-6,見沼区大字中川142番地1,中山神社前,35.899609,139.662918,緯度経度は怪しい
埼玉県,さいたま市,4-27-7,見沼区大字東新井881番地先,マルヤ東新井店西側水路フェンス,35.902794,139.664536,緯度経度は怪しい
埼玉県,さいたま市,4-28-1,見沼区大字中川字天神597番地1,中川第一公園北東側植込み内,35.903385,139.655548,緯度経度は怪しい
埼玉県,さいたま市,4-28-2,見沼区大字上山口新田188番地9,住宅西側道路フェンス,35.896523,139.653763,緯度経度は怪しい
埼玉県,さいたま市,4-28-3,見沼区大字中川字天神599番地,中川第一公園南側法面内,35.903385,139.655548,緯度経度は怪しい
埼玉県,さいたま市,4-28-4,見沼区大字上山口新田508番地1,埼玉県荒川左岸南部流域下水道 さいたま新都心浄化プラント 正面入口左側フェンス,35.900143,139.6492,緯度経度は怪しい
埼玉県,さいたま市,4-28-5,見沼区大字中川898番地,住宅西側畑,35.904388,139.655151,緯度経度は怪しい
埼玉県,さいたま市,4-28-6,見沼区大字中川1042番地,ドゥベスト(株)埼玉(営)車庫南西側フェンス,35.90836,139.650162,緯度経度は怪しい
埼玉県,さいたま市,4-28-7,見沼区大字中川702−4,中川自治会ふれあい広場北側,35.902435,139.655609,緯度経度は怪しい
埼玉県,さいたま市,4-28-8,見沼区大字中川802番地5,中川西公園東側フェンス,35.906689,139.65094,緯度経度は怪しい
埼玉県,さいたま市,5-1-1,中央区円阿弥4丁目3番7号,市立与野西北小学校正門東側フェンス,35.8872753,139.6074769,
埼玉県,さいたま市,5-1-2,中央区円阿弥5丁目385番地7,円阿弥キララ公園,35.892406,139.607132,緯度経度は怪しい
埼玉県,さいたま市,5-1-3,中央区円阿弥7丁目4番1号,県立いずみ高等学校北側フェンス,35.8947786,139.6108724,
埼玉県,さいたま市,5-1-4,中央区円阿弥5丁目1番23号,円阿弥自治会集会所東側フェンス,35.8910186,139.6088946,
埼玉県,さいたま市,5-1-5,中央区円阿弥3丁目62番地1,(有)協栄金型西向側畑,35.889629,139.612137,緯度経度は怪しい
埼玉県,さいたま市,5-1-6,中央区八王子1丁目518番地,浅間神社西側,35.885426,139.613892,緯度経度は怪しい
埼玉県,さいたま市,5-1-7,中央区八王子2丁目618番地2,住宅南側塀,35.883739,139.61142,緯度経度は怪しい
埼玉県,さいたま市,5-2-1,中央区本町東5丁目23番14号,市立与野八幡小学校西側正門フェンス,35.890348,139.621659,
埼玉県,さいたま市,5-2-2,中央区本町西5丁目1251番地3,飲食店駐車場北側植え込み,35.890697,139.615158,緯度経度は怪しい
埼玉県,さいたま市,5-2-3,中央区本町東5丁目23番14号,市立与野八幡小学校南西角フェンス,35.890348,139.621659,
埼玉県,さいたま市,5-2-4,中央区本町東6丁目1000番地,大宮配水場第3取水場西側フェンス,35.892067,139.617676,緯度経度は怪しい
埼玉県,さいたま市,5-2-5,中央区本町西6丁目3番1号西側,学校給食センター西側植え込み,35.8924888,139.6140461,
埼玉県,さいたま市,5-2-6,中央区本町東6丁目109番地1,上町氷川神社南西角フェンス,35.892067,139.617676,緯度経度は怪しい
埼玉県,さいたま市,5-2-7,中央区本町西4丁目17番6号,埼玉県住宅供給公社与野本町ハイツ北側,None,None,緯度経度は怪しい
埼玉県,さいたま市,5-3-1,中央区上落合4丁目1120番地,上落合公園北門左側フェンス,35.892998,139.625046,緯度経度は怪しい
埼玉県,さいたま市,5-3-2,中央区上落合4丁目1120番地,上落合公園西側フェンス,35.892998,139.625046,緯度経度は怪しい
埼玉県,さいたま市,5-3-3,中央区本町東7丁目896番地1,(有)与野自動車東側フェンス,35.892498,139.62059,緯度経度は怪しい
埼玉県,さいたま市,5-3-4,中央区上落合6丁目1034番地6,焼肉屋くいどん大宮店付近交差点北東側道路植え込み,35.894985,139.624603,緯度経度は怪しい
埼玉県,さいたま市,5-3-5,中央区上落合4丁目1120番地,上落合公園南門,35.892998,139.625046,緯度経度は怪しい
埼玉県,さいたま市,5-3-6,中央区本町東7丁目14番6号,市営住宅小村田団地南側フェンス,35.8927571,139.6208045,
埼玉県,さいたま市,5-3-7,中央区上落合4丁目1150番地先,マルエツ与野店東向側植え込み,35.892998,139.625046,緯度経度は怪しい
埼玉県,さいたま市,5-4-1,中央区上落合7丁目1003番地5,上落合北公園西側植え込み,35.897137,139.623642,緯度経度は怪しい
埼玉県,さいたま市,5-4-2,中央区上落合9丁目899番地20,後原児童遊園地東側フェンス,35.900532,139.624008,緯度経度は怪しい
埼玉県,さいたま市,5-4-3,中央区上落合7丁目998番地,上落合7丁目公園東側植え込み,35.897137,139.623642,緯度経度は怪しい
埼玉県,さいたま市,5-4-4,中央区上落合8丁目11番20号,あおぞら保育園南側フェンス,35.8992454,139.6207215,
埼玉県,さいたま市,5-4-5,中央区上落合9丁目935番地11,上落合九丁目公園植え込み,35.900532,139.624008,緯度経度は怪しい
埼玉県,さいたま市,5-4-6,中央区上落合8丁目971番地28,興和ジェネリック(株)関東支店南東側道路植え込み,35.899418,139.622437,緯度経度は怪しい
埼玉県,さいたま市,5-4-7,中央区上落合7丁目1003番地5,上落合北公園南側植え込み,35.897137,139.623642,緯度経度は怪しい
埼玉県,さいたま市,5-5-1,中央区上落合4丁目14番24号,市立上落合小学校給食室北側フェンス,35.8940724,139.6259635,
埼玉県,さいたま市,5-5-2,中央区上落合4丁目14番24号,市立上落合小学校南側南門右側フェンス,35.8940724,139.6259635,
埼玉県,さいたま市,5-5-3,中央区上落合6丁目17番1号,住宅東側ブロック塀,35.8953469,139.626533,
埼玉県,さいたま市,5-5-4,中央区上落合5丁目20番21号,住宅西側ブロック塀,35.8953847,139.628537,
埼玉県,さいたま市,5-5-5,中央区上落合5丁目846番地1,上落合5丁目整圧器室西側フェンス,35.896095,139.627762,緯度経度は怪しい
埼玉県,さいたま市,5-5-6,中央区上落合2丁目7番6号,与野郵政宿舎6号棟東側フェンス,35.8910203,139.6269387,
埼玉県,さいたま市,5-5-7,中央区上落合2丁目527番地4,北与野駅北口右側フェンス,35.890427,139.62735,緯度経度は怪しい
埼玉県,さいたま市,5-6-1,中央区上落合2丁目9番10号,市立上落合保育園西側正門フェンス,35.8896896,139.6262641,
埼玉県,さいたま市,5-6-2,中央区上落合3丁目1177番地4,八幡児童遊園北側フェンス,35.889992,139.624359,緯度経度は怪しい
埼玉県,さいたま市,5-6-3,中央区上落合2丁目1318番地,北与野駅南口ロータリー植え込み,35.890427,139.62735,緯度経度は怪しい
埼玉県,さいたま市,5-6-4,中央区上落合2丁目426番地,北与野駅南西側遊歩道植え込み,35.890427,139.62735,緯度経度は怪しい
埼玉県,さいたま市,5-6-5,中央区上落合3丁目13番26号東側,マンション東側与野中央通り植え込み,35.888389,139.6244447,
埼玉県,さいたま市,5-6-6,中央区上落合3丁目1214番地2,ビッグ・エーさいたま上落合店東側道路植え込み,35.889992,139.624359,緯度経度は怪しい
埼玉県,さいたま市,5-6-7,中央区上落合2丁目352番地4,結婚式場ステラ・デル・アンジェロ南側道路植え込み,35.890427,139.62735,緯度経度は怪しい
埼玉県,さいたま市,5-7-1,中央区上落合1丁目7番33号,市立下落合小学校東側正門左側フェンス,35.8899347,139.6310383,
埼玉県,さいたま市,5-7-2,中央区新都心2番地2先,ホテルブリランテ武蔵野西側道植え込み,35.8905366,139.6332244,
埼玉県,さいたま市,5-7-3,中央区上落合1丁目7番33号,市立下落合小学校南西角フェンス,35.8899347,139.6310383,
埼玉県,さいたま市,5-7-4,中央区新都心3番地1先,さいたま新都心郵便局西側道路植え込み,35.8883224,139.6360163,
埼玉県,さいたま市,5-7-5,中央区新都心5番地2先,小池ビル南側道植え込み,None,None,緯度経度は怪しい
埼玉県,さいたま市,5-7-6,中央区下落合3丁目21番10号,市立与野東中学校南東角フェンス,35.8882021,139.6318,
埼玉県,さいたま市,5-7-7,中央区下落合3丁目937番地先,国道17号・赤山東線交差点北東水路防護フェンス,35.886459,139.632187,緯度経度は怪しい
埼玉県,さいたま市,5-8-1,中央区下落合1712NW,スカイレジデンシャルタワーノースウィング西側植え込み,35.884804,139.636963,緯度経度は怪しい
埼玉県,さいたま市,5-8-2,中央区下落合3丁目8番2号,与野高層住宅B棟南東角フェンス,35.8855357,139.6319274,
埼玉県,さいたま市,5-8-3,中央区大字下落合1002番地9,県道さいたま北袋線路肩,35.886745,139.635544,緯度経度は怪しい
埼玉県,さいたま市,5-8-4,中央区下落合3丁目882番地,稲荷町児童遊園地西門右側フェンス,35.886459,139.632187,緯度経度は怪しい
埼玉県,さいたま市,5-8-5,中央区大字下落合字大原1084-1,大原陸橋西側高架下フェンス,35.882477,139.634491,緯度経度は怪しい
埼玉県,さいたま市,5-8-6,中央区大字下落合1088番地37,たつみ通り植え込み,None,None,緯度経度は怪しい
埼玉県,さいたま市,5-8-7,中央区大字下落合1652番地4東側,旧中山道沿い植え込み,35.88308,139.639877,緯度経度は怪しい
埼玉県,さいたま市,5-8-8,中央区大字下落合1000番地2,月極駐車場北側植え込み,None,None,緯度経度は怪しい
埼玉県,さいたま市,5-9-1,中央区下落合5丁目7番10号,中央区役所本館駐車場植え込み,35.883941,139.6263619,
埼玉県,さいたま市,5-9-2,中央区下落合6丁目193番地2,武蔵野銀行与野支店西側道路植え込み,None,None,緯度経度は怪しい
埼玉県,さいたま市,5-9-3,中央区下落合4丁目73番地7,法務局前交差点公園南東角,None,None,緯度経度は怪しい
埼玉県,さいたま市,5-9-4,中央区下落合5丁目11番10号,下落合プール東側駐輪場フェンス,35.88492919999999,139.6271549,
埼玉県,さいたま市,5-9-5,中央区下落合5丁目8番10号,与野体育館東側植え込み,35.8843472,139.6258683,
埼玉県,さいたま市,5-9-6,中央区下落合5丁目4番17号,下落合公民館東側,35.8843606,139.6285685,
埼玉県,さいたま市,5-9-7,中央区下落合4丁目378番地4,ハイム・ユリー北側植え込み,35.887051,139.627029,緯度経度は怪しい
埼玉県,さいたま市,5-10-1,中央区本町東3丁目5番43号,与野本町コミュニティセンター正門右側フェンス,35.8831982,139.6238096,
埼玉県,さいたま市,5-10-2,中央区本町東4丁目14番7号,大和町自治会館北側,35.8868881,139.6220708,
埼玉県,さいたま市,5-10-3,中央区本町東3丁目5番23号,市立与野本町小学校北側フェンス,35.8837011,139.6229357,
埼玉県,さいたま市,5-10-4,中央区本町東3丁目5番23号,市立与野本町小学校正門左側フェンス,35.8837011,139.6229357,
埼玉県,さいたま市,5-10-5,中央区本町東2丁目112番地1,与野本町駅前西口ロータリー南側,35.881424,139.624161,緯度経度は怪しい
埼玉県,さいたま市,5-10-6,中央区本町東2丁目3番地,与野本町駅東口左側,35.8815124,139.6259236,
埼玉県,さいたま市,5-10-7,中央区本町東1丁目189番地3,エクレール与野本町II南西側道路植え込み,None,None,緯度経度は怪しい
埼玉県,さいたま市,5-11-1,中央区本町西2丁目8番1号,埼玉県立与野高等学校正門北側,35.8842746,139.6184971,
埼玉県,さいたま市,5-11-2,中央区本町西3丁目9番2号,市営上町住宅2号棟東側フェンス,35.8864397,139.6157155,
埼玉県,さいたま市,5-11-3,中央区本町西1丁目1949番地,与野公園南側入口植え込み,35.880283,139.619537,緯度経度は怪しい
埼玉県,さいたま市,5-11-4,中央区本町西1丁目1670番地1,与野公園バラ園南側植え込み,35.880283,139.619537,緯度経度は怪しい
埼玉県,さいたま市,5-11-5,中央区本町西1丁目1670番地1,与野公園内児童遊園北側,35.880283,139.619537,緯度経度は怪しい
埼玉県,さいたま市,5-11-6,中央区本町西2丁目8番1号,埼玉県立与野高等学校校舎北西側,35.8842746,139.6184971,
埼玉県,さいたま市,5-11-7,中央区本町西1丁目1670番地1,与野公園南東側入口植え込み,35.880283,139.619537,緯度経度は怪しい
埼玉県,さいたま市,5-12-1,中央区桜丘2丁目6番28号,西与野コミュニティホール駐車場東側植え込み,35.8823566,139.6152227,
埼玉県,さいたま市,5-12-2,中央区八王子3丁目430番地,月極パーキング中宿II西側フェンス,35.880337,139.612167,緯度経度は怪しい
埼玉県,さいたま市,5-12-3,中央区桜丘2丁目1740番地1,住宅東側,35.882183,139.615295,緯度経度は怪しい
埼玉県,さいたま市,5-12-4,中央区桜丘1丁目2番8号,市営宮前住宅2号棟南側フェンス,35.8781799,139.6163396,
埼玉県,さいたま市,5-12-5,中央区桜丘1丁目2番13号,市営宮前住宅1号棟北側フェンス,35.8788477,139.6161219,
埼玉県,さいたま市,5-12-6,中央区桜丘1丁目2番13号,市営宮前住宅1号棟西側フェンス,35.8788477,139.6161219,
埼玉県,さいたま市,5-12-7,中央区八王子3丁目30番1号,あしすとリハ与野東側フェンス,35.8829799,139.6129548,
埼玉県,さいたま市,5-13-1,中央区八王子4丁目2番1号,市立八王子中学校北側正門フェンス,35.8775537,139.6091393,
埼玉県,さいたま市,5-13-2,中央区八王子4丁目338番地1,八王子野球場東側,35.879971,139.608978,緯度経度は怪しい
埼玉県,さいたま市,5-13-3,中央区八王子4丁目354番地,八王子野球場北西角,35.879971,139.608978,緯度経度は怪しい
埼玉県,さいたま市,5-13-4,中央区八王子5丁目12番17号,市立八王子保育園西側フェンス,35.8806261,139.6053742,
埼玉県,さいたま市,5-13-5,中央区八王子4丁目161番地1,八王子サッカー場北東角フェンス,35.879971,139.608978,緯度経度は怪しい
埼玉県,さいたま市,5-13-6,中央区八王子5丁目176番地2先,かやのき団地1号棟東向側フェンス(白神川),35.879986,139.605988,緯度経度は怪しい
埼玉県,さいたま市,5-13-7,中央区八王子3丁目29番地,住宅駐車場東側フェンス,35.880337,139.612167,緯度経度は怪しい
埼玉県,さいたま市,5-14-1,中央区上峰2丁目3番5号,上峰コミュニティホール正面玄関西側植え込み,35.8740413,139.616555,
埼玉県,さいたま市,5-14-2,中央区上峰2丁目316番地1,住宅東側ブロック塀,35.876064,139.616516,緯度経度は怪しい
埼玉県,さいたま市,5-14-3,中央区上峰2丁目246番地1,ガスト与野上峰店東側空地,35.876064,139.616516,緯度経度は怪しい
埼玉県,さいたま市,5-14-4,中央区上峰2丁目15番,水とふれあいの広場南側フェンス,35.8770362,139.6141323,
埼玉県,さいたま市,5-14-5,中央区上峰2丁目106番地2,諏訪神社南東コンクリート擁壁,35.876064,139.616516,緯度経度は怪しい
埼玉県,さいたま市,5-14-6,中央区上峰1丁目13番,上峰ふれあい公園東側植え込み,35.8719294,139.6172392,
埼玉県,さいたま市,5-14-7,中央区上峰1丁目15番4号,(株)アイチコーポレーション南側ブロック塀,35.8724796,139.6188125,
埼玉県,さいたま市,5-15-1,中央区鈴谷8丁目10番33号,市立与野西中学校北側正門右側フェンス,35.8780538,139.6240109,
埼玉県,さいたま市,5-15-2,中央区鈴谷8丁目10番33号,市立与野西中学校東側東門左側フェンス,35.8780538,139.6240109,
埼玉県,さいたま市,5-15-3,中央区鈴谷8丁目10番33号,市立与野西中学校西側西門左側フェンス,35.8780538,139.6240109,
埼玉県,さいたま市,5-15-4,中央区上峰3丁目15番1号西側,県道宗岡さいたま線彩の国さいたま芸術劇場西側植え込み,35.8770746,139.6220044,
埼玉県,さいたま市,5-15-5,中央区上峰3丁目11番1号,後藤精工(株)東側フェンス,35.8750854,139.6222448,
埼玉県,さいたま市,5-15-6,中央区鈴谷7丁目5番12号,保健所東側植え込み,35.8735131,139.6242325,
埼玉県,さいたま市,5-15-7,中央区鈴谷7丁目5番12号,保健所南側植え込み,35.8735131,139.6242325,
埼玉県,さいたま市,5-16-1,中央区鈴谷6丁目132番地3,レックスパーク鈴谷駐車場南側フェンス,35.87513,139.630112,緯度経度は怪しい
埼玉県,さいたま市,5-16-2,中央区鈴谷9丁目385番地4,小井戸児童遊園地東側フェンス,35.877728,139.628677,緯度経度は怪しい
埼玉県,さいたま市,5-16-3,中央区鈴谷6丁目16,コンテナ与野本町北側フェンス,35.876446,139.630737,緯度経度は怪しい
埼玉県,さいたま市,5-16-4,中央区鈴谷9丁目246番地7,「餃子の王将」東側植え込み,35.877728,139.628677,緯度経度は怪しい
埼玉県,さいたま市,5-16-5,中央区鈴谷6丁目454番地,埼京線高架下資材置場フェンス,35.87513,139.630112,緯度経度は怪しい
埼玉県,さいたま市,5-16-6,中央区鈴谷7丁目8番8号,「肉匠坂井」西側植え込み,35.8749935,139.6249147,
埼玉県,さいたま市,5-16-7,中央区鈴谷6丁目4番1号先,里見通り北側用水路フェンス,35.8739871,139.6306059,
埼玉県,さいたま市,5-17-1,中央区下落合7丁目11番9号,向原児童センター正面右側フェンス,35.8814083,139.6315908,
埼玉県,さいたま市,5-17-2,中央区新中里4丁目1309番地3,中央公園植え込み,35.878624,139.632324,緯度経度は怪しい
埼玉県,さいたま市,5-17-3,中央区下落合7丁目253番地1先,与野中央通り線・たつみ通り線交差点北東水路防護フェンス,35.880772,139.630386,緯度経度は怪しい
埼玉県,さいたま市,5-17-4,中央区下落合7丁目219番地18,与野中央通り線・福原通り線交差点南東側道路植え込み,35.880772,139.630386,緯度経度は怪しい
埼玉県,さいたま市,5-17-5,中央区下落合7丁目2番14号,埼玉機器(株)南側フェンス,35.8801568,139.6318102,
埼玉県,さいたま市,5-17-6,中央区新中里4丁目5番12号,JR東日本与野中里社宅B棟東側フェンス,35.8777839,139.6329526,
埼玉県,さいたま市,5-17-7,中央区新中里4丁目1275番地,中央公園南門右側,35.878624,139.632324,緯度経度は怪しい
埼玉県,さいたま市,5-18-1,中央区新中里3丁目15番1先,東縁高沼用水路東縁フェンス,35.8758237,139.6331112,
埼玉県,さいたま市,5-18-2,中央区新中里5丁目22番17号北側,たつみ通り植え込み,35.881263,139.6361733,
埼玉県,さいたま市,5-18-3,中央区新中里5丁目8番47号,住宅東側塀,35.87783659999999,139.6367376,
埼玉県,さいたま市,5-18-4,中央区新中里3丁目20番30号,島忠ホームズ与野店東側フェンス,35.8767095,139.6357227,
埼玉県,さいたま市,5-18-5,中央区新中里3丁目423番地3,与野中央通り植え込み,35.875782,139.634445,緯度経度は怪しい
埼玉県,さいたま市,5-18-6,中央区新中里5丁目1225番地2,国道17号・たつみ通り交差点南東側植え込み,35.878132,139.636353,緯度経度は怪しい
埼玉県,さいたま市,5-18-7,中央区新中里3丁目398番地2,与野中央通り植え込み,35.875782,139.634445,緯度経度は怪しい
埼玉県,さいたま市,5-19-1,中央区新中里1丁目6番28号,市立大戸小学校東側正門左側フェンス,35.8717825,139.6357896,
埼玉県,さいたま市,5-19-2,中央区新中里1丁目6番28号,市立大戸小学校西側西門左側フェンス,35.8717825,139.6357896,
埼玉県,さいたま市,5-19-3,中央区新中里1丁目13番11号,中里郵政宿舎2号棟北側フェンス,35.8745522,139.636831,
埼玉県,さいたま市,5-19-4,中央区新中里1丁目6番28号,市立大戸小学校南側南門左側フェンス,35.8717825,139.6357896,
埼玉県,さいたま市,5-19-5,中央区新中里1丁目10番1号,県営与野中里団地2号棟正面玄関南側植え込み,35.8735877,139.6361971,
埼玉県,さいたま市,5-19-6,中央区新中里1丁目4番9号,与野大戸郵政宿舎南西角フェンス,35.8706592,139.6359915,
埼玉県,さいたま市,5-19-7,中央区新中里2丁目8番6号,特別養護老人ホームきりしき西側フェンス,35.8722569,139.6339642,
埼玉県,さいたま市,5-20-1,中央区鈴谷5丁目1番1号,市立鈴谷小学校西側正門右側フェンス,35.8710219,139.6322435,
埼玉県,さいたま市,5-20-2,中央区鈴谷5丁目1番1号,市立鈴谷小学校東側東門左側フェンス,35.8710219,139.6322435,
埼玉県,さいたま市,5-20-3,中央区鈴谷2丁目707番地,住宅北西角ブロック塀,35.870197,139.626785,緯度経度は怪しい
埼玉県,さいたま市,5-20-4,中央区鈴谷5丁目1番1号,市立鈴谷小学校北側フェンス,35.8710219,139.6322435,
埼玉県,さいたま市,5-20-5,中央区鈴谷2丁目578番地,鈴谷東公園西側,35.86824,139.629639,緯度経度は怪しい
埼玉県,さいたま市,5-20-6,中央区鈴谷2丁目578番地,南与野駅西口右側フェンス,35.86824,139.629639,緯度経度は怪しい
埼玉県,さいたま市,5-20-7,中央区鈴谷1丁目510番地,鈴谷清掃工場南西側フェンス,35.8664113,139.6321432,
埼玉県,さいたま市,5-20-8,中央区鈴谷2丁目621番地2,与野鈴谷郵便局北東側フェンス,35.869968,139.629532,緯度経度は怪しい
埼玉県,さいたま市,5-21-1,中央区大戸6丁目2番25号,市立与野南小学校北側正門左側フェンス,35.86633,139.6351223,
埼玉県,さいたま市,5-21-2,中央区大戸6丁目2番25号,市立与野南小学校西側フェンス,35.86633,139.6351223,
埼玉県,さいたま市,5-21-3,中央区大戸5丁目629番地2,伊達コーポ北側歩道フェンス,35.868279,139.638,緯度経度は怪しい
埼玉県,さいたま市,5-21-4,中央区大戸6丁目1463番地112,はま寿司南与野店南西道路植え込み,35.868134,139.634079,緯度経度は怪しい
埼玉県,さいたま市,5-21-5,中央区大戸6丁目1490番地2先,がってん寿司南与野店前道路植え込み,35.868134,139.634079,緯度経度は怪しい
埼玉県,さいたま市,5-21-6,中央区大戸5丁目563番地,住宅東側ブロック塀,35.868279,139.638,緯度経度は怪しい
埼玉県,さいたま市,5-21-7,中央区大戸4丁目438番地4,ファミリーマートさいたま大戸四丁目店南側道路植え込み,35.867874,139.641251,緯度経度は怪しい
埼玉県,さいたま市,5-22-1,中央区大戸2丁目6番25号,市立与野南中学校北側正門右側フェンス,35.8655033,139.6338822,
埼玉県,さいたま市,5-22-2,中央区大戸1丁目33番12号,特別養護老人ホーム緑水苑与野フェンス,35.8617445,139.6367155,
埼玉県,さいたま市,5-22-3,中央区大戸2丁目13番,大戸公園北側フェンス,35.864677,139.634995,緯度経度は怪しい
埼玉県,さいたま市,5-22-4,中央区大戸3丁目16番2号,住宅西側ブロック塀,35.8654625,139.6392515,
埼玉県,さいたま市,5-22-5,中央区大戸1丁目18番8号,南大戸橋北側フェンス,35.8599953,139.6378085,
埼玉県,さいたま市,5-22-6,中央区大戸3丁目14番21号,大戸氷川神社東側,35.8656631,139.6371794,
埼玉県,さいたま市,5-22-7,中央区大戸1丁目67番地,別所沼会館北西道路路肩,35.858772,139.63916,緯度経度は怪しい
埼玉県,さいたま市,6-1-1,桜区大字白鍬511番地,市立白鍬保育園西側正門左側フェンス,35.88493,139.604095,緯度経度は怪しい
埼玉県,さいたま市,6-1-2,桜区大字白鍬776番地9,白鍬電建内調整池北側フェンス,35.883915,139.607758,緯度経度は怪しい
埼玉県,さいたま市,6-1-3,桜区大字白鍬771番地9,白鍬第三公園北側,35.88393,139.609039,緯度経度は怪しい
埼玉県,さいたま市,6-1-4,桜区大字白鍬635番地1,ミニコープ白鍬駐車場向かい側空き地南西側,35.887753,139.604721,緯度経度は怪しい
埼玉県,さいたま市,6-1-5,桜区大字白鍬691番地15,白鍬第二公園西側フェンス,35.885841,139.607147,緯度経度は怪しい
埼玉県,さいたま市,6-1-6,桜区大字白鍬335番地1,白鍬公園西側,35.880322,139.60408,緯度経度は怪しい
埼玉県,さいたま市,6-1-7,桜区大字白鍬752,ドラッグストアセキ白鍬店南側水路フェンス,35.882252,139.606644,緯度経度は怪しい
埼玉県,さいたま市,6-2-1,桜区大字五関282番地,市立大久保中学校西側正門右側フェンス,35.867222,139.598022,緯度経度は怪しい
埼玉県,さいたま市,6-2-2,桜区大字五関839番地2,大久保公民館東側正門右側フェンス,35.870346,139.597778,緯度経度は怪しい
埼玉県,さいたま市,6-2-3,桜区大字五関21番地,市立大久保小学校北側門右側フェンス,35.871731,139.598419,緯度経度は怪しい
埼玉県,さいたま市,6-2-4,桜区大字在家135番地,住宅西側ブロック塀,35.87796,139.598099,緯度経度は怪しい
埼玉県,さいたま市,6-2-5,桜区大字宿618番地,埼玉県大久保浄水場東側水路フェンス,35.874802,139.591232,緯度経度は怪しい
埼玉県,さいたま市,6-2-6,桜区塚本140番地12,住宅南側畑,35.8712666,139.5941334,
埼玉県,さいたま市,6-2-7,桜区大字五関586番地1,マンション北側水路フェンス,35.866379,139.59584,緯度経度は怪しい
埼玉県,さいたま市,6-3-1,桜区大字神田541番地1,市立神田小学校東側金網フェンス,35.874935,139.607635,緯度経度は怪しい
埼玉県,さいたま市,6-3-2,桜区大字神田723番地1,神田会館南向側墓地ブロック塀,35.874729,139.611435,緯度経度は怪しい
埼玉県,さいたま市,6-3-3,桜区大字神田38,神田第一公園西側入口 左側フェンス,35.874123,139.611771,緯度経度は怪しい
埼玉県,さいたま市,6-3-4,桜区大字神田95番地,住宅東側万年塀,35.873962,139.610077,緯度経度は怪しい
埼玉県,さいたま市,6-3-5,桜区大字神田541番地1,市立神田小学校南側フェンス,35.874935,139.607635,緯度経度は怪しい
埼玉県,さいたま市,6-3-6,桜区大字白鍬105番地1,マンション北側フェンス,35.875957,139.605576,緯度経度は怪しい
埼玉県,さいたま市,6-3-7,桜区大字白鍬91-1,住宅西側フェンス,35.875351,139.604904,緯度経度は怪しい
埼玉県,さいたま市,6-3-8,桜区大字神田764,アパート西側水路フェンス,35.875912,139.613419,緯度経度は怪しい
埼玉県,さいたま市,6-4-1,桜区大字上大久保861番地1,市立上大久保中学校西側正門左側フェンス,35.872456,139.615952,緯度経度は怪しい
埼玉県,さいたま市,6-4-2,桜区大字上大久保904番地4,作田排水路第一調整池南側フェンス,35.873226,139.611679,緯度経度は怪しい
埼玉県,さいたま市,6-4-3,桜区大字上大久保432番地,西部総合病院院内保育所さくらの家西側ブロック塀,35.871685,139.613785,緯度経度は怪しい
埼玉県,さいたま市,6-4-4,桜区栄和4丁目25番27号,住宅南東側フェンス,35.8687182,139.6157775,
埼玉県,さいたま市,6-4-5,桜区大字上大久保861番地1,市立上大久保中学校西側フェンス,35.872456,139.615952,緯度経度は怪しい
埼玉県,さいたま市,6-4-6,桜区栄和4丁目10番18号,ケーズデンキ埼大通り店南側ガードフェンス,35.8690164,139.6176376,
埼玉県,さいたま市,6-4-7,桜区大字上大久保639番地1,旧埼玉県衛生研究所南側正門右側植え込み,35.867447,139.612488,緯度経度は怪しい
埼玉県,さいたま市,6-5-1,桜区大字上大久保940番地3,市立上大久保保育園南側フェンス,35.86953,139.609451,緯度経度は怪しい
埼玉県,さいたま市,6-5-2,桜区大字上大久保308番地1,物流センター西側フェンス,35.870377,139.610657,緯度経度は怪しい
埼玉県,さいたま市,6-5-3,桜区大字上大久保212番地,住宅南側黒フェンス,35.867123,139.611618,緯度経度は怪しい
埼玉県,さいたま市,6-5-4,桜区大字上大久保680番地,上大久保児童遊園西側フェンス,35.866306,139.612961,緯度経度は怪しい
埼玉県,さいたま市,6-5-5,桜区大字上大久保977番地6,住宅東側ブロック塀,35.866707,139.608032,緯度経度は怪しい
埼玉県,さいたま市,6-5-6,桜区大字上大久保140番地1,埼大前公園東側,35.864746,139.607269,緯度経度は怪しい
埼玉県,さいたま市,6-5-7,桜区大字上大久保140番地3,埼大前公園北側植栽,35.864746,139.607269,緯度経度は怪しい
埼玉県,さいたま市,6-6-1,桜区大字大久保領家331番地,市立大久保東小学校北側金網フェンス,35.871292,139.603546,緯度経度は怪しい
埼玉県,さいたま市,6-6-2,桜区大字大久保領家331番地,市立大久保東小学校南側金網フェンス,35.871292,139.603546,緯度経度は怪しい
埼玉県,さいたま市,6-6-3,桜区大字大久保領家406番地1,住宅西側ブロック塀,35.868954,139.604599,緯度経度は怪しい
埼玉県,さいたま市,6-6-4,桜区大字大久保領家131番地6,大久保東公民館南側掲示板脇植込内,35.870045,139.608429,緯度経度は怪しい
埼玉県,さいたま市,6-6-5,桜区大字神田436番地,住宅東側石塀,35.873829,139.604065,緯度経度は怪しい
埼玉県,さいたま市,6-6-6,桜区大字大久保領家606番地,住宅西側ガードパイプ,35.86599,139.60376,緯度経度は怪しい
埼玉県,さいたま市,6-6-7,桜区大字神田315-1,神田なかよし広場南側フェンス,35.87273,139.603531,緯度経度は怪しい
埼玉県,さいたま市,6-6-8,桜区大字大久保領家579番地1,大久保領家公園北側,35.866169,139.605621,緯度経度は怪しい
埼玉県,さいたま市,6-7-1,桜区大字下大久保1676番地1,浦和西体育館駐車場北側西寄り植込内,35.857872,139.601883,緯度経度は怪しい
埼玉県,さいたま市,6-7-2,桜区大字下大久保1029番地,諏訪社北側ブロック塀,35.861038,139.602036,緯度経度は怪しい
埼玉県,さいたま市,6-7-3,桜区大字下大久保814番地2,住宅南側石塀,35.865345,139.605194,緯度経度は怪しい
埼玉県,さいたま市,6-7-4,桜区大字下大久保640番地1先,埼玉大学国際交流会館4号館入口北側付近フェンス,35.853481,139.593384,緯度経度は怪しい
埼玉県,さいたま市,6-7-5,桜区大字下大久保727番地1,市立老人福祉センター寿楽荘北側フェンス,35.862804,139.603561,緯度経度は怪しい
埼玉県,さいたま市,6-7-6,桜区大字下大久保455番地1先,(株)ケイルート東向側フェンス「埼大裏」バス停付近,35.853481,139.593384,緯度経度は怪しい
埼玉県,さいたま市,6-7-7,桜区大字下大久保291番地,埼玉大学東側フェンス(埼玉障害者職業センター向側),35.853481,139.593384,緯度経度は怪しい
埼玉県,さいたま市,6-8-1,桜区道場2丁目11番27号,栄和公民館北側フェンス,35.85875910000001,139.613292,
埼玉県,さいたま市,6-8-2,桜区栄和5丁目22番,第2冨田駐車場南側ポール,35.867294,139.614563,緯度経度は怪しい
埼玉県,さいたま市,6-8-3,桜区道場2丁目18番,十石田バス停東側水路フェンス,35.8577638,139.6103085,
埼玉県,さいたま市,6-8-4,桜区栄和6丁目5番22号,駐車場北側フェンス,35.8584289,139.6094871,
埼玉県,さいたま市,6-8-5,桜区道場2丁目4番13号,住宅東側フェンス,35.8592405,139.6155784,
埼玉県,さいたま市,6-8-6,桜区栄和6丁目17番10号,住宅北側ブロック塀,35.8615023,139.6128039,
埼玉県,さいたま市,6-8-7,桜区町谷2丁目5番,町谷2丁目公園西側垣根,35.8602839,139.6202667,
埼玉県,さいたま市,6-8-8,桜区道場2丁目1番,サクラディア北東側水路(暗渠)フェンス,35.8594011,139.6168409,
埼玉県,さいたま市,6-9-1,桜区栄和1丁目7番1号,市立栄和小学校東側正門左側フェンス,35.8615328,139.61714,
埼玉県,さいたま市,6-9-2,桜区中島4丁目地内,中島西公園西側フェンス,35.864063,139.619843,緯度経度は怪しい
埼玉県,さいたま市,6-9-3,桜区栄和3丁目16番,栄和3丁目公園西側ガードパイプ,35.866348,139.617767,緯度経度は怪しい
埼玉県,さいたま市,6-9-4,桜区栄和3丁目17番1号,栄和3丁目第一公園西側,35.86571259999999,139.6172806,
埼玉県,さいたま市,6-9-5,桜区栄和1丁目1番1号,アパート東側水路フェンス,35.8614946,139.6200101,
埼玉県,さいたま市,6-9-6,桜区栄和1丁目11番15号,住宅南側駐車場西側ブロック塀,35.8617577,139.6164328,
埼玉県,さいたま市,6-9-7,桜区栄和3丁目4番11号,住宅南側水路フェンス,35.8681168,139.6192377,
埼玉県,さいたま市,6-10-1,桜区中島1丁目28番1号,市立中島小学校西側正門右側ネットフェンス,35.8655744,139.6245874,
埼玉県,さいたま市,6-10-2,桜区山久保2丁目16番,山久保2丁目公園北側,35.87139,139.6220991,
埼玉県,さいたま市,6-10-3,桜区中島1丁目28番1号,市立中島小学校東側フェンス,35.8655744,139.6245874,
埼玉県,さいたま市,6-10-4,桜区中島3丁目12番27号,住宅西側ブロック塀,35.86355289999999,139.6216766,
埼玉県,さいたま市,6-10-5,桜区西堀10丁目11番,栄楽観光バス駐車場北側フェンス,35.8642406,139.6284734,
埼玉県,さいたま市,6-10-6,桜区中島2丁目6番,東京ガス浦和整圧所北側水路フェンス,35.8662458,139.6215642,
埼玉県,さいたま市,6-10-7,桜区中島3丁目2番1号,住宅東側大谷石塀,35.863384,139.6239557,
埼玉県,さいたま市,6-10-8,桜区山久保1丁目11番1号,ロヂャース北側駐車場入り口付近,35.8691786,139.6214805,
埼玉県,さいたま市,6-11-1,桜区町谷1丁目19番1号,市立土合中学校南側正門右側フェンス,35.86060060000001,139.6234636,
埼玉県,さいたま市,6-11-2,桜区南元宿2丁目1番12号,ブエノビエント東側フェンス,35.8615672,139.6296021,
埼玉県,さいたま市,6-11-3,桜区西堀9丁目16番2号,住宅東側塀,35.8623137,139.6313318,
埼玉県,さいたま市,6-11-4,桜区南元宿2丁目6番26号,メルディア南元宿2丁目東側水路フェンス,35.8627209,139.6283016,
埼玉県,さいたま市,6-11-5,桜区町谷1丁目2番24号,廣済堂さいたま第3工場北側ガードパイプ,35.8576668,139.6244097,
埼玉県,さいたま市,6-11-6,桜区南元宿2丁目17番14号,中元児童遊園 南元宿第二自治会掲示板横,35.8622407,139.6264416,
埼玉県,さいたま市,6-11-7,桜区町谷1丁目7番,駐車場北側水路フェンス,35.8580888,139.6229756,
埼玉県,さいたま市,6-12-1,桜区西堀7丁目21番1号,市立土合小学校西側フェンス,35.8579009,139.6272042,
埼玉県,さいたま市,6-12-2,桜区南元宿1丁目8番7号,南元宿自治会館北側フェンス,35.8603747,139.6262167,
埼玉県,さいたま市,6-12-3,桜区西堀8丁目26番26号,西堀ひかわ幼稚園東側ブロック,35.8589251,139.6325288,
埼玉県,さいたま市,6-12-4,桜区西堀7丁目9番1号,マミーマート東側路肩フェンス南,35.8593586,139.6301662,
埼玉県,さいたま市,6-12-5,桜区西堀1丁目16番,須黒稲荷公園南側フェンス,35.856667,139.634567,緯度経度は怪しい
埼玉県,さいたま市,6-12-6,桜区西堀6丁目5番38号,住宅東側ブロック塀,35.85613,139.6307233,
埼玉県,さいたま市,6-12-7,桜区西堀6丁目12番28号,住宅東側ブロック塀,35.8551131,139.6294859,
埼玉県,さいたま市,6-12-8,桜区西堀8丁目1番3号,住宅南側ブロック塀,35.8581869,139.636264,
埼玉県,さいたま市,6-13-1,桜区道場4丁目3番1号,プラザウエスト敷地入り口北側,35.8560069,139.610147,
埼玉県,さいたま市,6-13-2,桜区道場3丁目21番,大谷場高木線沿いファミリーマート道場店反対車線側フェンス,35.8553653,139.6119814,
埼玉県,さいたま市,6-13-3,桜区町谷3丁目6番3号,住宅南側,35.8574756,139.6215059,
埼玉県,さいたま市,6-13-4,桜区道場3丁目3番21号,住宅東側ブロック塀,35.8540219,139.6158616,
埼玉県,さいたま市,6-13-5,桜区道場1丁目9番,道場1丁目公園西側,35.8566772,139.6154069,
埼玉県,さいたま市,6-13-6,桜区町谷4丁目29番31号,(有)境商店北側ブロック塀,35.8540461,139.6166815,
埼玉県,さいたま市,6-13-7,桜区町谷4丁目8番22号,住宅北側フェンス,35.8557188,139.6210443,
埼玉県,さいたま市,6-14-1,桜区新開2丁目18番1号,市立新開小学校東側正門横左側フェンス,35.8507173,139.6174813,
埼玉県,さいたま市,6-14-2,桜区桜田1丁目17番9号,住宅西側ブロック塀,35.8495633,139.6227182,
埼玉県,さいたま市,6-14-3,桜区新開1丁目11番6号,住宅北側フェンス,35.8467175,139.6212427,
埼玉県,さいたま市,6-14-4,桜区新開1丁目6番35号,真光寺墓地東側ブロック塀,35.847689,139.6215077,
埼玉県,さいたま市,6-14-5,桜区新開2丁目21番,浦和卸売市場駐車場東側フェンス,35.85257,139.61734,緯度経度は怪しい
埼玉県,さいたま市,6-14-6,桜区田島9丁目23番,住宅東側駐車場北側ネットフェンス,35.8439635,139.6214618,
埼玉県,さいたま市,6-14-7,桜区新開1丁目14番,新開公園北側,35.8471422,139.619948,
埼玉県,さいたま市,6-15-1,桜区西堀4丁目2番35号,土合支所東側入口右側フェンス,35.8518192,139.6278445,
埼玉県,さいたま市,6-15-2,桜区田島4丁目25番26号,住宅西側ブロック塀,35.8484269,139.6285101,
埼玉県,さいたま市,6-15-3,桜区西堀3丁目13番7号,住宅西側ブロック塀,35.8520864,139.6325702,
埼玉県,さいたま市,6-15-4,桜区西堀3丁目4番20号,住宅北側ブロック塀,35.8540106,139.634529,
埼玉県,さいたま市,6-15-5,桜区西堀3丁目17番28号,住宅北側ブロック塀,35.8533426,139.6301269,
埼玉県,さいたま市,6-15-6,桜区田島4丁目8番21号,田島駐車場東側フェンス,35.8509116,139.6322983,
埼玉県,さいたま市,6-15-7,桜区田島4丁目14番17号,住宅西側フェンス,35.8491283,139.6309138,
埼玉県,さいたま市,6-15-8,桜区西堀4丁目7番1号,イトーピア西浦和北側正門左側フェンス,35.8511275,139.6262908,
埼玉県,さいたま市,6-16-1,桜区田島5丁目10番15号,西浦和駅北側ロータリー沿いフェンス,35.84407,139.62793,緯度経度は怪しい
埼玉県,さいたま市,6-16-2,桜区田島5丁目4番1号,住宅北側「高畠」バス停脇ブロック塀,35.8469443,139.6282627,
埼玉県,さいたま市,6-16-3,桜区田島3丁目27番6号,田島公民館西側フェンス,35.8454532,139.6328224,
埼玉県,さいたま市,6-16-4,桜区田島3丁目4番5号,株式会社近藤組関東支店西側フェンス,35.8475052,139.6327593,
埼玉県,さいたま市,6-16-5,桜区田島3丁目31番,田島東広場南側,35.8464058,139.6338921,
埼玉県,さいたま市,6-16-6,桜区田島5丁目6番8号,マンション南側水路フェンス,35.846224,139.6269394,
埼玉県,さいたま市,6-16-7,桜区田島3丁目15番11号先,住宅西側水路,35.84703940000001,139.6308792,
埼玉県,さいたま市,6-16-8,桜区田島1丁目12番10号,犬の学校ミナクル前植え込み,35.8409789,139.6343315,
埼玉県,さいたま市,6-17-1,桜区田島2丁目16番7号,市立田島保育園西側入口右側ブロック塀,35.8434885,139.6314325,
埼玉県,さいたま市,6-17-2,桜区田島6丁目2番1号,田島団地2-1号棟東側フェンス,35.8419132,139.6313584,
埼玉県,さいたま市,6-17-3,桜区田島6丁目1番10号,田島団地1-10号棟北側フェンス,35.8433365,139.6296089,
埼玉県,さいたま市,6-17-4,桜区田島6丁目1番12号,田島団地1-12号棟北側フェンス,35.8432478,139.6280542,
埼玉県,さいたま市,6-17-5,桜区田島6丁目3番7号,田島団地3-7号棟東側,35.8394827,139.6317334,
埼玉県,さいたま市,6-17-6,桜区田島6丁目1番6号,田島団地1-6号棟南側,35.8421582,139.6299675,
埼玉県,さいたま市,6-17-7,桜区田島6丁目2番16号,田島団地2-16号棟南側,35.8400412,139.6301269,
埼玉県,さいたま市,6-18-1,桜区田島10丁目12番1号,市立田島小学校東側正門右側金網フェンス,35.8377755,139.6233828,
埼玉県,さいたま市,6-18-2,桜区田島8丁目9番1号,住宅東側大谷石塀,35.84363810000001,139.6249968,
埼玉県,さいたま市,6-18-3,桜区田島10丁目9番,すみれパーキング東側ガードパイプ,35.8383847,139.6246488,
埼玉県,さいたま市,6-18-4,桜区田島7丁目16番,(株)ヤマキュー中古車センター南側更地,35.8393849,139.627836,
埼玉県,さいたま市,6-18-5,桜区田島10丁目13番1号,市立田島中学校東側金網フェンス,35.8382357,139.6234062,
埼玉県,さいたま市,6-18-6,桜区田島8丁目20番1号,さいたま市道路維持課分室北側フェンス,35.84213829999999,139.6235603,
埼玉県,さいたま市,6-18-7,桜区田島7丁目2番23号,(財)埼玉県下水道公社西側正門左側フェンス,35.8427139,139.6265997,
埼玉県,さいたま市,7-1-1,浦和区大原3丁目1番11号,市立大原中学校西側正門左側フェンス,35.8932581,139.6481438,
埼玉県,さいたま市,7-1-2,浦和区大原3丁目1番11号,市立大原中学校グラウンド南側フェンス,35.8932581,139.6481438,
埼玉県,さいたま市,7-1-3,浦和区大原3丁目10番1号,埼玉県障害者交流センター 西南側斜面,35.8946229,139.6491946,
埼玉県,さいたま市,7-1-4,浦和区大原2丁目1番,大原テニス場東側準用河川希皇山川フェンス,35.889851,139.651627,緯度経度は怪しい
埼玉県,さいたま市,7-1-5,浦和区大原3丁目1番11号,市立大原中学校北側フェンス,35.8932581,139.6481438,
埼玉県,さいたま市,7-1-6,浦和区上木崎5丁目17番,上木崎足立神社公園南側道路沿い,35.889698,139.645874,緯度経度は怪しい
埼玉県,さいたま市,7-1-7,浦和区上木崎5丁目3番8号,住宅東側ブロック塀,35.8876801,139.6486514,
埼玉県,さいたま市,7-2-1,浦和区木崎3丁目1番1号,県立浦和西高等学校西側フェンス,35.8892189,139.6531205,
埼玉県,さいたま市,7-2-2,浦和区木崎3丁目1番1号,県立浦和西高等学校東側フェンス,35.8892189,139.6531205,
埼玉県,さいたま市,7-2-3,浦和区木崎4丁目23番,木崎4丁目公園西側,35.8887731,139.6616308,
埼玉県,さいたま市,7-2-4,浦和区上木崎7丁目19番,みぬま幼稚園駐車場北側フェンス,35.8896618,139.6482381,
埼玉県,さいたま市,7-2-5,浦和区木崎2丁目18番13号,住宅北側万年塀,35.8881592,139.6553382,
埼玉県,さいたま市,7-2-6,浦和区上木崎7丁目29番,皇山第一公園南西側フェンス,35.8910467,139.649633,
埼玉県,さいたま市,7-2-7,浦和区木崎4丁目18番1号,住宅南側ブロック塀,35.8867554,139.661213,
埼玉県,さいたま市,7-3-1,浦和区上木崎3丁目4番3号,市立上木崎小学校北側正門左側フェンス,35.887757,139.6430129,
埼玉県,さいたま市,7-3-2,浦和区上木崎1丁目14番,上木崎一丁目公園入口右側フェンス,35.8890185,139.6338921,
埼玉県,さいたま市,7-3-3,浦和区上木崎3丁目4番3号,市立上木崎小学校西側フェンス,35.887757,139.6430129,
埼玉県,さいたま市,7-3-4,浦和区上木崎2丁目7番,上木崎2丁目公園南側フェンス,35.8895119,139.6404271,
埼玉県,さいたま市,7-3-5,浦和区上木崎3丁目4番3号,市立上木崎小学校体育館東側フェンス,35.887757,139.6430129,
埼玉県,さいたま市,7-3-6,浦和区上木崎3丁目4番3号,市立上木崎小学校南側南門左側フェンス,35.887757,139.6430129,
埼玉県,さいたま市,7-3-7,浦和区上木崎2丁目5番,新都心大橋高架下西側フェンス,35.888374,139.638718,緯度経度は怪しい
埼玉県,さいたま市,7-3-8,浦和区上木崎1丁目13番,上木崎1丁目西公園北側道路沿い,35.887919,139.634947,
埼玉県,さいたま市,7-4-1,浦和区針ヶ谷3丁目4番14号,針ヶ谷公民館 駐車場フェンス,35.88271530000001,139.6420119,
埼玉県,さいたま市,7-4-2,浦和区上木崎4丁目5番,上木崎大けやき公園西側植込み,35.8849437,139.6450498,
埼玉県,さいたま市,7-4-3,浦和区上木崎4丁目5番,上木崎大けやき公園南側植込み,35.8849437,139.6450498,
埼玉県,さいたま市,7-4-4,浦和区針ヶ谷3丁目2番,針ヶ谷3丁目子供広場北側フェンス,35.8826992,139.6409053,
埼玉県,さいたま市,7-4-5,浦和区針ヶ谷3丁目17番,住宅東側市道ガードパイプ,35.8844864,139.6424993,
埼玉県,さいたま市,7-4-6,浦和区針ヶ谷3丁目1番,針ヶ谷3丁目子供広場東側フェンス,35.8822596,139.6403474,
埼玉県,さいたま市,7-4-7,浦和区上木崎4丁目4番18号,住宅北側ブロック塀,35.8861954,139.6446682,
埼玉県,さいたま市,7-5-1,浦和区針ヶ谷4丁目2番12号,市立常盤北小学校東側フェンス,35.8791321,139.6396948,
埼玉県,さいたま市,7-5-2,浦和区針ヶ谷4丁目7番,針ヶ谷四丁目公園西側フェンス,35.88177,139.6393113,
埼玉県,さいたま市,7-5-3,浦和区針ヶ谷4丁目1番,針ヶ谷西公園東側,35.8775591,139.6391519,
埼玉県,さいたま市,7-5-4,浦和区針ヶ谷4丁目1番9号,市立常盤中学校南東側フェンス,35.8782207,139.6388979,
埼玉県,さいたま市,7-5-5,浦和区針ヶ谷4丁目1番9号,市立常盤中学校南側フェンス,35.8782207,139.6388979,
埼玉県,さいたま市,7-5-6,浦和区針ヶ谷4丁目1番,針ヶ谷西公園西側,35.8775591,139.6391519,
埼玉県,さいたま市,7-5-7,浦和区針ヶ谷4丁目2番12号,市立常盤北小学校東側フェンス,35.8791321,139.6396948,
埼玉県,さいたま市,7-6-1,浦和区針ヶ谷1丁目4番3号,市立針ヶ谷保育園西側入口左側フェンス,35.8797394,139.6420796,
埼玉県,さいたま市,7-6-2,浦和区針ヶ谷1丁目3番7号,JR東北本線線路沿いフェンス (グランシャリオ浦和向い),35.8799137,139.6412723,
埼玉県,さいたま市,7-6-3,浦和区針ヶ谷1丁目18番2号,さいたま市水道局針ヶ谷庁舎南側壁面,35.87911950000001,139.6458069,
埼玉県,さいたま市,7-6-4,浦和区針ヶ谷1丁目18番2号,さいたま市水道局針ヶ谷庁舎東側フェンス,35.87911950000001,139.6458069,
埼玉県,さいたま市,7-6-5,浦和区針ヶ谷1丁目10番2号,住宅西側大谷石塀,35.8801097,139.6436919,
埼玉県,さいたま市,7-6-6,浦和区針ヶ谷1丁目15番,針ヶ谷第2駐車場フェンス,35.8803968,139.6444122,
埼玉県,さいたま市,7-6-7,浦和区針ヶ谷1丁目4番21号,針ケ谷1丁目公園北側フェンス,35.8794644,139.6424264,
埼玉県,さいたま市,7-7-1,浦和区領家6丁目14番13号,領家立野公園南側道路沿い植込み,35.87996460000001,139.648258,
埼玉県,さいたま市,7-7-2,浦和区領家7丁目2番1号,市立針ヶ谷小学校南側入口右側フェンス,35.881896,139.6489898,
埼玉県,さいたま市,7-7-3,浦和区針ヶ谷1丁目21番24号,双恵幼稚園東側フェンス,35.8803792,139.6463718,
埼玉県,さいたま市,7-7-4,浦和区領家7丁目2番1号,市立針ヶ谷小学校東側フェンス,35.881896,139.6489898,
埼玉県,さいたま市,7-7-5,浦和区領家6丁目10番7号,浦和ふれあいの里西側フェンス,35.88059610000001,139.6481116,
埼玉県,さいたま市,7-7-6,浦和区領家7丁目20番16号,市営住宅領家立野団地東側フェンス,35.8831651,139.6483441,
埼玉県,さいたま市,7-7-7,浦和区領家7丁目20番16号,市営住宅領家立野団地南側フェンス,35.8831651,139.6483441,
埼玉県,さいたま市,7-8-1,浦和区領家4丁目19番4号,市立木崎小学校北側正門右側フェンス,35.8828211,139.6534444,
埼玉県,さいたま市,7-8-2,浦和区領家4丁目19番4号,市立木崎小学校西側旧正門左側フェンス,35.8828211,139.6534444,
埼玉県,さいたま市,7-8-3,浦和区皇山町41番,埼玉自動車交通浦和営業所・マル酸液化ガス有限会社北側ブロック塀(県道側),35.8880599,139.6520643,
埼玉県,さいたま市,7-8-4,浦和区皇山町18番1号,聖フランソア幼稚園西側フェンス,35.8856785,139.6541002,
埼玉県,さいたま市,7-8-5,浦和区領家4丁目21番,長覚院児童遊園南側フェンス,35.8822541,139.6539775,
埼玉県,さいたま市,7-8-6,浦和区領家4丁目21番21号,領家公民館東側フェンス,35.88206650000001,139.6537782,
埼玉県,さいたま市,7-8-7,浦和区領家4丁目2番26号,住宅西側フェンス,35.8795976,139.6566805,
埼玉県,さいたま市,7-8-8,浦和区皇山町18番1号,聖フランソア幼稚園北側フェンス,35.8856785,139.6541002,
埼玉県,さいたま市,7-9-1,浦和区大東2丁目13番16号,大東公民館西側フェンス,35.8833841,139.6626226,
埼玉県,さいたま市,7-9-2,浦和区大東2丁目12番1号,市営領家大東団地北側フェンス,35.8839239,139.6614378,
埼玉県,さいたま市,7-9-3,浦和区木崎1丁目12番,浦和石橋公園北側フェンス,35.8841289,139.6623484,
埼玉県,さいたま市,7-9-4,浦和区大東1丁目4番街区,駐車場西側市道ガードパイプ,35.8812418,139.6566082,
埼玉県,さいたま市,7-9-5,浦和区大東2丁目12番1号,市営領家大東団地西側フェンス,35.8839239,139.6614378,
埼玉県,さいたま市,7-9-6,浦和区大東1丁目9番13号,神明児童遊園東側フェンス,35.8818625,139.6585713,
埼玉県,さいたま市,7-9-7,浦和区大東2丁目12番1号,市営領家大東団地南側フェンス,35.8839239,139.6614378,
埼玉県,さいたま市,7-10-1,浦和区大東3丁目14番1号,市立大東小学校東側フェンス,35.8835137,139.664886,
埼玉県,さいたま市,7-10-2,浦和区大東3丁目14番1号,市立大東小学校グラウンド南側フェンス,35.8835137,139.664886,
埼玉県,さいたま市,7-10-3,浦和区大東3丁目17番,大東北児童公園北側フェンス,35.8836346,139.6653781,
埼玉県,さいたま市,7-10-4,浦和区大東3丁目30番,大東東児童公園東側,35.882072,139.667358,緯度経度は怪しい
埼玉県,さいたま市,7-10-5,浦和区大東3丁目3番,大東南児童公園東側フェンス,35.880054,139.666214,緯度経度は怪しい
埼玉県,さいたま市,7-10-6,浦和区大東3丁目3番,大東南児童公園西側フェンス,35.880054,139.666214,緯度経度は怪しい
埼玉県,さいたま市,7-10-7,浦和区大東2丁目3番36号,住宅南側フェンス,35.8809303,139.6626866,
埼玉県,さいたま市,7-11-1,浦和区瀬ヶ崎2丁目17番1号,市立木崎中学校南側正門左側フェンス,35.879076,139.6609319,
埼玉県,さいたま市,7-11-2,浦和区瀬ヶ崎2丁目17番1号,市立木崎中学校東側フェンス,35.879076,139.6609319,
埼玉県,さいたま市,7-11-3,浦和区瀬ヶ崎2丁目6番,瀬ケ崎2丁目第一公園東側フェンス,35.8792872,139.6591195,
埼玉県,さいたま市,7-11-4,浦和区瀬ヶ崎2丁目17番1号,市立木崎中学校南側 正門右側フェンス,35.879076,139.6609319,
埼玉県,さいたま市,7-11-5,浦和区瀬ヶ崎4丁目26番,中耕地公園東側フェンス,35.8762685,139.6669728,
埼玉県,さいたま市,7-11-6,浦和区瀬ヶ崎4丁目23番,道祖土小学校Bグラウンド北側フェンス,35.8750705,139.6673715,
埼玉県,さいたま市,7-11-7,浦和区瀬ヶ崎4丁目13番5号,第二武笠ビル西側駐車場フェンス,35.8772813,139.6649788,
埼玉県,さいたま市,7-12-1,浦和区領家3丁目15番10号,南箇公民館東側フェンス,35.8769747,139.6580015,
埼玉県,さいたま市,7-12-2,浦和区瀬ヶ崎5丁目23番,前島第一公園西側フェンス,35.8743049,139.6641423,
埼玉県,さいたま市,7-12-3,浦和区瀬ヶ崎1丁目23番,瀬ケ崎公園西側フェンス,35.8762854,139.6602755,
埼玉県,さいたま市,7-12-4,浦和区瀬ヶ崎5丁目14番,前島台第三公園北側フェンス,35.8746467,139.6633051,
埼玉県,さいたま市,7-12-5,浦和区駒場2丁目5番,駒場緑地北西側植込み,35.8725197,139.6621092,
埼玉県,さいたま市,7-12-6,浦和区領家3丁目6番,住宅南向側畑ブロック塀,35.8749772,139.6591593,
埼玉県,さいたま市,7-12-7,浦和区駒場2丁目5番,駒場緑地北東側フェンス,35.8725197,139.6621092,
埼玉県,さいたま市,7-13-1,浦和区領家1丁目4番15号,市立本太中学校東側正門右側ブロック塀,35.8735694,139.6583579,
埼玉県,さいたま市,7-13-2,浦和区領家1丁目4番15号,市立本太中学校北側フェンス,35.8735694,139.6583579,
埼玉県,さいたま市,7-13-3,浦和区領家1丁目3番,市立本太中学校球技コート西側フェンス,35.872711,139.660126,緯度経度は怪しい
埼玉県,さいたま市,7-13-4,浦和区領家2丁目2番,領家2丁目公園西側植込み,35.8759945,139.6524629,
埼玉県,さいたま市,7-13-5,浦和区駒場2丁目5番6号,浦和駒場体育館北側北門フェンス,35.8724474,139.6622442,
埼玉県,さいたま市,7-13-6,浦和区駒場2丁目1番1号,駒場運動公園南側入口右手植込み,35.8718613,139.6652011,
埼玉県,さいたま市,7-13-7,浦和区領家1丁目10番,ヴィレーナ浦和領家駐車場北側ブロック塀,35.8757,139.6574054,
埼玉県,さいたま市,7-14-1,浦和区領家5丁目3番3号,県立浦和高等学校西側正門右側フェンス,35.8777345,139.6521378,
埼玉県,さいたま市,7-14-2,浦和区領家5丁目3番3号,県立浦和高等学校北側フェンス,35.8777345,139.6521378,
埼玉県,さいたま市,7-14-3,浦和区領家5丁目3番3号,県立浦和高等学校グラウンド南側フェンス,35.8777345,139.6521378,
埼玉県,さいたま市,7-14-4,浦和区元町3丁目16番,元町3丁目公園北側フェンス,35.875244,139.6516657,
埼玉県,さいたま市,7-14-5,浦和区領家5丁目3番3号,県立浦和高等学校グラウンド西側塀,35.8777345,139.6521378,
埼玉県,さいたま市,7-14-6,浦和区領家5丁目3番3号,県立浦和高等学校テニスコート東側フェンス,35.8777345,139.6521378,
埼玉県,さいたま市,7-14-7,浦和区北浦和1丁目4番16号,住宅南側大谷石塀,35.8747353,139.6465973,
埼玉県,さいたま市,7-14-8,浦和区元町3丁目16番,元町3丁目公園西南隅切り側フェンス,35.875244,139.6516657,
埼玉県,さいたま市,7-15-1,浦和区北浦和2丁目18番3号,市立北浦和小学校北側フェンス (北浦和公民館前あたり),35.8770993,139.6491713,
埼玉県,さいたま市,7-15-2,浦和区北浦和2丁目18番3号,市立北浦和小学校北側植込み,35.8770993,139.6491713,
埼玉県,さいたま市,7-15-3,浦和区北浦和2丁目20番,北浦和東公園南側,35.8789808,139.6472816,
埼玉県,さいたま市,7-15-4,浦和区北浦和2丁目18番3号,市立北浦和小学校西側フェンス,35.8770993,139.6491713,
埼玉県,さいたま市,7-15-5,浦和区北浦和3丁目22番8号,住宅北側フェンス,35.8780282,139.6437094,
埼玉県,さいたま市,7-15-6,浦和区北浦和2丁目3番3号,住宅東側ブロック塀,35.8772781,139.6453231,
埼玉県,さいたま市,7-15-7,浦和区北浦和2丁目20番,北浦和東公園東側,35.8789808,139.6472816,
埼玉県,さいたま市,7-16-1,浦和区常盤9丁目30番1号,常盤公民館右側フェンス,35.8696036,139.6430328,
埼玉県,さいたま市,7-16-2,浦和区北浦和5丁目6番36号,国際交流基金日本語国際センター北側フェンス,35.8744774,139.6416686,
埼玉県,さいたま市,7-16-3,浦和区北浦和5丁目3番,北浦和5丁目第2公園北側フェンス,35.8733333,139.6424993,
埼玉県,さいたま市,7-16-4,浦和区北浦和5丁目1番,市営北浦和自転車駐車場東側フェンス,35.8739659,139.6435354,
埼玉県,さいたま市,7-16-5,浦和区北浦和5丁目4番,市営北浦和駐車場東側入口左側フェンス,35.8735193,139.6415429,
埼玉県,さいたま市,7-16-6,浦和区北浦和5丁目12番11号,和光建設(株)西側フェンス,35.875743,139.6398326,
埼玉県,さいたま市,7-16-7,浦和区常盤9丁目30番22号,浦和ふれあい館北側フェンス,35.8711052,139.6428087,
埼玉県,さいたま市,7-16-8,浦和区北浦和5丁目4番,市営北浦和駐車場北側フェンス,35.8735193,139.6415429,
埼玉県,さいたま市,7-17-1,浦和区常盤9丁目30番9号,市立常盤小学校正門東側フェンス,35.8686557,139.6430672,
埼玉県,さいたま市,7-17-2,浦和区常盤9丁目30番9号,市立常盤小学校西側フェンス,35.8686557,139.6430672,
埼玉県,さいたま市,7-17-3,浦和区常盤9丁目30番9号,市立常盤小学校東側フェンス,35.8686557,139.6430672,
埼玉県,さいたま市,7-17-4,浦和区常盤9丁目30番,浦和北公園西側,35.8697938,139.6432963,
埼玉県,さいたま市,7-17-5,浦和区常盤3丁目15番,JR東北本線線路沿いフェンス(線路西側、北浦和駅と浦和橋の中間辺り),35.8696962,139.6478395,
埼玉県,さいたま市,7-17-6,浦和区常盤3丁目4番,ブリュッケ常盤東側フェンス,35.868101,139.649912,
埼玉県,さいたま市,7-17-7,浦和区常盤9丁目30番,浦和北公園東側,35.8697938,139.6432963,
埼玉県,さいたま市,7-18-1,浦和区元町1丁目28番17号,市立浦和高等学校西側西門横フェンス,35.8715773,139.6565584,
埼玉県,さいたま市,7-18-2,浦和区元町1丁目28番17号,市立浦和高等学校 東側ブロック塀,35.8715773,139.6565584,
埼玉県,さいたま市,7-18-3,浦和区元町1丁目29番,浦和総合運動場北側フェンス,35.869911,139.6581229,
埼玉県,さいたま市,7-18-4,浦和区元町2丁目29番,浦和トーユーハイツ向かい駐車場フェンス,35.8734876,139.6549341,
埼玉県,さいたま市,7-18-5,浦和区元町2丁目21番18号,元町たいよう保育園 北西側フェンス,35.8724816,139.6524667,
埼玉県,さいたま市,7-18-6,浦和区元町1丁目4番7号,駐車場北側パイプフェンス,35.8703332,139.6506429,
埼玉県,さいたま市,7-18-7,浦和区元町2丁目3番,埼玉りそな銀行専用駐車場西側フェンス,35.8721917,139.647999,
埼玉県,さいたま市,7-18-8,浦和区元町1丁目28番17号,市立浦和高等学校北側フェンス,35.8715773,139.6565584,
埼玉県,さいたま市,7-19-1,浦和区元町1丁目29番,浦和総合運動場 西側入口南側フェンス,35.869911,139.6581229,
埼玉県,さいたま市,7-19-2,浦和区本太4丁目24番,浦和総合運動場内テニスコート南側フェンス,35.869083,139.656204,緯度経度は怪しい
埼玉県,さいたま市,7-19-3,浦和区本太4丁目25番,市営浦和球場 南側フェンス,35.868793,139.658463,緯度経度は怪しい
埼玉県,さいたま市,7-19-4,浦和区本太4丁目25番,市営浦和球場 東側門横北側フェンス,35.868793,139.658463,緯度経度は怪しい
埼玉県,さいたま市,7-19-5,浦和区本太5丁目30番,オリックスレンタカー西側住宅東側ガードパイプ,35.8677249,139.6613916,
埼玉県,さいたま市,7-19-6,浦和区本太4丁目25番,本太4丁目公園東側,35.868793,139.658463,緯度経度は怪しい
埼玉県,さいたま市,7-19-7,浦和区本太3丁目27番,三角稲荷神社東側,35.866906,139.6526223,
埼玉県,さいたま市,7-20-1,浦和区本太2丁目26番25号,市立本太小学校東側 正門横フェンス,35.8651899,139.6575875,
埼玉県,さいたま市,7-20-2,浦和区本太4丁目3番,市立本太小学校体育館南側フェンス,35.8661425,139.6576446,
埼玉県,さいたま市,7-20-3,浦和区本太4丁目3番23号,市立本太公民館 北側フェンス,35.8667471,139.6579843,
埼玉県,さいたま市,7-20-4,浦和区本太3丁目20番,高架下三角稲荷公園 南側フェンス,35.8662945,139.652702,
埼玉県,さいたま市,7-20-5,浦和区本太5丁目10番11号,さいたま市消防団本太分団北側フェンス,35.8672106,139.6599551,
埼玉県,さいたま市,7-20-6,浦和区本太5丁目12番,グランパレス本太東側空地,35.8670347,139.6616308,
埼玉県,さいたま市,7-20-7,浦和区本太4丁目12番3号,住宅北側フェンス,35.8668274,139.6557513,
埼玉県,さいたま市,7-21-1,浦和区常盤9丁目3番,常盤児童公園東側フェンス,35.8669578,139.6467236,
埼玉県,さいたま市,7-21-2,浦和区常盤2丁目13番,新浦和橋南側高架下フェンス,35.8664203,139.6507091,
埼玉県,さいたま市,7-21-3,浦和区常盤2丁目13番,新浦和橋北側高架下フェンス,35.8664203,139.6507091,
埼玉県,さいたま市,7-21-4,浦和区常盤2丁目4番,新浦和橋南側高架下フェンス,35.866572,139.6517056,
埼玉県,さいたま市,7-21-5,浦和区常盤5丁目8番17号,NTT東日本常盤ビル東側フェンス,35.8658957,139.6476037,
埼玉県,さいたま市,7-21-6,浦和区常盤5丁目8番17号,NTT東日本常盤ビル北側フェンス,35.8658957,139.6476037,
埼玉県,さいたま市,7-21-7,浦和区常盤5丁目8番17号,NTT東日本常盤ビル南側歩道,35.8658957,139.6476037,
埼玉県,さいたま市,7-21-8,浦和区常盤2丁目2番,JR東北本線線路沿いフェンス(線路西側、浦和駅から約900m北),35.8651503,139.652702,
埼玉県,さいたま市,7-22-1,浦和区常盤6丁目4番4号,市役所セントラルガーデン東側,35.8623008,139.6457387,
埼玉県,さいたま市,7-22-2,浦和区仲町4丁目23番,さいたま市水道局土合浄水場第6号取水場フェンス,35.8595583,139.6411444,
埼玉県,さいたま市,7-22-3,浦和区常盤8丁目18番4号,市立仲町小学校グラウンド 南側陸橋付近フェンス,35.8642244,139.6409682,
埼玉県,さいたま市,7-22-4,浦和区常盤6丁目9番44号,埼玉大学附属小学校東側フェンス,35.86267,139.6431518,
埼玉県,さいたま市,7-22-5,浦和区常盤8丁目18番4号,市立仲町小学校正門北側,35.8642244,139.6409682,
埼玉県,さいたま市,7-22-6,浦和区高砂4丁目12番9号,住宅西側ブロック塀,35.8576253,139.6453487,
埼玉県,さいたま市,7-22-7,浦和区常盤6丁目4番4号,市役所第二別館北側フェンス,35.8623008,139.6457387,
埼玉県,さいたま市,7-22-8,浦和区常盤6丁目14番,さいたま市水道局水道庁舎西南フェンス,35.862625,139.642166,緯度経度は怪しい
埼玉県,さいたま市,7-23-1,浦和区常盤4丁目1番12号,仲町公民館西側ブロック塀,35.8613741,139.6498447,
埼玉県,さいたま市,7-23-2,浦和区仲町3丁目5番8号,危機管理防災センター北側フェンス,35.8595722,139.6486519,
埼玉県,さいたま市,7-23-3,浦和区常盤1丁目8番,常盤公園東側フェンス,35.862453,139.6513558,
埼玉県,さいたま市,7-23-4,浦和区仲町1丁目8番,JR東北本線線路沿いガードパイプ,35.8614322,139.6554522,
埼玉県,さいたま市,7-23-5,浦和区仲町2丁目6番,仲町公園北側入口西側フェンス,35.861303,139.6523831,
埼玉県,さいたま市,7-23-6,浦和区仲町3丁目5番8号,危機管理防災センター西側フェンス,35.8595722,139.6486519,
埼玉県,さいたま市,7-23-7,浦和区常盤1丁目2番,JR東北本線線路沿いフェンス,35.8632477,139.6536586,
埼玉県,さいたま市,7-23-8,浦和区常盤1丁目8番,常盤公園南側フェンス,35.862453,139.6513558,
埼玉県,さいたま市,7-24-1,浦和区本太2丁目12番31号,市立仲本小学校西側フェンス,35.8617137,139.6608729,
埼玉県,さいたま市,7-24-2,浦和区本太2丁目12番31号,市立仲本小学校北側フェンス,35.8617137,139.6608729,
埼玉県,さいたま市,7-24-3,浦和区本太2丁目12番31号,市立仲本小学校南側フェンス,35.8617137,139.6608729,
埼玉県,さいたま市,7-24-4,浦和区東仲町28番16号,市立東仲町保育園西側フェンス,35.8606051,139.6601013,
埼玉県,さいたま市,7-24-5,浦和区東高砂町10番,浦和駅東口パルコ北側緑地部,35.858429,139.658508,緯度経度は怪しい
埼玉県,さいたま市,7-24-6,浦和区本太2丁目16番12号,住宅東側トタン塀,35.8644523,139.6600003,
埼玉県,さいたま市,7-24-7,浦和区東高砂町148番6,浦和駅東口駅前市民広場西側フェンス,35.85796,139.659637,緯度経度は怪しい
埼玉県,さいたま市,7-24-8,浦和区東仲町2番26号,JR東北本線線路沿いフェンス,35.8605899,139.6563706,
埼玉県,さいたま市,7-25-1,浦和区東岸町8番,浦和消防署日の出出張所西側フェンス,35.8545754,139.6619497,
埼玉県,さいたま市,7-25-2,浦和区東岸町18番,東岸町第一公園,35.8523696,139.6664147,
埼玉県,さいたま市,7-25-3,浦和区東岸町1番,NPCアトレ浦和自動二輪駐車場東側フェンス,35.855104,139.6615312,
埼玉県,さいたま市,7-25-4,浦和区前地1丁目1番11号,前地1丁目第一公園,35.8576752,139.6658466,
埼玉県,さいたま市,7-25-5,浦和区前地2丁目11番,住宅南側駐車場ブロック塀,35.856598,139.664037,
埼玉県,さいたま市,7-25-6,浦和区前地2丁目13番,前地パーキングA 北側ブロック&フェンス,35.8560019,139.6628267,
埼玉県,さいたま市,7-25-7,浦和区東岸町16番5号,住宅北側ブロック塀,35.8527302,139.6647,
埼玉県,さいたま市,7-25-8,浦和区東岸町1番28号,JR東北本線線路沿いフェンス,35.8551542,139.6605246,
埼玉県,さいたま市,7-26-1,浦和区岸町4丁目1番29号,市立高砂小学校西側フェンス,35.8565285,139.6567841,
埼玉県,さいたま市,7-26-2,浦和区岸町4丁目1番29号,市立高砂小学校南側フェンス,35.8565285,139.6567841,
埼玉県,さいたま市,7-26-3,浦和区高砂1丁目11番,コルソ東側前植樹帯,35.858387,139.656479,緯度経度は怪しい
埼玉県,さいたま市,7-26-4,浦和区高砂1丁目9番,高砂1丁目公園,35.8569422,139.6562893,
埼玉県,さいたま市,7-26-5,浦和区高砂2丁目15番,玉蔵院北側フェンス,35.8588964,139.6526223,
埼玉県,さいたま市,7-26-6,浦和区高砂2丁目15番,浦和中央公園,35.8588964,139.6526223,
埼玉県,さいたま市,7-26-7,浦和区岸町1丁目15番,住宅北側ブロック塀,35.8513017,139.663943,
埼玉県,さいたま市,7-26-8,浦和区高砂3丁目37番1号,埼玉県庁第三庁舎西側,35.856701,139.650146,緯度経度は怪しい
埼玉県,さいたま市,7-27-1,浦和区岸町5丁目1番3号,岸町公民館西側,35.852151,139.6546949,
埼玉県,さいたま市,7-27-2,浦和区岸町6丁目5番12号,市立岸町保育園西側フェンス,35.853742,139.6516893,
埼玉県,さいたま市,7-27-3,浦和区岸町3丁目8番45号,県立浦和第一女子高等学校北側フェンス,35.8525488,139.6589241,
埼玉県,さいたま市,7-27-4,浦和区岸町3丁目8番45号,県立浦和第一女子高等学校西側フェンス,35.8525488,139.6589241,
埼玉県,さいたま市,7-27-5,浦和区岸町5丁目20番4号,市立岸町小学校北側フェンス,35.851084,139.6504281,
埼玉県,さいたま市,7-27-6,浦和区岸町5丁目20番4号,市立岸町小学校南側入口右側フェンス,35.851084,139.6504281,
埼玉県,さいたま市,7-27-7,浦和区岸町3丁目17番,調公園わんぱく広場,35.8533556,139.6557313,
埼玉県,さいたま市,7-27-8,浦和区岸町3丁目17番25号,調神社西側フェンス,35.853432,139.655106,緯度経度は怪しい
埼玉県,さいたま市,7-28-1,浦和区本太1丁目8番16号,浦和専門学校東校舎駐車場フェンス,35.8618396,139.6642144,
埼玉県,さいたま市,7-28-2,浦和区本太1丁目41番7号,足利銀行浦和家族寮B棟北側ブロック塀,35.8634503,139.6607045,
埼玉県,さいたま市,7-28-3,浦和区本太5丁目15番,本太坂下交差点ガードパイプ,35.866948,139.6635443,
埼玉県,さいたま市,7-28-4,浦和区本太1丁目12番21号,藤右衛門川通り沿い植込み (グリーンハイツ前),35.8640891,139.6653996,
埼玉県,さいたま市,7-28-5,浦和区前地3丁目17番,藤右衛門川通り沿い植込み(ココス浦和店東側),35.86095299999999,139.6664147,
埼玉県,さいたま市,7-28-6,浦和区前地3丁目14番22号,前地3丁目第一公園,35.8604375,139.6650692,
埼玉県,さいたま市,7-28-7,浦和区本太1丁目8番,プライムコート北側ガードパイプ,35.8617696,139.6641822,
埼玉県,さいたま市,7-28-8,浦和区前地3丁目10番,どんぐり山児童遊園フェンス,35.8601278,139.6648997,
埼玉県,さいたま市,8-1-1,南区別所2丁目5番34号,市立浦和別所小学校北側正門右側フェンス,35.8493325,139.6482381,
埼玉県,さいたま市,8-1-2,南区別所2丁目5番34号,市立浦和別所小学校南側フェンス,35.8493325,139.6482381,
埼玉県,さいたま市,8-1-3,南区別所3丁目12番4号,住宅北側駐車場フェンス,35.8545567,139.6467834,
埼玉県,さいたま市,8-1-4,南区別所2丁目14番9号,住宅北側フェンス,35.8519484,139.6460207,
埼玉県,さいたま市,8-1-5,南区別所2丁目5番34号,市立浦和別所小学校プール北側植込み,35.8493325,139.6482381,
埼玉県,さいたま市,8-1-6,南区別所2丁目15番6号,別所中央公園東側フェンス,35.85135959999999,139.6461332,
埼玉県,さいたま市,8-1-7,南区別所2丁目38番,別所二丁目公園東側入口の右側,35.8508412,139.6436228,
埼玉県,さいたま市,8-2-1,南区別所5丁目21番13号,別所公民館東側フェンス,35.8495117,139.6436527,
埼玉県,さいたま市,8-2-2,南区別所5丁目23番,セイコーハウス西側の花と緑の散歩道西側,35.849232,139.642914,緯度経度は怪しい
埼玉県,さいたま市,8-2-3,南区別所5丁目14番,花と緑の散歩道東側,35.8516237,139.6418617,
埼玉県,さいたま市,8-2-4,南区別所5丁目13番,ヤクルト駐車場西側の花と緑の散歩道東側,35.8520135,139.6419414,
埼玉県,さいたま市,8-2-5,南区別所6丁目13番,ペアパレス武蔵浦和西側の花と緑の散歩道東側,35.8487014,139.6440136,
埼玉県,さいたま市,8-2-6,南区別所6丁目10番,清光ハイツ西側の花と緑の散歩道東側,35.8477998,139.6449701,
埼玉県,さいたま市,8-2-7,南区別所5丁目8番,花と緑の散歩道東側,35.8532509,139.6414632,
埼玉県,さいたま市,8-3-1,南区鹿手袋1丁目4番14号先,鹿手袋1丁目自治会集会所入口右側植込み手前,35.8545996,139.6378269,
埼玉県,さいたま市,8-3-2,南区関2丁目8番24号先,住宅向かい側水路フェンス,35.8495082,139.6346929,
埼玉県,さいたま市,8-3-3,南区別所4丁目2番5号,埼玉大学教育学部附属中学校南側ブロック塀,35.855579,139.643143,緯度経度は怪しい
埼玉県,さいたま市,8-3-4,南区別所4丁目16番,別所沼公園南側の駐車場入口の西側,35.857132,139.639862,緯度経度は怪しい
埼玉県,さいたま市,8-3-5,南区別所4丁目2番5号,埼玉大学教育学部附属中学校北側正門の右側,35.855579,139.643143,緯度経度は怪しい
埼玉県,さいたま市,8-3-6,南区関1丁目12番19号,サンハイツ南側水路フェンス,35.8511223,139.6354113,
埼玉県,さいたま市,8-3-7,南区鹿手袋1丁目1番1号先,浦和スプリングレーン南側水路の転落防止柵,35.85344,139.6381092,
埼玉県,さいたま市,8-4-1,南区鹿手袋4丁目1番12号,市立武蔵浦和保育園東側フェンス,35.8486968,139.6421406,
埼玉県,さいたま市,8-4-2,南区鹿手袋4丁目1番7号,埼玉建産連会館の北側入口保育園寄り植込み,35.8486358,139.6417404,
埼玉県,さいたま市,8-4-3,南区鹿手袋4丁目21番29号先,住宅前の水路フェンス,35.8490443,139.6365622,
埼玉県,さいたま市,8-4-4,南区鹿手袋4丁目27番1号,埼玉県障がい者共同作業所正門入口右側フェンス,35.8478892,139.6388282,
埼玉県,さいたま市,8-4-5,南区鹿手袋7丁目18番3号,ライオンズステージ武蔵浦和南側排水溝フェンス,35.8448032,139.6356963,
埼玉県,さいたま市,8-4-6,南区鹿手袋3丁目8番9号先,エステイトマンション西側道路反対側の水路跡フェンス,35.8506356,139.6372379,
埼玉県,さいたま市,8-4-7,南区鹿手袋3丁目11番1号,さいたま市浦和西部まちづくり事務所東側コンクリート塀裏側自転車置き場との間,35.8504479,139.6399297,
埼玉県,さいたま市,8-4-8,南区鹿手袋4丁目1番7号,埼玉建産連会館の北側入口保育園反対側植込み,35.8486358,139.6417404,
埼玉県,さいたま市,8-5-1,南区別所7丁目14番28号,市立浦和大里小学校南側正門右側フェンス,35.8456246,139.6439439,
埼玉県,さいたま市,8-5-2,南区別所7丁目14番28号,市立浦和大里小学校東側フェンス,35.8456246,139.6439439,
埼玉県,さいたま市,8-5-3,南区四谷2丁目9番,四谷公園内南側植込み,35.842443,139.6361235,
埼玉県,さいたま市,8-5-4,南区別所7丁目15番,サウスピア駐車場棟入口脇植込み,35.84648749999999,139.644731,
埼玉県,さいたま市,8-5-5,南区鹿手袋6丁目4番,鹿手袋さくら公園入口右側,35.8458497,139.6390722,
埼玉県,さいたま市,8-5-6,南区鹿手袋5丁目17-41,鹿手袋5丁目公園フェンス,35.8451083,139.6409352,
埼玉県,さいたま市,8-5-7,南区別所7丁目14-38,別所大里公園植え込み,35.8454247,139.6430226,
埼玉県,さいたま市,8-5-8,南区鹿手袋5丁目2番27号,住宅西側ブロック塀,35.8463527,139.6400087,
埼玉県,さいたま市,8-6-1,南区沼影1丁目7番,武蔵浦和駅西口広場植え込み,35.844559,139.645416,緯度経度は怪しい
埼玉県,さいたま市,8-6-2,南区白幡5丁目4番,リブレ白幡第1駐車場南側水路跡フェンス,35.8438098,139.6501512,
埼玉県,さいたま市,8-6-3,南区白幡5丁目17番,武蔵浦和臨時第二駐輪場東側フェンス,35.8442149,139.6491728,
埼玉県,さいたま市,8-6-4,南区白幡5丁目18番,ケイ・エス・ワイコインパーキング南側水路フェンス,35.8445974,139.6485569,
埼玉県,さいたま市,8-6-5,南区別所7丁目1番,武蔵浦和駅前ハイツ北側歩道植込み,35.8462063,139.649354,
埼玉県,さいたま市,8-6-6,南区白幡4丁目13番24号,浦和白幡市街地住宅2南側フェンス,35.8423745,139.6544506,
埼玉県,さいたま市,8-6-7,南区白幡5丁目19番25号,聖みどり病院北側田島通り沿いフェンス,35.8451679,139.6484586,
埼玉県,さいたま市,8-6-8,南区白幡6丁目19番,ベルメゾン武蔵浦和北側水路フェンス,35.8407331,139.6517454,
埼玉県,さいたま市,8-7-1,南区沼影2丁目8番36号,市立沼影小学校西側正門右側フェンス,35.8392429,139.646667,
埼玉県,さいたま市,8-7-2,南区沼影2丁目8番36号,市立沼影小学校南側T字路向かい側フェンス,35.8392429,139.646667,
埼玉県,さいたま市,8-7-3,南区沼影2丁目8番36号,市立沼影小学校東側フェンス,35.8392429,139.646667,
埼玉県,さいたま市,8-7-4,南区沼影1丁目27番8号,駐車場北側ブロック塀,35.8427835,139.6427925,
埼玉県,さいたま市,8-7-5,南区沼影2丁目5番,沼影市民プール北西側水路柵,35.8408941,139.6450498,
埼玉県,さいたま市,8-7-6,南区沼影2丁目6番,沼影市民プール北東側水路柵,35.841221,139.646042,緯度経度は怪しい
埼玉県,さいたま市,8-7-7,南区沼影2丁目5番,沼影市民プール北側水路柵,35.8408941,139.6450498,
埼玉県,さいたま市,8-8-1,南区曲本4丁目5番7号,曲本保育園南側フェンス,35.838091,139.6420853,
埼玉県,さいたま市,8-8-2,南区曲本4丁目2-31,駐車場西側フェンス,35.8388697,139.6398094,
埼玉県,さいたま市,8-8-3,南区曲本4丁目4番,西浦和公園東側,35.8387787,139.6412241,
埼玉県,さいたま市,8-8-4,南区沼影2丁目1番先,さいたま市沼影ポンプ場南側の西側入口手前の転落防止フェンス,35.8398653,139.6424993,
埼玉県,さいたま市,8-8-5,南区沼影2丁目12番,沼影二丁目公園の南側フェンス,35.8390568,139.6429775,
埼玉県,さいたま市,8-8-6,南区沼影1丁目30番,沼影一丁目第二公園の北側,35.8414035,139.6417023,
埼玉県,さいたま市,8-8-7,南区沼影2丁目2番先,エステート浦和4号棟向かいの転落防止フェンス,35.8398364,139.6431369,
埼玉県,さいたま市,8-8-8,南区沼影2丁目4番7号,さいたま県土整備事務所東側のフェンス,35.8408915,139.6441099,
埼玉県,さいたま市,8-9-1,南区曲本2丁目7番11号,西浦和公民館東側入口,35.837777,139.6388625,
埼玉県,さいたま市,8-9-2,南区曲本3丁目6番12号,住宅北側上段フェンス,35.836945,139.638977,緯度経度は怪しい
埼玉県,さいたま市,8-9-3,南区四谷1丁目3番,四谷一丁目公園東側,35.8396,139.633652,緯度経度は怪しい
埼玉県,さいたま市,8-9-4,南区曲本2丁目4番,西浦和けやき公園西側掲示板左側,35.83809129999999,139.6350875,
埼玉県,さいたま市,8-9-5,南区四谷3丁目7番34号,四ッ谷会館北側ブロック塀,35.8416571,139.6383611,
埼玉県,さいたま市,8-9-6,南区四谷3丁目4,四谷3丁目公園入り口,35.840572,139.637466,緯度経度は怪しい
埼玉県,さいたま市,8-9-7,南区曲本2丁目11-13先,鉄塔フェンス(京北線No.97),35.8369971,139.6364044,
埼玉県,さいたま市,8-9-8,南区四谷3丁目13−20,メディカルホームまどか武蔵浦和フェンス,35.8394067,139.6378352,
埼玉県,さいたま市,8-10-1,南区松本3丁目12番8号,まつもと幼稚園東側フェンス,35.8338982,139.6275864,
埼玉県,さいたま市,8-10-2,南区内谷1丁目1番10号先,コーテック浦和工場西側水路フェンス,35.8339793,139.6313075,
埼玉県,さいたま市,8-10-3,南区松本2丁目9番,松本2丁目公園西側,35.8350938,139.627836,
埼玉県,さいたま市,8-10-4,南区松本1丁目15番8号,住宅西側入口左側ブロック塀,35.8368157,139.6265198,
埼玉県,さいたま市,8-10-5,南区松本2丁目22番,松本二丁目第一公園北側,35.8352379,139.6246488,
埼玉県,さいたま市,8-10-6,南区松本4丁目17番,住宅向かい側の水路フェンス,35.8316449,139.6313421,
埼玉県,さいたま市,8-10-7,南区内谷1丁目5番22号,住宅西側トタン塀,35.8320298,139.6324656,
埼玉県,さいたま市,8-10-8,南区内谷1丁目11番15号先,ライオンズマンション武蔵浦和北西側畑横の水路フェンス,35.8301468,139.632542,
埼玉県,さいたま市,8-11-1,南区曲本1丁目3番5号,市立西浦和小学校北側正門金網フェンス,35.8380507,139.6296883,
埼玉県,さいたま市,8-11-2,南区曲本1丁目3番5号,市立西浦和小学校東側東門金網フェンス,35.8380507,139.6296883,
埼玉県,さいたま市,8-11-3,南区曲本1丁目11番8号,住宅北側ブロック塀,35.8363299,139.6335017,
埼玉県,さいたま市,8-11-4,南区内谷2丁目2番9号,住宅北側ブロック塀,35.8347105,139.6347026,
埼玉県,さいたま市,8-11-5,南区曲本1丁目12番5号先,住宅向かい側水路フェンス,35.83574,139.6333064,
埼玉県,さいたま市,8-11-6,南区内谷2丁目15番11号,住宅東側ブロック塀,35.83266649999999,139.6352691,
埼玉県,さいたま市,8-11-7,南区内谷3丁目11番7号,一乗院南側住宅東側ブロック塀,35.833438,139.6392108,
埼玉県,さいたま市,8-12-1,南区内谷6丁目10番1号,市立内谷中学校西側正門右側鉄柵塀,35.8354688,139.6468731,
埼玉県,さいたま市,8-12-2,南区内谷6丁目10番1号,市立内谷中学校北西角フェンス,35.8354688,139.6468731,
埼玉県,さいたま市,8-12-3,南区内谷6丁目10番1号,市立内谷中学校東側裏門右側フェンス,35.8354688,139.6468731,
埼玉県,さいたま市,8-12-4,南区内谷6丁目3番,内谷6丁目第一公園内フェンス,35.8365942,139.6468033,
埼玉県,さいたま市,8-12-5,南区内谷5丁目3番13号先,内谷5丁目集会所南側(田圃の南側)転落防止柵,35.832467,139.643278,
埼玉県,さいたま市,8-12-6,南区内谷4丁目12番12号先,空き地南東側フェンス,35.834157,139.6445782,
埼玉県,さいたま市,8-12-7,南区内谷4丁目5番,内谷4丁目公園西側鉄柵,35.8352875,139.6424993,
埼玉県,さいたま市,8-12-8,南区内谷6丁目6番,内谷橋公園西側北西,35.8363415,139.6507889,
埼玉県,さいたま市,8-13-1,南区辻3丁目10番15号,市立辻保育園西側ブロック塀,35.8393632,139.657466,
埼玉県,さいたま市,8-13-2,南区白幡6丁目15番,白幡配水場水といこいの広場南側フェンス,35.8391449,139.6520643,
埼玉県,さいたま市,8-13-3,南区白幡6丁目15番16号,白幡配水場北側フェンス,35.8388805,139.6522735,
埼玉県,さいたま市,8-13-4,南区辻3丁目6番,山口第一公園南側フェンス,35.8405259,139.6570865,
埼玉県,さいたま市,8-13-5,南区白幡4丁目9番,グランメール白幡南東側水路フェンス,35.840331,139.6542963,
埼玉県,さいたま市,8-13-6,南区白幡6丁目3番先,六辻水辺公園中央部コンクリート疑木柵右端,35.8360678,139.6536586,
埼玉県,さいたま市,8-13-7,南区辻3丁目2番30号,六辻交番北側側道内植込み,35.8394269,139.6600492,
埼玉県,さいたま市,8-13-8,南区白幡4丁目8番,ざ・ほわいときんぐ北西側水路フェンス,35.8410028,139.655253,
埼玉県,さいたま市,8-14-1,南区白幡3丁目1番2号,市立白幡保育園正門右側フェンス,35.8448637,139.6555495,
埼玉県,さいたま市,8-14-2,南区白幡3丁目10番,白幡緑道東側,35.8460408,139.6514266,
埼玉県,さいたま市,8-14-3,南区根岸5丁目18番10号,県営浦和第二高層住宅B西側フェンス,35.8422984,139.6567725,
埼玉県,さいたま市,8-14-4,南区根岸5丁目9番1号,住宅北側ブロック塀,35.8434513,139.6583177,
埼玉県,さいたま市,8-14-5,南区根岸5丁目14番4号,埼玉ダイハツ販売(株)浦和店北側フェンス西側,35.8437655,139.6551823,
埼玉県,さいたま市,8-14-6,南区白幡3丁目1番2号,市立白幡保育園北側フェンス,35.8448637,139.6555495,
埼玉県,さいたま市,8-14-7,南区白幡3丁目9番12号,南浦和センチュリーマンション国道側ブロック塀,35.8452172,139.6522753,
埼玉県,さいたま市,8-14-8,南区根岸5丁目19番10号,レクサスさいたま南 東側フェンス,35.8414196,139.6578837,
埼玉県,さいたま市,8-15-1,南区白幡2丁目19番39号,県立浦和商業高等学校東側フェンス,35.8499922,139.6507938,
埼玉県,さいたま市,8-15-2,南区白幡2丁目19番,白幡沼西側白幡緑道,35.8492667,139.6512671,
埼玉県,さいたま市,8-15-3,南区白幡2丁目16番8号,醫王寺入口壁,35.8480566,139.6529911,
埼玉県,さいたま市,8-15-4,南区白幡2丁目18番,市立白幡中学校武道場北側フェンス,35.8489725,139.6530209,
埼玉県,さいたま市,8-15-5,南区白幡2丁目8番12,第2けやき駐車場西側フェンス,35.8494915,139.6555968,
埼玉県,さいたま市,8-15-6,南区別所1丁目26番10号,パウンドマンション前白幡緑道南側入口,35.8479116,139.6504003,
埼玉県,さいたま市,8-15-7,南区白幡2丁目19番,白幡緑道北側入口,35.8492667,139.6512671,
埼玉県,さいたま市,8-16-1,南区白幡1丁目1番22号,市立南浦和小学校北側フェンス,35.8452683,139.6580201,
埼玉県,さいたま市,8-16-2,南区白幡1丁目1番22号,市立南浦和小学校西側ブロック,35.8452683,139.6580201,
埼玉県,さいたま市,8-16-3,南区白幡1丁目16番13号,白幡自治会館東側フェンス,35.8470775,139.6537074,
埼玉県,さいたま市,8-16-4,南区白幡1丁目13番5号,住宅西側ブロック塀,35.8465161,139.6561117,
埼玉県,さいたま市,8-16-5,南区根岸1丁目7番,根岸前公園北側,35.8435366,139.6640227,
埼玉県,さいたま市,8-16-6,南区根岸1丁目7番,さいたま文化センター南側歩道植込み,35.8435366,139.6640227,
埼玉県,さいたま市,8-16-7,南区根岸1丁目16番,神明丸公園西側フェンス,35.8459087,139.6629862,
埼玉県,さいたま市,8-17-1,南区南本町2丁目25番27号,市立岸中学校北側正門右側フェンス,35.8497716,139.6647915,
埼玉県,さいたま市,8-17-2,南区南本町2丁目25番27号,市立岸中学校西側フェンス,35.8497716,139.6647915,
埼玉県,さいたま市,8-17-3,南区南本町2丁目25番27号,市立岸中学校東側フェンス,35.8497716,139.6647915,
埼玉県,さいたま市,8-17-4,南区南本町2丁目19番,根岸北原公園東側,35.8485794,139.66482,
埼玉県,さいたま市,8-17-5,南区南本町2丁目13番,北原公園西側入口右側,35.8480195,139.6676904,
埼玉県,さいたま市,8-17-6,南区南本町1丁目5番,みずほ銀行南浦和支店北側西口NPCパーキング北側フェンス,35.846245,139.6686048,
埼玉県,さいたま市,8-17-7,南区南本町1丁目18番,一ツ木公園北側植込み,35.844368,139.666077,緯度経度は怪しい
埼玉県,さいたま市,8-18-1,南区文蔵2丁目30番,南浦和幼稚園向かい道路植込み,35.8433021,139.6668133,
埼玉県,さいたま市,8-18-2,南区文蔵2丁目31番,郷前公園北側フェンス,35.8433955,139.6663349,
埼玉県,さいたま市,8-18-3,南区文蔵1丁目8番3号南浦和コーポ向かい,JR線路沿いのフェンス,35.8432977,139.6733943,
埼玉県,さいたま市,8-18-4,南区文蔵1丁目19番22号,文蔵第一自治会館北側フェンス,35.8431296,139.6708899,
埼玉県,さいたま市,8-18-5,南区文蔵1丁目1番,水深公園西側,35.845421,139.670547,緯度経度は怪しい
埼玉県,さいたま市,8-18-6,南区文蔵1丁目1番,水深公園北側,35.845421,139.670547,緯度経度は怪しい
埼玉県,さいたま市,8-18-7,南区文蔵1丁目6番,南浦和陸橋下北側フェンス,35.8438096,139.6721558,
埼玉県,さいたま市,8-19-1,南区根岸2丁目19番3号,市立南浦和保育園南側ブロック塀,35.8400628,139.6652651,
埼玉県,さいたま市,8-19-2,南区根岸2丁目19番3号,市立南浦和保育園東側フェンス,35.8400628,139.6652651,
埼玉県,さいたま市,8-19-3,南区根岸3丁目4番3号,浦和若竹幼稚園よいこのひろば南側フェンス,35.8404032,139.6640025,
埼玉県,さいたま市,8-19-4,南区根岸3丁目9番,根岸西児童公園東側,35.839317,139.662308,緯度経度は怪しい
埼玉県,さいたま市,8-19-5,南区辻1丁目28番4号,わたなべ動物病院南側フェンス,35.8379187,139.6630859,
埼玉県,さいたま市,8-19-6,南区根岸2丁目18番,よいこの観察園 フェンス,35.8401524,139.6645011,
埼玉県,さいたま市,8-19-7,南区根岸3丁目9番,根岸西児童公園南側,35.839317,139.662308,緯度経度は怪しい
埼玉県,さいたま市,8-20-1,南区辻6丁目1番33号,市立南浦和中学校東側正門右側フェンス,35.8342018,139.6566381,
埼玉県,さいたま市,8-20-2,南区辻6丁目1番33号,市立南浦和中学校西側フェンス,35.8342018,139.6566381,
埼玉県,さいたま市,8-20-3,南区辻6丁目3番28号,市立辻小学校東側正門右側フェンス,35.8331723,139.6581313,
埼玉県,さいたま市,8-20-4,南区辻5丁目9番,辻中道公園東側入口フェンス,35.8333303,139.6603552,
埼玉県,さいたま市,8-20-5,南区辻6丁目3番28号,市立辻小学校北側フェンス,35.8331723,139.6581313,
埼玉県,さいたま市,8-20-6,南区辻2丁目20番1号,辻公会堂フェンス,35.8371946,139.6615112,
埼玉県,さいたま市,8-20-7,南区辻2丁目9番18号,住宅西側ブロック塀,35.8356171,139.6632918,
埼玉県,さいたま市,8-20-8,南区辻4丁目8番7号,浦和つくし幼稚園西門フェンス,35.83638639999999,139.657609,
埼玉県,さいたま市,8-21-1,南区辻8丁目7番,市立辻南小学校東側正門左側フェンス,35.8317744,139.6646606,
埼玉県,さいたま市,8-21-2,南区辻8丁目19番10号,辻8丁目緑道パステルハイム向かい,35.830756,139.661394,
埼玉県,さいたま市,8-21-3,南区辻8丁目26番1号,市営住宅辻水深団地RC-5号棟東側フェンス,35.8305291,139.6593238,
埼玉県,さいたま市,8-21-4,南区辻8丁目7番,市立辻南小学校北側フェンス,35.8317744,139.6646606,
埼玉県,さいたま市,8-21-5,南区辻8丁目7番,市立辻南小学校東側フェンス,35.8317744,139.6646606,
埼玉県,さいたま市,8-21-6,南区辻7丁目13番5号,サイデン化学(株)浦和工場厚生施設西側正門左側フェンス,35.8326827,139.6651389,
埼玉県,さいたま市,8-21-7,南区辻7丁目4番4号,市営住宅辻団地東側鉄柵,35.8348052,139.6651224,
埼玉県,さいたま市,8-22-1,南区文蔵4丁目19番3号,文蔵公民館東側,35.8379279,139.6695041,
埼玉県,さいたま市,8-22-2,南区文蔵4丁目19番3号,文蔵公民館西側,35.8379279,139.6695041,
埼玉県,さいたま市,8-22-3,南区文蔵4丁目23,文蔵4丁目第2公園,35.837715,139.668686,緯度経度は怪しい
埼玉県,さいたま市,8-22-4,南区文蔵4丁目8番9号,ラ・シェール北側六辻水辺公園水路柵,35.8395996,139.6705411,
埼玉県,さいたま市,8-22-5,南区辻1丁目19番,辻児童公園北側,35.83737989999999,139.6648997,
埼玉県,さいたま市,8-22-6,南区文蔵4丁目25番,六辻水辺公園植込み,35.839222,139.66832,緯度経度は怪しい
埼玉県,さいたま市,8-22-7,南区文蔵4丁目10番,住宅北側畑フェンス,35.8388058,139.6712787,
埼玉県,さいたま市,8-23-1,南区文蔵5丁目16番29号,市立文蔵小学校西側正門右側フェンス,35.8348006,139.6735912,
埼玉県,さいたま市,8-23-2,南区文蔵5丁目16番29号,市立文蔵小学校北門右側,35.8348006,139.6735912,
埼玉県,さいたま市,8-23-3,南区文蔵5丁目16番29号,市立文蔵小学校東側東門左側フェンス,35.8348006,139.6735912,
埼玉県,さいたま市,8-23-4,南区辻7丁目2番3号先,南浦和ハイツ東側水路フェンス,35.8351615,139.6679583,
埼玉県,さいたま市,8-23-5,南区文蔵5丁目25番,文蔵5丁目第一公園入口左側の植込み,35.8360826,139.6721558,
埼玉県,さいたま市,8-23-6,南区文蔵5丁目6番6号,住宅東側ブロック塀,35.8336219,139.676482,
埼玉県,さいたま市,8-23-7,南区文蔵5丁目4番,文蔵南公園の西側柵,35.8350489,139.6759835,
埼玉県,さいたま市,8-24-1,南区文蔵3丁目7番14号,市立文蔵保育園北側フェンス,35.8400953,139.6755933,
埼玉県,さいたま市,8-24-2,南区文蔵3丁目22番5号,住宅東側石塀,35.8400495,139.6737203,
埼玉県,さいたま市,8-24-3,南区文蔵3丁目9番1号先,メゾン南浦和藤井ビル東側の道路反対側のガードパイプ,35.8396941,139.6763833,
埼玉県,さいたま市,8-24-4,南区文蔵3丁目20番4号先,住宅南側六辻水辺公園水路柵,35.8407009,139.6734516,
埼玉県,さいたま市,8-24-5,南区文蔵3丁目3番1号先,六辻水辺公園南側水路柵,35.8409784,139.675076,
埼玉県,さいたま市,8-24-6,南区文蔵3丁目23番,駐車場西側フェンス,35.8395477,139.6738304,
埼玉県,さいたま市,8-24-7,南区文蔵3丁目7番14号,市立文蔵保育園東側フェンス,35.8400953,139.6755933,
埼玉県,さいたま市,8-25-1,南区南浦和3丁目37番,南浦和団地55号棟集会所東側,35.846424,139.675232,緯度経度は怪しい
埼玉県,さいたま市,8-25-2,南区南浦和3丁目38番,舟山公園南側交差点突当り,35.84763,139.675217,緯度経度は怪しい
埼玉県,さいたま市,8-25-3,南区南浦和3丁目30番,もみじ公園東側フェンス,35.846405,139.673157,緯度経度は怪しい
埼玉県,さいたま市,8-25-4,南区南浦和3丁目18番,コンフォール南浦和23号棟東側フェンス,35.848301,139.6740696,
埼玉県,さいたま市,8-25-5,南区南浦和3丁目47番,さくら公園北側入口の右側,35.844376,139.674271,緯度経度は怪しい
埼玉県,さいたま市,8-25-6,南区南浦和3丁目36番11号,市立大谷場保育園南側正門フェンス,35.8463715,139.6742213,
埼玉県,さいたま市,8-25-7,南区南浦和3丁目41番,南浦和橋バス停脇植込み,35.8450658,139.6759835,
埼玉県,さいたま市,8-25-8,南区南浦和3丁目41番15号,コンフォール南浦和15号棟南側植込み,35.8450658,139.6759835,
埼玉県,さいたま市,8-26-1,南区大谷場2丁目13番55号,住宅フェンス,35.852894,139.6739319,
