prefecture,city,number,address,name,lat,long,note
千葉県,印西市,1-1,木下1633-13,木下駅北口,35.8388869,140.1483976,
千葉県,印西市,1-2,竹袋614-9,総合福祉センター入口,35.8328047,140.1506257,
千葉県,印西市,1-3,木下1342-4,旧木下保存団地北側,35.8399944,140.1569987,
千葉県,印西市,1-4,木下東4-3,木下東四丁目もみじ公園東側,35.8411173,140.1684553,
千葉県,印西市,1-5,木下774,上町公会前,35.83741940000001,140.1518042,
千葉県,印西市,1-6,竹袋470-4,古川交差点前,35.8335091,140.156415,
千葉県,印西市,1-7,別所1008,masked,35.8241868,140.1603553,緯度経度は怪しい
千葉県,印西市,1-8,木下729-9,木下南公園北側,35.8392839,140.1536626,
千葉県,印西市,2-1,小林643-1,小林駅前口,35.8308522,140.1929518,
千葉県,印西市,2-2,小林1811-1,旧シグマジャパン前,35.8300938,140.1929388,
千葉県,印西市,2-3,小林2727,masked,35.8341994,140.183369,
千葉県,印西市,2-4,戸里1196,masked,35.8326275,140.1456967,緯度経度は怪しい
千葉県,印西市,2-5,小林大門1-4-1,小林中学校前,35.8235692,140.1867052,
千葉県,印西市,2-6,小林2448-2,小林小学校前,35.8276547,140.1971919,緯度経度は怪しい
千葉県,印西市,2-7,小林浅間1-17-13,いなりや第・幼児公園南側,35.8264686,140.1919532,
千葉県,印西市,3-1,小林北2-6-6,小林駅北口,35.8307437,140.1938036,
千葉県,印西市,3-2,小林北2-6-4,なかうし西公園南側,35.8320002,140.1919965,
千葉県,印西市,3-3,小林北5-1-6,小林公民館前,35.8318527,140.1977091,
千葉県,印西市,3-4,小林3293-2,小林下橋オフ堤前,35.8341754,140.191194,
千葉県,印西市,3-5,小林1566,masked,35.8255015,140.1983989,
千葉県,印西市,3-6,小林3-8-15,なかうし第二幼児公園南側,35.8276547,140.1971919,緯度経度は怪しい
千葉県,印西市,3-7,小林東3-4-6,しらやま第一幼児公園南側,35.8276547,140.1971919,緯度経度は怪しい
千葉県,印西市,4-1,大森3213,masked,35.833789,140.1358201,
千葉県,印西市,4-2,大森3345-11先免,大森小学校前,35.8365221,140.1395193,
千葉県,印西市,4-3,大森3561-2,寺田商店駐車場前,35.8343022,140.1432899,緯度経度は怪しい
千葉県,印西市,4-4,大森2364-2地先免,市役所駐車場,35.8323682,140.1458509,
千葉県,印西市,4-5,大森2531-2地先免,市役所前,35.8337788,140.1461486,
千葉県,印西市,4-6,大森2289-2地先免,masked,35.8297121,140.1441129,
千葉県,印西市,4-7,鹿黒456-2,鹿黒集会所前,35.8232046,140.1351808,緯度経度は怪しい
千葉県,印西市,4-8,免6560,masked,35.8326275,140.1456967,
千葉県,印西市,4-9,鹿黒174-1,角皮公会前,35.8255127,140.130516,
千葉県,印西市,5-1,浦部1991-1先免,宮内集会所前,35.825083,140.1028218,
千葉県,印西市,5-2,浦部1432-1先免,宮沢商店前,35.8231071,140.1027297,
千葉県,印西市,5-3,白幡491-1,masked,35.8157684,140.1015952,緯度経度は怪しい
千葉県,印西市,5-4,白幡277,masked,35.8173236,140.1044731,
千葉県,印西市,5-5,浦部557番地先,旧永治小学校前,35.8241956,140.1080997,
千葉県,印西市,5-6,和泉552番地先,和泉二差路,35.8218147,140.124088,
千葉県,印西市,5-7,和泉1114番地先,masked,35.8171046,140.1176003,
千葉県,印西市,5-8,和泉892-2,masked,35.8212906,140.1228279,
千葉県,印西市,6-1,武西908,武西集会所前,35.7833925,140.1068376,
千葉県,印西市,6-2,武西158-1,安食寺前,35.7829107,140.1122983,緯度経度は怪しい
千葉県,印西市,6-3,西の原222番地先,消防団木刎池,35.8037624,140.1510903,緯度経度は怪しい
千葉県,印西市,6-4,戸神814,masked,35.7872875,140.1164254,
千葉県,印西市,6-5,武西1269-1,ハートグレイス前,35.7890981,140.109547,
千葉県,印西市,6-6,武西355-1,武西三差路傍,35.7860623,140.1035228,緯度経度は怪しい
千葉県,印西市,7-1,多々羅田44番地先,多々羅田青年館前,35.7932674,140.1294205,
千葉県,印西市,7-2,結縁寺535-1,結縁寺青年館前,35.7901793,140.1357192,
千葉県,印西市,7-3,船尾1334-4地区,(有)浅野自動車整備工場前,35.7873663,140.1304695,緯度経度は怪しい
千葉県,印西市,7-4,船尾786-1,船尾コミュニティセンター前,35.7815271,140.1293509,
千葉県,印西市,7-5,船尾637-3番地先,masked,35.8066015,140.1517291,緯度経度は怪しい
千葉県,印西市,7-6,松崎397,masked,35.778185,140.1379738,
千葉県,印西市,7-7,松崎343,masked,35.7756704,140.1391849,
千葉県,印西市,7-1,草深66-7,土尊区長会所前,35.8015968,140.1428227,
千葉県,印西市,7-2,草深943-1,内川青年館前,35.7997007,140.1495028,
千葉県,印西市,7-3,草深132,masked,35.7966033,140.1453071,
千葉県,印西市,7-4,草深924,草深ふれあい市民センター前,35.7957298,140.1510501,
千葉県,印西市,7-5,草深2504-3,masked,35.79715210000001,140.1575567,
千葉県,印西市,7-6,草深423-2,花鳥木道倉庫前,35.7894235,140.1630483,緯度経度は怪しい
千葉県,印西市,7-7,草深489,masked,35.7840078,140.1662643,緯度経度は怪しい
千葉県,印西市,8-1,木刈1-2,木刈児童公園北側,35.80834919999999,140.1118766,緯度経度は怪しい
千葉県,印西市,8-2,木刈1-4-6,浦新田公園北側,35.80834919999999,140.1118766,緯度経度は怪しい
千葉県,印西市,8-3,木刈4-22,木刈児童公園南側,35.8098899,140.1041654,
千葉県,印西市,8-4,木刈6-23,木刈保育園前,35.8077932,140.1046202,
千葉県,印西市,8-5,木刈2-6,木刈小学校前,35.8079699,140.1080208,緯度経度は怪しい
千葉県,印西市,8-6,和泉1386-7,大塚三丁目集会所隣,35.8218147,140.124088,緯度経度は怪しい
千葉県,印西市,8-7,木刈2-3,木刈中児童公園南側,35.8079699,140.1080208,
千葉県,印西市,8-8,大塚3-30,大塚緑区公園北側,35.8121906,140.121444,
千葉県,印西市,7-1,小倉台1-2,大塚前公園東側,35.8049291,140.1141258,
千葉県,印西市,7-2,小倉台1-2,大塚前公園西側,35.8049291,140.1141258,
千葉県,印西市,7-3,小倉台4-4,小倉台東児童公園西側,35.8075103,140.1126612,
千葉県,印西市,7-4,小倉台2-3,小倉台小学校北側,35.8045892,140.1093942,
千葉県,印西市,7-5,木刈2-1,木刈中学校前,35.806282,140.10889,
千葉県,印西市,7-6,小倉台2-3,小倉台小学校南側,35.8045892,140.1093942,
千葉県,印西市,7-7,小倉台4-102,ファーストスクエア小倉台北側,35.8072289,140.1141258,
千葉県,印西市,7-1,鹿山1-12-1,北鹿苑の丘公園入口,35.8326275,140.1456967,緯度経度は怪しい
千葉県,印西市,7-2,内野1-1,内野小学校北側,35.7976665,140.124339,
千葉県,印西市,7-3,内野1-12,内野保育園前,35.7967641,140.1246121,
千葉県,印西市,7-4,内野2-8,内野南児童公園東側,35.794856,140.1228024,緯度経度は怪しい
千葉県,印西市,7-5,内野1-10-1,多々羅田公園南側,35.7967049,140.1260163,
千葉県,印西市,7-6,内野1-10-1,多々羅田公園東側,35.7967049,140.1260163,
千葉県,印西市,7-7,内野2-6-3,内野南第２団地入口,35.7943918,140.1247826,緯度経度は怪しい
千葉県,印西市,12-1,原山3-4,原山小学校北側,35.8026136,140.1303151,緯度経度は怪しい
千葉県,印西市,12-2,原山3-8,企業所跡地前,35.7984051,140.1312593,
千葉県,印西市,12-3,原山3-4,原山小学校東側,35.8026136,140.1303151,緯度経度は怪しい
千葉県,印西市,12-4,原山1-2,原山中学校裏門隣,35.8001575,140.1617627,緯度経度は怪しい
千葉県,印西市,12-5,原山1-6,原山北街区公園南側,35.8010459,140.1284864,
千葉県,印西市,12-6,原山1-10,原山南児童公園南側,35.8001575,140.1617627,緯度経度は怪しい
千葉県,印西市,12-7,泉20,泉樹園益祖会集会所隣,35.8102019,140.131204,
千葉県,印西市,12-8,草深1208-15地先,masked,35.8092576,140.1339152,
千葉県,印西市,13-1,高花1-3,給餌中学校前,35.7968204,140.135016,緯度経度は怪しい
千葉県,印西市,13-2,高花4-8-1,高花中央児童公園南側,35.793993,140.1406558,
千葉県,印西市,13-3,高花5-4,高花公園東側,35.7957453,140.1362717,
千葉県,印西市,13-4,高花2-4,高花小学校前,35.79721869999999,140.1389723,
千葉県,印西市,13-5,高花2-5,高花東町北公園東側,35.7983486,140.1388735,緯度経度は怪しい
千葉県,印西市,13-6,高花6-28,高花南児童公園南側,35.7918243,140.1427312,
千葉県,印西市,13-7,高花1-7,高花西児童公園西側,35.7968204,140.135016,
千葉県,印西市,13-8,高花1-24,高花北街区公園南側,35.7968204,140.135016,緯度経度は怪しい
千葉県,印西市,14-1,西の原2-7,西の原小学校北側,35.8002362,140.1581643,緯度経度は怪しい
千葉県,印西市,14-2,西の原2-1,西の原街区公園東側,35.8007315,140.1584409,
千葉県,印西市,14-3,別所71-1,牧の原学校給食センター前,35.8206211,140.1588075,緯度経度は怪しい
千葉県,印西市,14-4,西の原3-8,西の原北街区公園東側,35.8033101,140.1543057,
千葉県,印西市,14-5,西の原1-4,西の原公園南側,35.8021156,140.1575313,
千葉県,印西市,14-6,西の原1-3,西の原小学校北側,35.80434899999999,140.156651,
千葉県,印西市,14-7,西の原3-13,西の原西街区公園南側,35.8033101,140.1543057,緯度経度は怪しい
千葉県,印西市,15-1,原2-4,原所街区公園南側,35.8011134,140.1650583,
千葉県,印西市,15-2,原2-4,305公会堂北側,35.8011134,140.1650583,
千葉県,印西市,15-3,原1-101,割西夜の原東前ロータリー,35.8030411,140.1667765,緯度経度は怪しい
千葉県,印西市,15-4,原4-3-1,原所街区公園南側,35.799051,140.1623112,
千葉県,印西市,15-5,原3-4,そうふうけ公民館前,35.79989279999999,140.165199,
千葉県,印西市,15-6,原3-1,原東街区公園東側,35.7997312,140.1662442,
千葉県,印西市,15-7,東の原3-105,東の原公園北側,35.7994248,140.1655608,緯度経度は怪しい
千葉県,印西市,15-8,東の原2-106,東の原街区公園北側,35.80057530000001,140.1655608,緯度経度は怪しい
千葉県,印西市,16-1,美瀬1080,瀬戸橋北生活センター前,35.7815976,140.2070619,
千葉県,印西市,16-2,高藤1388番地先,松田牧場知遊知知側,35.8326275,140.1456967,緯度経度は怪しい
千葉県,印西市,16-3,獅子1504-1地先,印旛中央公園入口,35.8326275,140.1456967,
千葉県,印西市,16-4,山田875-2,谷後橋遊改センター向い,35.7699413,140.2373209,緯度経度は怪しい
千葉県,印西市,16-5,山田93-1,仲井柿遊改センター前,35.77112049999999,140.235975,緯度経度は怪しい
千葉県,印西市,16-6,山田3273番地先,仲井育育館前,35.7675669,140.2336396,
千葉県,印西市,16-7,古森854,高橋遊改センター脇,35.8326275,140.1456967,
千葉県,印西市,16-8,青菅3258番地先,一本松地区入口,35.7449431,140.1536626,緯度経度は怪しい
千葉県,印西市,16-9,萩原1404-2,萩原橋遊改センター入口,35.799267,140.2104713,
千葉県,印西市,16-10,松虫7,松虫構造改善センター前,35.78940619999999,140.2154903,
千葉県,印西市,17-1,岩戸1616-1,岩戸構造改善センター前,35.7662707,140.1695207,
千葉県,印西市,17-2,吉野2878-2,印西郵便局公園前,35.777622,140.168409,緯度経度は怪しい
千葉県,印西市,17-3,岩戸1486-1,広瀬前,35.7655909,140.1727217,
千葉県,印西市,17-4,藤戸3315-4,masked,35.8326275,140.1456967,
千葉県,印西市,17-5,藤戸590-1,諏訪構造改善センター前,35.8326275,140.1456967,
千葉県,印西市,17-6,滝谷658-3地先,酢崎材木店脇,35.8326275,140.1456967,緯度経度は怪しい
千葉県,印西市,17-7,岩戸3245-2地先,カービィランド岩戸前,35.77301,140.1729727,緯度経度は怪しい
千葉県,印西市,17-8,大廻269-3地先,masked,35.7798015,140.1806781,
千葉県,印西市,17-9,吉田1600-1地先,寺田家傍神社前,35.7648872,140.1544564,
千葉県,印西市,17-10,吉田821,万福寺前,35.7668906,140.1520714,
千葉県,印西市,18-1,平賀2613-2地先,masked,35.7601851,140.2476252,緯度経度は怪しい
千葉県,印西市,18-2,平賀821-2,平賀団内脇,35.7601851,140.2476252,緯度経度は怪しい
千葉県,印西市,18-3,平賀870-2,平賀構造改善センター脇,35.7601851,140.2476252,緯度経度は怪しい
千葉県,印西市,18-4,平賀3834,4中の台バス停脇,35.7601851,140.2476252,
千葉県,印西市,18-5,平賀1200-2地先,学園台入口交差点脇,35.7601851,140.2476252,
千葉県,印西市,18-6,平賀学園台2-21-3,さざなみ第2公園前,35.7523073,140.2495575,緯度経度は怪しい
千葉県,印西市,18-7,平賀3722,順天堂大学入口,35.7601851,140.2476252,
千葉県,印西市,18-8,美瀬1-25,印旛支所前,35.7794627,140.2042783,
千葉県,印西市,19-1,議1715,日本医大千葉北総病院入口,35.8326275,140.1456967,
千葉県,印西市,19-2,美瀬146,美瀬の松公園前,35.7815976,140.2070619,
千葉県,印西市,19-3,岩藤2-1-1,岩藤中学校前,35.795158,140.1388917,緯度経度は怪しい
千葉県,印西市,19-4,岩藤3-114,若草の丘公園前,35.8326275,140.1456967,緯度経度は怪しい
千葉県,印西市,19-5,岩藤1-3,ミエストリオそば駐前,35.7977631,140.1235381,緯度経度は怪しい
千葉県,印西市,19-6,岩藤62-2,ケルルガーデン八幡前,35.8326275,140.1456967,緯度経度は怪しい
千葉県,印西市,20-1,笠神2587,本埜支所前,35.8168676,140.2017524,
千葉県,印西市,20-2,笠神2346番地3,masked,35.8205416,140.205131,
千葉県,印西市,20-3,行徳21,一区コミュニティセンター前,35.8140675,140.2134987,緯度経度は怪しい
千葉県,印西市,20-4,中根187,辺田前コミュニティセンター前,35.8039901,140.2016583,
千葉県,印西市,20-5,荒野469-2地先,荒野コミュニティセンター向い,35.7966533,140.1971465,
千葉県,印西市,20-6,角田2地先,角田栄福寺入口,35.7871776,140.1919332,
千葉県,印西市,20-7,龍腹寺478-1地先,五十嵐花園北側園地,35.8028174,140.1806781,緯度経度は怪しい
千葉県,印西市,20-8,中根856-8,旧本埜村元商工会前,35.8106627,140.2026619,
千葉県,印西市,20-9,南10-2,滝沢年齢前,35.8326275,140.1456967,
千葉県,印西市,20-10,角本230番地先,諏訪神社入口,35.8326275,140.1456967,緯度経度は怪しい
千葉県,印西市,20-11,本埜3990番地,新神明寺防小屋前,35.81050949999999,140.1982788,緯度経度は怪しい
千葉県,印西市,21-1,牧野野82番地先,白山団地,35.8326275,140.1456967,緯度経度は怪しい
千葉県,印西市,21-2,笠神1747-15先宅,旧本埜第二小学校北側,35.8205416,140.205131,緯度経度は怪しい
千葉県,印西市,21-3,笠神杁76,masked,35.8205416,140.205131,
千葉県,印西市,21-4,下井338,和幸年館前,35.8203338,140.2370478,
千葉県,印西市,21-5,安食上杁102-1地先,masked,35.8412351,140.2365065,緯度経度は怪しい
千葉県,印西市,21-6,将監235-4地先,大蓮神社前,35.8321033,140.2077215,
千葉県,印西市,21-7,布勢木419番地先,旧村総合グラウンド前,35.8326275,140.1456967,
千葉県,印西市,22-1,詩舞野18,みのりの広場公園北側,35.8326275,140.1456967,
千葉県,印西市,22-2,牧の原5-1612-5,牧の原公園東側,35.8109984,140.1716739,緯度経度は怪しい
千葉県,印西市,22-3,詩舞野4-2-1,滝野公園南側,35.7978895,140.127101,緯度経度は怪しい
千葉県,印西市,22-4,滝野5-1,滝野小学校前,35.80906179999999,140.1739231,
千葉県,印西市,22-5,滝野6-143,滝の杜公園東側,35.8107875,140.1739231,
千葉県,印西市,22-6,牧の原3-109,牧の原西街区公園南側,35.8099484,140.1594506,
千葉県,印西市,22-7,牧の原3-1-1,牧の原小学校東側,35.8122232,140.1606565,緯度経度は怪しい
千葉県,印西市,22-8,牧の原5-108,牧の原公園南側,35.8100617,140.1684553,
千葉県,印西市,22-9,牧の原5-3035-25,牧の原東街区公園北側,35.8097171,140.1669466,
千葉県,印西市,23-1,中央北1-3-3,川西西消防署向い,35.8032928,140.1167945,
千葉県,印西市,23-2,中央北105-1地先,千葉ニュータウン中央駅北口,35.8024692,140.1144472,
千葉県,印西市,23-3,中央南1-2,中央駅南地域交流館前,35.8002676,140.1194228,
千葉県,印西市,23-4,武西学園台1-2,武西学園台街区公園東側,35.7974904,140.1105913,
千葉県,印西市,23-5,戸神台2-3-1,戸神台西街区公園東側,35.7956953,140.1160285,
千葉県,印西市,23-6,戸神台1-2-5,戸神台東街区公園西側,35.7965648,140.1192623,
千葉県,印西市,23-7,中央東1-436-3地先,千葉ニュータウン中央駅南口,35.8326275,140.1456967,緯度経度は怪しい
千葉県,印西市,23-8,中央北2-1-1,千葉ニュータウン中央駅北口自転車駐車場前,35.8011207,140.1146164,
