prefecture,city,number,address,name,lat,long,note
神奈川県,平塚市,1ー1,花水台12,花水台公園北側フェンス,35.3198213,139.3348172,公式データ
神奈川県,平塚市,1ー2,唐ヶ原204－4,下花水公園西側フェンス,35.3163289,139.3289566,公式データ
神奈川県,平塚市,1ー3,撫子原12,なでしこ公園東側,35.3158015,139.334313,公式データ
神奈川県,平塚市,1ー4,撫子原1－24,撫子原ポンプ場西側フェンス,35.3207411,139.3311273,公式データ
神奈川県,平塚市,1ー5,花水台42－1,なでしこ小学校北側フェンス,35.3172055,139.3383041,公式データ
神奈川県,平塚市,1ー6,花水台42－1,なでしこ小学校南側フェンス,35.3164178,139.3387884,公式データ
神奈川県,平塚市,1ー7,花水台42－1,なでしこ小学校東側フェンス,35.3173491,139.3394583,公式データ
神奈川県,平塚市,2ー1,黒部丘20,黒部丘ちびっこ公園西側フェンス,35.3227655,139.3347387,公式データ
神奈川県,平塚市,2ー2,黒部丘20,黒部丘ちびっこ公園東側フェンス,35.322829,139.3350928,公式データ
神奈川県,平塚市,2ー3,黒部丘12－7,県立平塚工科高等学校西側フェンス,35.3219514,139.3365324,公式データ
神奈川県,平塚市,2ー4,黒部丘12－7,県立平塚工科高等学校東側フェンス,35.3218689,139.3383841,公式データ
神奈川県,平塚市,2ー5,黒部丘28－7,道路脇,35.3214036,139.3319954,公式データ
神奈川県,平塚市,2ー6,黒部丘9－21付近,奏ハイツ西側駐車場,35.3226215,139.3385833,公式データ
神奈川県,平塚市,2ー7,黒部丘12－7,県立平塚工科高等学校北側フェンス,35.3232186,139.3374172,公式データ
神奈川県,平塚市,3ー1,虹ヶ浜22,虹ヶ浜住宅集会所西側,35.3155737,139.3357101,公式データ
神奈川県,平塚市,3ー2,菫平7－28,月湘庵西側,35.319837,139.3390291,公式データ
神奈川県,平塚市,3ー3,菫平3,浜岳公園西側,35.3198306,139.3414423,公式データ
神奈川県,平塚市,3ー4,菫平3,浜岳公園南側,35.3197657,139.3417576,公式データ
神奈川県,平塚市,3ー5,虹ケ浜23－3,虹ケ浜東公園南側鉄柵,35.315637,139.3415477,公式データ
神奈川県,平塚市,3ー6,菫平15,菫平西公園南側,35.3180713,139.3425661,公式データ
神奈川県,平塚市,3ー7,菫平12,菫平南公園南側,35.3173818,139.34358,公式データ
神奈川県,平塚市,4ー1,龍城ヶ丘4－26,市立浜岳中学校西側,35.3205428,139.3432926,公式データ
神奈川県,平塚市,4ー2,龍城ヶ丘4－26,市立浜岳中学校南側,35.3195067,139.3440789,公式データ
神奈川県,平塚市,4ー3,龍城ヶ丘17－3,龍城ヶ丘東公園北側,35.3169948,139.3476187,公式データ
神奈川県,平塚市,4ー4,龍城ヶ丘5－62,市立花水小学校北側,35.3194401,139.3451259,公式データ
神奈川県,平塚市,4ー5,龍城ヶ丘14,龍城ヶ丘公園北側,35.3171054,139.3462996,公式データ
神奈川県,平塚市,4ー6,袖ヶ浜8,湘南海岸公園袖ヶ浜児童広場北側,35.3167155,139.3495639,公式データ
神奈川県,平塚市,4ー7,袖ヶ浜6,袖ヶ浜南公園北側,35.3171234,139.3517562,公式データ
神奈川県,平塚市,5ー1,桃浜町13,羽衣公園西側,35.3241922,139.3449446,公式データ
神奈川県,平塚市,5ー2,桃浜町13,羽衣公園東側,35.3242331,139.3453343,公式データ
神奈川県,平塚市,5ー3,松風町20,松影児童公園南側,35.323611,139.3472257,公式データ
神奈川県,平塚市,5ー4,松風町3,松風町児童公園西側,35.32345,139.3516023,公式データ
神奈川県,平塚市,5ー5,桃浜町34,桃浜公園西側,35.3210785,139.3431546,公式データ
神奈川県,平塚市,5ー6,桃浜町34,桃浜公園南側,35.3209527,139.3435761,公式データ
神奈川県,平塚市,5ー7,松風町25,県有地南側,35.3214655,139.3480066,公式データ
神奈川県,平塚市,6ー1,八重咲町5,八重咲ビル向かい緑地,35.3260907,139.349567,公式データ
神奈川県,平塚市,6ー2,代官町36－40,湘南平塚モータースクール南側フェンス,35.3260732,139.3582958,公式データ
神奈川県,平塚市,6ー3,八重咲町2,駅南口広場駐輪場東側フェンス,35.3269894,139.3515104,公式データ
神奈川県,平塚市,6ー4,代官町33,ＯＳＣ湘南シティ入口脇歩道ガードレール,35.3282074,139.3568328,公式データ
神奈川県,平塚市,6ー5,代官町32,長姫児童公園南側,35.3275276,139.3563175,公式データ
神奈川県,平塚市,6ー6,八重咲町22,村井弦齋公園南側,35.3243178,139.3502686,公式データ
神奈川県,平塚市,6ー7,代官町18,青柳児童公園南側,35.3255576,139.3551753,公式データ
神奈川県,平塚市,7ー1,夕陽ヶ丘32,夕陽ヶ丘児童公園北側,35.3239036,139.3554797,公式データ
神奈川県,平塚市,7ー2,夕陽ヶ丘60,三島児童公園南側,35.3242568,139.3592855,公式データ
神奈川県,平塚市,7ー3,久領堤5,競輪場前交差点東側,35.325497,139.3611711,公式データ
神奈川県,平塚市,7ー4,夕陽ヶ丘9,茜児童公園西側,35.3224187,139.3541776,公式データ
神奈川県,平塚市,7ー5,夕陽ヶ丘22－1,市立港小学校北西側,35.3227101,139.3569166,公式データ
神奈川県,平塚市,7ー6,夕陽ヶ丘22－1,市立港小学校南東側,35.3221619,139.3585932,公式データ
神奈川県,平塚市,7ー7,夕陽ヶ丘21,須賀公園南側（高浜高校バス停入口付近）,35.3209516,139.3564128,公式データ
神奈川県,平塚市,8ー1,高浜台1,高浜公園北側,35.3204394,139.3536887,公式データ
神奈川県,平塚市,8ー2,高浜台7－1,市立太洋中学校北側フェンス,35.3207487,139.3564361,公式データ
神奈川県,平塚市,8ー3,高浜台11,高浜台第２公園北側,35.3203031,139.3590588,公式データ
神奈川県,平塚市,8ー4,高浜台32,湘南海岸公園西側,35.3177742,139.3539171,公式データ
神奈川県,平塚市,8ー5,高浜台29,高浜台第３公園北側,35.3174265,139.3604567,公式データ
神奈川県,平塚市,8ー6,千石河岸38,汐崎公園東側,35.3184018,139.3653419,公式データ
神奈川県,平塚市,8ー7,千石河岸31－6,平塚漁港南側市道端,35.3197459,139.3654911,公式データ
神奈川県,平塚市,9ー1,札場町4,須賀第１駐車場南側,35.3240931,139.3620674,公式データ
神奈川県,平塚市,9ー2,札場町38,港公園北側,35.3246202,139.3643928,公式データ
神奈川県,平塚市,9ー3,幸町7,幸町公園南西側,35.3220658,139.3597232,公式データ
神奈川県,平塚市,9ー4,幸町7,幸町公園北西側,35.3223312,139.3596548,公式データ
神奈川県,平塚市,9ー5,札場町38,港公園東側,35.3245558,139.3647754,公式データ
神奈川県,平塚市,9ー6,幸町18,月見公園南西側,35.319903,139.3602288,公式データ
神奈川県,平塚市,9ー7,幸町18,月見公園北東側,35.3200169,139.3606588,公式データ
神奈川県,平塚市,10ー1,天沼7－10,市立松原小学校西側,35.3349527,139.3552217,公式データ
神奈川県,平塚市,10ー2,堤町2,馬入緑道堤町交差点脇,35.3363399,139.3579526,公式データ
神奈川県,平塚市,10ー3,中堂3,馬入緑道中堂３付近,35.3338882,139.3615575,公式データ
神奈川県,平塚市,10ー4,八千代町5,馬入児童公園南側,35.3322872,139.3541397,公式データ
神奈川県,平塚市,10ー5,八千代町18,八千代町公園西側,35.3319119,139.3583722,公式データ
神奈川県,平塚市,10ー6,老松町12,老松町公園北側,35.3300312,139.3573355,公式データ
神奈川県,平塚市,10ー7,馬入本町11,蔵邸公園北側,35.3309751,139.3621315,公式データ
神奈川県,平塚市,10ー8,須賀2700,エア・ウォーター・パフォーマンスケミカル㈱北側,35.3385512,139.3722485,公式データ
神奈川県,平塚市,11ー1,浅間町4－3,市立崇善小学校西側,35.333721,139.3444888,公式データ
神奈川県,平塚市,11ー2,浅間町8－1,市立江陽中学校西側,35.3346356,139.3467321,公式データ
神奈川県,平塚市,11ー3,浅間町8－1,市立江陽中学校南側,35.3344955,139.346944,公式データ
神奈川県,平塚市,11ー4,浅間町1－1,八幡山公園南側,35.333704,139.3473699,公式データ
神奈川県,平塚市,11ー5,浅間町9－1,平塚市役所南西側,35.3347077,139.3490303,公式データ
神奈川県,平塚市,11ー6,宮の前7,東雲児童公園南側,35.3308076,139.351775,公式データ
神奈川県,平塚市,11ー7,宝町10,宝町児童公園北側,35.3291001,139.3535101,公式データ
神奈川県,平塚市,11ー8,宮松町25,宮松町あおぞら公園東側植栽,35.3385103,139.3549698,公式データ
神奈川県,平塚市,12ー1,御殿四丁目18,立堀親水公園北側,35.3456173,139.3236284,公式データ
神奈川県,平塚市,12ー2,御殿四丁目5－1,市立中原中学校北側,35.3512243,139.3248823,公式データ
神奈川県,平塚市,12ー3,御殿四丁目5－1,市立中原中学校東側,35.3504324,139.325805,公式データ
神奈川県,平塚市,12ー4,御殿四丁目5－1,市立中原中学校南側,35.3496153,139.3255083,公式データ
神奈川県,平塚市,12ー5,御殿三丁目3－3,大縄橋公園北側,35.3497623,139.3300234,公式データ
神奈川県,平塚市,12ー6,中原三丁目20－16,日枝神社東側,35.3492955,139.3317536,公式データ
神奈川県,平塚市,12ー7,中原三丁目4,伊勢山公園東側,35.3516051,139.3337299,公式データ
神奈川県,平塚市,12ー8,中原三丁目6,松が丘青少年広場北側,35.3530386,139.3347278,公式データ
神奈川県,平塚市,13ー1,見附町16－3,見附台公園西側植栽,35.3298399,139.3421433,公式データ
神奈川県,平塚市,13ー2,見附町16－1,ひらしん平塚文化芸術ホール東側植栽,35.3300448,139.3435901,公式データ
神奈川県,平塚市,13ー3,見附町1－8,市立崇善公民館西側植栽,35.3291724,139.3437756,公式データ
神奈川県,平塚市,13ー4,明石町21,明石町公園西側,35.3309154,139.3456215,公式データ
神奈川県,平塚市,13ー5,明石町21,明石町公園南側,35.3306548,139.3458779,公式データ
神奈川県,平塚市,13ー6,明石町8－1,新宿公園北側,35.3305606,139.3487883,公式データ
神奈川県,平塚市,13ー7,錦町8,錦町公園南側,35.3267784,139.3436208,公式データ
神奈川県,平塚市,13ー8,錦町1付近,中央地下道上部市道ガードレール,35.3270883,139.3456584,公式データ
神奈川県,平塚市,14ー1,豊原町22,森田屋ベーカリー前豊原町緑地,35.3342532,139.3351334,公式データ
神奈川県,平塚市,14ー2,豊原町21－36,平塚建設会館南側,35.3348339,139.3360107,公式データ
神奈川県,平塚市,14ー3,立野町40,八間通り公園西側,35.3342683,139.3389021,公式データ
神奈川県,平塚市,14ー4,追分1－43,福祉会館入口脇植栽,35.3347273,139.3456604,公式データ
神奈川県,平塚市,14ー5,立野町33,立野町児童公園東側,35.3338581,139.3402291,公式データ
神奈川県,平塚市,14ー6,立野町31－20,栗原ホーム北側植栽,35.3357303,139.3394286,公式データ
神奈川県,平塚市,14ー7,追分1,浅間緑地東側,35.3358504,139.346405,公式データ
神奈川県,平塚市,15ー1,平塚四丁目27,柳町公園東側,35.3277022,139.3341185,公式データ
神奈川県,平塚市,15ー2,平塚四丁目19,西仲町公園東側,35.3282415,139.3348402,公式データ
神奈川県,平塚市,15ー3,平塚二丁目27,東仲町公園北側,35.3287723,139.3386817,公式データ
神奈川県,平塚市,15ー4,平塚二丁目20－1,大鳥公園南側,35.3300843,139.3386872,公式データ
神奈川県,平塚市,15ー5,平塚三丁目4,四十瀬川公園西側,35.3253326,139.3358668,公式データ
神奈川県,平塚市,15ー6,平塚三丁目4,四十瀬川公園東側,35.3258352,139.3373954,公式データ
神奈川県,平塚市,15ー7,平塚一丁目15,二十四軒町公園北側,35.3262423,139.3399339,公式データ
神奈川県,平塚市,16ー1,上平塚1,上平塚公園西側,35.3313669,139.3254999,公式データ
神奈川県,平塚市,16ー2,桜ヶ丘6,桜ヶ丘ポンプ場東側,35.3290499,139.3268623,公式データ
神奈川県,平塚市,16ー3,中里33－1,市立春日野中学校南側正門横,35.331053,139.3312197,公式データ
神奈川県,平塚市,16ー4,中里33－1,市立春日野中学校東側,35.3328108,139.3312889,公式データ
神奈川県,平塚市,16ー5,中里10－1,市立富士見小学校西側,35.3323054,139.333765,公式データ
神奈川県,平塚市,16ー6,中里10－1,市立富士見小学校南側,35.3318378,139.3344766,公式データ
神奈川県,平塚市,16ー7,平塚五丁目16,柳町西公園西側フェンス,35.3283163,139.3311756,公式データ
神奈川県,平塚市,16ー8,中里50－1,県立平塚農商高等学校商業校舎東側道路フェンス,35.3325457,139.3283226,公式データ
神奈川県,平塚市,17ー1,達上ヶ丘14,達上ヶ丘公園西側,35.3354389,139.3245733,公式データ
神奈川県,平塚市,17ー2,達上ヶ丘14,達上ヶ丘公園たんじょう池入口,35.3353446,139.3260448,公式データ
神奈川県,平塚市,17ー3,諏訪町28,大久保公園東側,35.3356189,139.3319523,公式データ
神奈川県,平塚市,17ー4,諏訪町28,大久保公園西側,35.3356825,139.3311574,公式データ
神奈川県,平塚市,17ー5,諏訪町28,大久保公園南側,35.3351066,139.3316057,公式データ
神奈川県,平塚市,17ー6,諏訪町20－12,県立平塚看護大学校新館北側,35.3352578,139.3332133,公式データ
神奈川県,平塚市,17ー7,諏訪町9,諏訪町公園西側,35.3382872,139.3332392,公式データ
神奈川県,平塚市,18ー1,南原二丁目11－40,ブロック塀,35.3405711,139.3276788,公式データ
神奈川県,平塚市,18ー2,南原二丁目15－1,市立南原公民館前,35.3400691,139.3252788,公式データ
神奈川県,平塚市,18ー3,南原三丁目8,南原公園入口脇植栽,35.3410225,139.3233974,公式データ
神奈川県,平塚市,18ー4,南原一丁目19－1,平塚市民病院西側植栽,35.3364271,139.324717,公式データ
神奈川県,平塚市,18ー5,南原一丁目11－31,市立南原小学校西側,35.3375124,139.3261491,公式データ
神奈川県,平塚市,18ー6,南原一丁目11－31,市立南原小学校東側,35.3383383,139.3272997,公式データ
神奈川県,平塚市,18ー7,南原一丁目5－3,市立南原保育園前,35.3373041,139.3282614,公式データ
神奈川県,平塚市,19ー1,御殿二丁目17－38,市立中原公民館入口,35.3442148,139.3268091,公式データ
神奈川県,平塚市,19ー2,御殿二丁目17－5,市立ひばり幼稚園東側,35.3446961,139.3278243,公式データ
神奈川県,平塚市,19ー3,御殿二丁目18,御殿公園南側,35.3431453,139.3276961,公式データ
神奈川県,平塚市,19ー4,御殿二丁目8－9,市立中原小学校南側,35.3440638,139.3380172,公式データ
神奈川県,平塚市,19ー5,御殿二丁目8－9,市立中原小学校東側,35.3438535,139.3305295,公式データ
神奈川県,平塚市,19ー6,中原二丁目18,（株）池田理化向側畑地万年塀,35.3437885,139.3329279,公式データ
神奈川県,平塚市,19ー7,御殿一丁目32－32,サニーライフ平塚御殿東側フェンス,35.3399828,139.331033,公式データ
神奈川県,平塚市,20ー1,大原1,平塚市総合公園西駐車場植栽道路側,35.3406763,139.3371544,公式データ
神奈川県,平塚市,20ー2,中原二丁目14,中原公園南側,35.3449925,139.3344528,公式データ
神奈川県,平塚市,20ー3,大原3,大原公園西側,35.3449602,139.3382298,公式データ
神奈川県,平塚市,20ー4,大原1－14,市立大原小学校西側,35.3444926,139.3385215,公式データ
神奈川県,平塚市,20ー5,大原1,平塚球場東側(北入口),35.3445475,139.3445442,公式データ
神奈川県,平塚市,20ー6,大原1－14,市立大原公民館前植栽,35.3447202,139.3397177,公式データ
神奈川県,平塚市,20ー7,大原1,総合公園多目的広場南側,35.3406524,139.3452759,公式データ
神奈川県,平塚市,21ー1,東中原一丁目12－2,市立松が丘小学校北側,35.3555316,139.34119,公式データ
神奈川県,平塚市,21ー2,東中原二丁目14－2,市立しらさぎ保育園東側,35.3533158,139.3374931,公式データ
神奈川県,平塚市,21ー3,東中原二丁目5,東中原公園北側,35.3537892,139.3381912,公式データ
神奈川県,平塚市,21ー4,東中原一丁目12－1,市立大野中学校西側,35.3534126,139.3397355,公式データ
神奈川県,平塚市,21ー5,東中原一丁目12－1,市立大野中学校南側,35.3537386,139.3414252,公式データ
神奈川県,平塚市,21ー6,東中原二丁目15－10,東中原住宅１０号棟西側,35.3523153,139.3367542,公式データ
神奈川県,平塚市,21ー7,東中原二丁目3,東中原住宅１号棟南側,35.3519835,139.3387132,公式データ
神奈川県,平塚市,22ー1,西真土四丁目13,今里西ちびっ子広場フェンス,35.3625994,139.3499604,公式データ
神奈川県,平塚市,22ー2,西真土四丁目3－1,市立真土小学校東側,35.3606016,139.3496595,公式データ
神奈川県,平塚市,22ー3,西真土四丁目3－1,市立真土小学校南側,35.3600899,139.3482923,公式データ
神奈川県,平塚市,22ー4,西真土三丁目18,真土大塚山公園北西側,35.3600314,139.3466745,公式データ
神奈川県,平塚市,22ー5,西真土四丁目1,坂口バス停脇道路フェンス,35.360379,139.350912,公式データ
神奈川県,平塚市,22ー6,西真土二丁目1－35,三菱ケミカル（株）平塚工場東側フェンス,35.3552183,139.3457945,公式データ
神奈川県,平塚市,22ー7,西真土三丁目18,真土大塚山公園東側鉄柵,35.3595784,139.3496147,公式データ
神奈川県,平塚市,23ー1,西八幡一丁目114,市有地南側フェンス,35.341151,139.3484932,公式データ
神奈川県,平塚市,23ー2,西八幡一丁目4－3,㈱パイロットコーポレーション平塚事業所南西フェンス,35.338795,139.3460651,公式データ
神奈川県,平塚市,23ー3,西八幡一丁目5－2,高砂香料工業（株）平塚工場東側フェンス,35.3396336,139.3504466,公式データ
神奈川県,平塚市,23ー4,西八幡一丁目13,八幡公園西側,35.343154,139.3451121,公式データ
神奈川県,平塚市,23ー5,西八幡一丁目13,八幡公園北側,35.3434064,139.3461373,公式データ
神奈川県,平塚市,23ー6,西八幡一丁目10－22,市立八幡公民館西側,35.3426991,139.3479535,公式データ
神奈川県,平塚市,23ー7,西八幡一丁目114,市有地北側フェンス,35.3414918,139.3483738,公式データ
神奈川県,平塚市,24ー1,東八幡三丁目10－13,匠建設（株）西側,35.3456692,139.3564477,公式データ
神奈川県,平塚市,24ー2,東八幡五丁目1,古河電気工業（株）平塚事業所正門横,35.3451796,139.3605695,公式データ
神奈川県,平塚市,24ー3,東八幡三丁目8－1,市立八幡小学校北側,35.3446142,139.3575388,公式データ
神奈川県,平塚市,24ー4,東八幡四丁目6－1,荒井工業脇水路フェンス,35.347715,139.358502,公式データ
神奈川県,平塚市,24ー5,東八幡三丁目8－1,市立八幡小学校南側フェンス,35.3434209,139.3572931,公式データ
神奈川県,平塚市,24ー6,東八幡一丁目14－2,日産車体（株）八幡寮北側フェンス,35.3420487,139.3551899,公式データ
神奈川県,平塚市,24ー7,東八幡一丁目14－2,日産車体（株）相模寮南側フェンス,35.3414711,139.3547071,公式データ
神奈川県,平塚市,25ー1,四之宮六丁目15－1,平塚ふじみ園南側,35.3635151,139.3593061,公式データ
神奈川県,平塚市,25ー2,四之宮四丁目19－2,四之宮公園東側ふれあいセンター西側,35.3596617,139.3617624,公式データ
神奈川県,平塚市,25ー3,四之宮五丁目8－29,四之宮公園東側,35.35625,139.3597836,公式データ
神奈川県,平塚市,25ー4,四之宮六丁目10－32,（株）トーリク平塚センター東側フェンス,35.3620711,139.3603246,公式データ
神奈川県,平塚市,25ー5,東真土二丁目1－1,市立大野小学校正門脇フェンス,35.3531876,139.3581958,公式データ
神奈川県,平塚市,25ー6,東真土二丁目1－1,市立大野小学校北側フェンス,35.3544219,139.3578754,公式データ
神奈川県,平塚市,25ー7,四之宮四丁目3－33,前鳥神社入口交差点北側,35.3546331,139.363998,公式データ
神奈川県,平塚市,25ー8,東真土二丁目1－1,市立大野小学校東側,35.3533276,139.3586976,公式データ
神奈川県,平塚市,26ー1,田村三丁目12－5,市立神田公民館南側,35.3736111,139.3590439,公式データ
神奈川県,平塚市,26ー2,田村二丁目9－1,田村第２公園東側,35.3716978,139.3614778,公式データ
神奈川県,平塚市,26ー3,田村五丁目14,小松原公園南側,35.3720187,139.3635842,公式データ
神奈川県,平塚市,26ー4,田村七丁目20－5,田村宮の前公園西側,35.3730981,139.3676004,公式データ
神奈川県,平塚市,26ー5,田村七丁目20－1,宮の前住宅１号棟西側,35.3719924,139.3673708,公式データ
神奈川県,平塚市,26ー6,田村二丁目10,太陽公園南側,35.3699745,139.3595637,公式データ
神奈川県,平塚市,26ー7,田村二丁目3－12,若葉公園西側,35.3680869,139.3592448,公式データ
神奈川県,平塚市,26ー8,田村一丁目19,田村長者公園南側,35.3651003,139.3574931,公式データ
神奈川県,平塚市,27ー1,吉際4－7付近,大神橋北側歩道フェンス,35.3887954,139.3581845,公式データ
神奈川県,平塚市,27ー2,大神5－12－17,市立大神公民館東側植栽,35.3911423,139.3661365,公式データ
神奈川県,平塚市,27ー3,大神5－1,大神公園南側,35.3885677,139.3631481,公式データ
神奈川県,平塚市,27ー4,大神5－3－72,市立大神保育園前,35.3890353,139.3647627,公式データ
神奈川県,平塚市,27ー5,大神3－15－1,環境事業センター北側植栽,35.3840503,139.3702474,公式データ
神奈川県,平塚市,27ー6,大神3－3－8,柳ノ内バス停脇水路フェンス,35.382827,139.3651247,公式データ
神奈川県,平塚市,27ー7,大神5－11,大神第４公園西側,35.3903658,139.3656242,公式データ
神奈川県,平塚市,28ー1,横内3824,県営横内団地２９号棟東側,35.3668545,139.346292,公式データ
神奈川県,平塚市,28ー2,横内3907,県営横内団地４５号棟東側,35.3668779,139.3481157,公式データ
神奈川県,平塚市,28ー3,横内3824,県営横内団地３３号棟南側,35.3662645,139.3466069,公式データ
神奈川県,平塚市,28ー4,横内3130,県営横内団地２６号棟東側,35.3659772,139.3481044,公式データ
神奈川県,平塚市,28ー5,横内3057,県営横内団地１０号棟南側,35.3648813,139.3456341,公式データ
神奈川県,平塚市,28ー6,横内4336,伊達建設資材置場南側,35.3644434,139.3530683,公式データ
神奈川県,平塚市,28ー7,横内4322,水路フェンス,35.3652181,139.3531101,公式データ
神奈川県,平塚市,29ー1,下島999－5,下島西公園西側,35.372052,139.3427532,公式データ
神奈川県,平塚市,29ー2,城所649,市立大住中学校南側,35.3714183,139.3236146,公式データ
神奈川県,平塚市,29ー3,小鍋島608－3,市立城島小学校南側,35.3722518,139.3300295,公式データ
神奈川県,平塚市,29ー4,小鍋島621－1,城島ふれあいの里前,35.3719312,139.3313885,公式データ
神奈川県,平塚市,29ー5,小鍋島271－1,市立城島公民館西側,35.3729797,139.332717,公式データ
神奈川県,平塚市,29ー6,大島820,十輪寺西側,35.3769726,139.3405893,公式データ
神奈川県,平塚市,29ー7,大島790－1,大島北バス停前フェンス,35.3776049,139.342868,公式データ
神奈川県,平塚市,29ー8,下島384,霊山寺前フェンス,35.3698224,139.3411612,公式データ
神奈川県,平塚市,30ー1,豊田平等寺369,平等寺南側,35.3530824,139.3241046,公式データ
神奈川県,平塚市,30ー2,豊田本郷1794,ブロック塀,35.3574247,139.3272401,公式データ
神奈川県,平塚市,30ー3,南豊田366－1,市立豊田公民館前,35.3564405,139.3301109,公式データ
神奈川県,平塚市,30ー4,豊田宮下552,市立豊田小学校西側,35.3584147,139.3305359,公式データ
神奈川県,平塚市,30ー5,豊田宮下552,市立豊田小学校北側,35.3589469,139.3314268,公式データ
神奈川県,平塚市,30ー6,豊田小嶺392,豊田小嶺公園東側,35.3603332,139.333918,公式データ
神奈川県,平塚市,30ー7,豊田打間木669,打間木上バス停脇フェンス,35.3644012,139.3425239,公式データ
神奈川県,平塚市,31ー1,入野514,金田小学校南側フェンス,35.3528734,139.3150257,公式データ
神奈川県,平塚市,31ー2,入野514,金田小学校東側フェンス,35.3538012,139.3155126,公式データ
神奈川県,平塚市,31ー3,寺田縄590,県立平塚養護学校南側フェンス,35.3591496,139.3091589,公式データ
神奈川県,平塚市,31ー4,寺田縄966,ブロック塀,35.3592455,139.3212668,公式データ
神奈川県,平塚市,31ー5,寺田縄224,ブロック塀,35.3556749,139.3202599,公式データ
神奈川県,平塚市,31ー6,寺田縄424－1,ＪＡ湘南あさつゆ広場駐車場南側フェンス,35.3570579,139.3104256,公式データ
神奈川県,平塚市,31ー7,入野106,市立金田公民館向側フェンス,35.353619,139.3198263,公式データ
神奈川県,平塚市,31ー8,長持538－1,しまむらストアー長持店西側フェンス,35.3471058,139.320024,公式データ
神奈川県,平塚市,32ー1,纒226,市立松延小学校南側,35.3413844,139.3123251,公式データ
神奈川県,平塚市,32ー2,纒226,市立松延小学校東側,35.3418964,139.3137734,公式データ
神奈川県,平塚市,32ー3,徳延32,旭第１公園東側,35.3420957,139.3150771,公式データ
神奈川県,平塚市,32ー4,纒466,薬王寺南側,35.3428517,139.3162273,公式データ
神奈川県,平塚市,32ー5,纒691,しののめ橋第一自転車バイク駐車場 西側フェンス,35.3405492,139.3211788,公式データ
神奈川県,平塚市,32ー6,徳延358,徳延神社北側,35.3381208,139.3182183,公式データ
神奈川県,平塚市,32ー7,徳延723,ＦＵＪＩ徳延店第２駐車場北側,35.3352458,139.3172055,公式データ
神奈川県,平塚市,32ー8,徳延541,徳延公園北側鉄柵,35.3362207,139.3192612,公式データ
神奈川県,平塚市,33ー1,万田926,ブロック塀,35.3257394,139.3029926,公式データ
神奈川県,平塚市,33ー2,万田598,ブロック塀,35.3259914,139.3058631,公式データ
神奈川県,平塚市,33ー3,万田493,貝塚の里公園北側植栽,35.3299733,139.3061156,公式データ
神奈川県,平塚市,33ー4,万田1120,水路フェンス,35.3270519,139.2994091,公式データ
神奈川県,平塚市,33ー5,万田610－1,万田南公園西側フェンス,35.3250562,139.3067285,公式データ
神奈川県,平塚市,33ー6,万田437,県道公所大磯線植栽帯,35.3290831,139.3097359,公式データ
神奈川県,平塚市,33ー7,高根130,畑地,35.3263621,139.314275,公式データ
神奈川県,平塚市,33ー8,万田939－4,社会福祉法人真幸会ケアハウス湘南の里西側フェンス,35.3271458,139.3032037,公式データ
神奈川県,平塚市,34ー1,高村26,高村団地４９号棟北側,35.336026,139.3057874,公式データ
神奈川県,平塚市,34ー2,出縄437－2,市営出縄中谷戸住宅前市道ガードレール,35.3319208,139.3006962,公式データ
神奈川県,平塚市,34ー3,出縄207,弁天池横市道ガードレール,35.3300533,139.3021885,公式データ
神奈川県,平塚市,34ー4,高村45,市立勝原小学校西側正門横,35.3330752,139.3049429,公式データ
神奈川県,平塚市,34ー5,高村199,高村公園北東角,35.3335116,139.3099699,公式データ
神奈川県,平塚市,34ー6,高村26,高村団地３２号棟東側,35.334362,139.3071674,公式データ
神奈川県,平塚市,34ー7,高村166,市立山城中学校北側正門横,35.3324407,139.307776,公式データ
神奈川県,平塚市,35ー1,公所380,公所北交差点脇緑地帯,35.3495817,139.3026978,公式データ
神奈川県,平塚市,35ー2,公所484－1,ラークヒル前市道ガードレール,35.3448012,139.3004216,公式データ
神奈川県,平塚市,35ー3,公所732,万年塀,35.3456792,139.3038476,公式データ
神奈川県,平塚市,35ー4,日向岡二丁目16,向山公園西側,35.3410066,139.2974191,公式データ
神奈川県,平塚市,35ー5,日向岡二丁目9－1,市立旭陵中学校南側,35.3403888,139.2987126,公式データ
神奈川県,平塚市,35ー6,公所207,水路フェンス,35.3479308,139.299368,公式データ
神奈川県,平塚市,35ー7,日向岡二丁目1,山王山公園北側,35.3388385,139.3014904,公式データ
神奈川県,平塚市,35ー8,日向岡一丁目16,叶谷公園西側,35.3389231,139.2973372,公式データ
神奈川県,平塚市,36ー1,上吉沢1810,飛谷津バス停前市道フェンス,35.3471349,139.2769196,公式データ
神奈川県,平塚市,36ー2,上吉沢1210,ガードレール,35.3438438,139.2792928,公式データ
神奈川県,平塚市,36ー3,めぐみが丘二丁目24,めぐみが丘公園北側,35.3507844,139.2941162,公式データ
神奈川県,平塚市,36ー4,めぐみが丘一丁目10,めぐみが丘中央公園南側,35.3481909,139.2944697,公式データ
神奈川県,平塚市,36ー5,上吉沢594,市立吉沢小学校入口市道植栽,35.3462478,139.2875195,公式データ
神奈川県,平塚市,36ー6,上吉沢392,市立吉沢公民館正門左側,35.3439496,139.2905729,公式データ
神奈川県,平塚市,36ー7,めぐみが丘2－24,めぐみが丘公園西側,35.3499214,139.2926971,公式データ
神奈川県,平塚市,36ー8,下吉沢490,松岩寺バス折り返し場北側畑地,35.3385206,139.2927235,公式データ
神奈川県,平塚市,37ー1,土屋4039,土屋霊園入口バス停脇県道フェンス,35.3430877,139.250989,公式データ
神奈川県,平塚市,37ー2,土屋1127,座禅川橋　北西歩道フェンス,35.3498962,139.2608572,公式データ
神奈川県,平塚市,37ー3,土屋1864－1,土屋公民館前植栽,35.3504267,139.2626555,公式データ
神奈川県,平塚市,37ー4,土屋1218,畑地,35.3531876,139.2645344,公式データ
神奈川県,平塚市,37ー5,土屋1273,土屋橋バス停脇県道フェンス,35.3551068,139.2694852,公式データ
神奈川県,平塚市,37ー6,土屋1422－1,寺分ちびっ子広場前,35.35257,139.2685979,公式データ
神奈川県,平塚市,37ー7,土屋2201,東海大学運動場広場西側,35.3466495,139.2693756,公式データ
神奈川県,平塚市,37ー8,土屋2495－1,湘南農協土沢支所東側道路端,35.3457043,139.2719156,公式データ
神奈川県,平塚市,38ー1,南金目36,土屋橋バス停脇県道フェンス,35.3565253,139.2692455,公式データ
神奈川県,平塚市,38ー2,南金目966,市立金目公民館前,35.3614859,139.2908111,公式データ
神奈川県,平塚市,38ー3,南金目1013,市立金目中学校正門右側,35.3603904,139.2921844,公式データ
神奈川県,平塚市,38ー4,南金目907,市立金目小学校正門右側,35.3591901,139.2900466,公式データ
神奈川県,平塚市,38ー5,南金目1747,川前会館南東市道ガードレール,35.3577937,139.2889139,公式データ
神奈川県,平塚市,38ー6,南金目1837,市道脇,35.3539602,139.2864041,公式データ
神奈川県,平塚市,38ー7,千須谷163,千須谷公民館前水路フェンス,35.3532135,139.2917786,公式データ
神奈川県,平塚市,39ー1,広川248付近,広川バス停向かい北東側畑地,35.3526568,139.3016163,公式データ
神奈川県,平塚市,39ー2,片岡242,片岡下宗高信号　水路フェンス,35.3661153,139.3033971,公式データ
神奈川県,平塚市,39ー3,片岡667,グランドホール金目店専用駐車場南側フェンス,35.3598239,139.3019673,公式データ
神奈川県,平塚市,39ー4,広川52,ＮＴＴ東日本金目電話交換センター西側,35.3558052,139.3019996,公式データ
神奈川県,平塚市,39ー5,広川12,市立金旭中学校南側,35.354925,139.3040994,公式データ
神奈川県,平塚市,39ー6,広川12,市立金旭中学校東側,35.3550223,139.3054124,公式データ
神奈川県,平塚市,39ー7,広川52,ＮＴＴ東日本金目電話交換センター北側,35.3561844,139.3022686,公式データ
神奈川県,平塚市,40ー1,真田四丁目34－49,相原建設（株）北側,35.371889,139.2784325,公式データ
神奈川県,平塚市,40ー2,真田四丁目10－15,さなだ幼稚園南側フェンス,35.3667422,139.2740385,公式データ
神奈川県,平塚市,40ー3,真田四丁目386－6,真田公園北東側,35.3684574,139.2774267,公式データ
神奈川県,平塚市,40ー4,真田一丁目14－26,真田与一公園西側,35.3713576,139.2838298,公式データ
神奈川県,平塚市,40ー5,北金目二丁目15,塚越古墳公園北側,35.3674792,139.2845342,公式データ
神奈川県,平塚市,40ー6,北金目922,金目親水公園南側,35.3604399,139.2803133,公式データ
神奈川県,平塚市,40ー7,北金目二丁目39－1,市立みずほ小学校正門横,35.3638958,139.2867527,公式データ
神奈川県,平塚市,40ー8,北金目四丁目1－1,東海大学湘南キャンパス南門西側フェンス,35.3606252,139.2729926,公式データ
神奈川県,平塚市,41ー1,岡崎2657,駒形神社西側土手,35.3797095,139.2994888,公式データ
神奈川県,平塚市,41ー2,岡崎5951,みどりヶ丘北公園南側,35.3781643,139.30663,公式データ
神奈川県,平塚市,41ー3,岡崎3233,みどりヶ丘南公園北側,35.3759714,139.3048057,公式データ
神奈川県,平塚市,41ー4,岡崎3269,王御住運動広場北側,35.3757964,139.3084697,公式データ
神奈川県,平塚市,41ー5,岡崎3093,ひらおか幼稚園駐車場フェンス北側,35.3746453,139.301779,公式データ
神奈川県,平塚市,41ー6,岡崎3700付近,岡崎城址入口バス停付近市道ガードレール,35.3746456,139.3117138,公式データ
神奈川県,平塚市,41ー7,岡崎3430,市立岡崎小学校南側,35.3729162,139.3058869,公式データ
神奈川県,平塚市,41ー8,岡崎3884,資材置場南西側,35.3719049,139.311848,公式データ
神奈川県,平塚市,42ー1,田村四丁目31－1,市立神田中学校北側,35.3799098,139.3585907,公式データ
神奈川県,平塚市,42ー2,田村六丁目1－1,市立神田小学校北側,35.3769208,139.3622747,公式データ
神奈川県,平塚市,42ー3,田村六丁目1－1,市立神田小学校南側,35.3759826,139.3632885,公式データ
神奈川県,平塚市,42ー4,田村四丁目5－4,神奈川中央交通西㈱平塚営業所 南側フェンス,35.3760893,139.3576965,公式データ
神奈川県,平塚市,42ー5,田村四丁目184－1,田村けやき公園東側,35.3805882,139.3601983,公式データ
神奈川県,平塚市,42ー6,田村九丁目21,天神森北公園東側,35.3776433,139.3683531,公式データ
神奈川県,平塚市,42ー7,田村八丁目6－16付近,畠田橋西側植栽,35.3778017,139.3666415,公式データ
神奈川県,平塚市,43ー1,山下1096－2,山下北公園東側,35.3344892,139.3145436,公式データ
神奈川県,平塚市,43ー2,山下980－6,県営山下団地集会所東側,35.3327992,139.3155585,公式データ
神奈川県,平塚市,43ー3,山下413,八幡神社西側,35.3301068,139.312442,公式データ
神奈川県,平塚市,43ー4,山下791－3,山下西公園北側,35.3313071,139.3145033,公式データ
神奈川県,平塚市,43ー5,山下801－3,市立山下小学校西側,35.3311324,139.3159387,公式データ
神奈川県,平塚市,43ー6,山下801－3,市立山下小学校南側,35.3303676,139.3162739,公式データ
神奈川県,平塚市,43ー7,山下801－3,市立山下小学校北側,35.3312867,139.3173656,公式データ
神奈川県,平塚市,43ー8,山下10－1,山下の里公園入口脇植栽,35.3266031,139.3222053,公式データ
神奈川県,平塚市,44ー1,横内455,神田寺西側,35.3784713,139.3530098,公式データ
神奈川県,平塚市,44ー2,横内1948－3,市立横内中学校東側,35.3736459,139.3553396,公式データ
神奈川県,平塚市,44ー3,横内1948－3,市立横内中学校西側,35.3740828,139.3531994,公式データ
神奈川県,平塚市,44ー4,横内2738,ブロック塀,35.3720162,139.3506385,公式データ
神奈川県,平塚市,44ー5,横内2687,市立横内小学校南側,35.3709301,139.3517975,公式データ
神奈川県,平塚市,44ー6,横内2687,市立横内小学校東側,35.3718683,139.3530554,公式データ
神奈川県,平塚市,44ー7,横内3638,水路フェンス,35.367664,139.3531593,公式データ
神奈川県,平塚市,45ー1,根坂間738,大町バス停脇水路フェンス,35.3412857,139.3045556,公式データ
神奈川県,平塚市,45ー2,河内132,マックスバリュ平塚河内店公園南側フェンス,35.3426911,139.3104181,公式データ
神奈川県,平塚市,45ー3,河内69－3,河内緑地東側,35.3415661,139.309032,公式データ
神奈川県,平塚市,45ー4,根坂間651付近,日向岡トンネル東側出口植栽,35.3385829,139.3032972,公式データ
神奈川県,平塚市,45ー5,河内440,市立旭北公民館西側,35.3381636,139.3101846,公式データ
神奈川県,平塚市,45ー6,河内307,市立旭小学校北側,35.3357111,139.3095236,公式データ
神奈川県,平塚市,45ー7,河内307,市立旭小学校東側,35.3353457,139.3099822,公式データ
神奈川県,平塚市,46ー1,ふじみ野二丁目37,ふじみ野第２公園東側,35.3820228,139.3016786,公式データ
神奈川県,平塚市,46ー2,ふじみ野二丁目6,ふじみ野第１公園南側,35.3823819,139.3058836,公式データ
神奈川県,平塚市,46ー3,ふじみ野一丁目24,ふじみ野第３公園北側,35.3801255,139.3039186,公式データ
神奈川県,平塚市,46ー4,ふじみ野一丁目24,ふじみ野第３公園南側,35.3799418,139.3041493,公式データ
神奈川県,平塚市,46ー5,ふじみ野一丁目35,岡崎郵便局北側市道,35.3783266,139.3022975,公式データ
神奈川県,平塚市,46ー6,ふじみ野一丁目17,ふじみ野第４公園西側,35.3785324,139.3037959,公式データ
神奈川県,平塚市,46ー7,ふじみ野一丁目17,ふじみ野第４公園東側,35.3786111,139.3043363,公式データ
神奈川県,平塚市,47ー1,四之宮一丁目11－36,日産車体（株）中原寮南側フェンス,35.3491166,139.3468112,公式データ
神奈川県,平塚市,47ー2,四之宮一丁目10－1,市立神明中学校西側,35.3494125,139.348592,公式データ
神奈川県,平塚市,47ー3,四之宮一丁目10－1,市立神明中学校北側,35.3502198,139.3489675,公式データ
神奈川県,平塚市,47ー4,四之宮一丁目10－1,市立神明中学校南側,35.3490493,139.3495549,公式データ
神奈川県,平塚市,47ー5,四之宮一丁目3－39,神奈川県環境科学センター北側,35.3478347,139.3513462,公式データ
神奈川県,平塚市,47ー6,四之宮二丁目18－26,マックスバリュ平塚四之宮店北側公園フェンス,35.3519511,139.3550604,公式データ
神奈川県,平塚市,47ー7,四之宮二丁目17－21,マックスバリュ平塚四之宮店屋外駐車場東側フェンス,35.3514087,139.3556728,公式データ
神奈川県,平塚市,48ー1,東真土二丁目12－1,市立大野公民館西側フェンス,35.3555561,139.3545549,公式データ
神奈川県,平塚市,48ー2,東真土四丁目4－7,ドラッグストアセイムス西側フェンス,35.3603235,139.3534243,公式データ
神奈川県,平塚市,48ー3,東真土二丁目12－1,市立大野公民館南側フェンス,35.3553975,139.3547329,公式データ
神奈川県,平塚市,48ー4,東真土四丁目13,真土一の域公園東側,35.3625953,139.3568429,公式データ
神奈川県,平塚市,48ー5,東真土四丁目10－4,水路フェンス,35.3613759,139.354496,公式データ
神奈川県,平塚市,48ー6,東真土一丁目1－94,アール元気真土店東側駐輪場植栽,35.3533538,139.3531586,公式データ
神奈川県,平塚市,48ー7,東真土一丁目10－51,真土東公園西側,35.3556765,139.3521321,公式データ
