prefecture,city,number,address,name,lat,long
東京都,港区,1-1,港区虎ノ門1-21-10,グランスイート虎ノ門（とらトピア）前植込,35.6694391,139.7506751
東京都,港区,1-2,港区虎ノ門3-18-18,西久保巴町児童遊園内防災倉庫脇フェンス,35.6631954,139.7459381
東京都,港区,1-3,港区虎ノ門2-10-2,江戸見坂公園植込,35.6666652,139.7447724
東京都,港区,1-4,港区虎ノ門3-8-11,虎ノ門三丁目児童遊園内西側植込,35.6657647,139.7478034
東京都,港区,1-5,港区虎ノ門3-13-1,天徳寺前歩道上植込,35.6642114,139.7469796
東京都,港区,1-6,港区虎ノ門3-23,手まり坂緑地鉄柵,35.6616409,139.746366
東京都,港区,1-7,港区芝公園3-6-7,芝給水場公園南側植込,35.6613226,139.7452043
東京都,港区,2-1,港区西新橋2-20-6,東京電力（株）愛宕変電所西側塀,35.6659104,139.7520713
東京都,港区,2-2,港区西新橋2-10-13,南桜公園南側植込,35.6663773,139.7527195
東京都,港区,2-3,港区西新橋2-10-13,南桜公園西側入口右側植込,35.6663773,139.7527195
東京都,港区,2-4,港区愛宕2-2,愛宕神社前交差点都道植込（愛宕グリーンヒルズ前）,35.6621409,139.7488929
東京都,港区,2-5,港区西新橋2-32,愛宕一丁目交差点脇駐車場西側金網,35.6660306,139.749978
東京都,港区,2-6,港区西新橋2-10-13,南桜公園北側植込,35.6663773,139.7527195
東京都,港区,2-7,港区西新橋3-19-10,東京慈恵会医科大学付属病院C棟東側塀,35.662837,139.7499189
東京都,港区,3-1,港区新橋1-3,首都高速道路土橋ランプ入口左側ガード横植込,35.6682841,139.7582599
東京都,港区,3-2,港区新橋3-16-3,生涯学習センター北側植込,35.6658671,139.7571424
東京都,港区,3-3,港区新橋3-16-15,桜田公園西側植込,35.6654333,139.7567497
東京都,港区,3-4,港区新橋3-16-15,桜田公園南側入口右側塀,35.6654333,139.7567497
東京都,港区,3-5,港区新橋2-7,新橋駅ＳＬ広場蒸気機関車西側鉄柵,35.6671368,139.7574245
東京都,港区,4-1,港区新橋5-19,塩釜公園北東側植込,35.6630596,139.7548939
東京都,港区,4-2,港区新橋6-19-2,福祉プラザさくら川　東側植込,35.6612067,139.7537795
東京都,港区,4-3,港区西新橋3-25-8,東京慈恵会医科大学付属病院中央棟西側バス停手前植込,35.662837,139.7499189
東京都,港区,4-4,港区芝公園1-5-25,港区役所前植込,35.6580231,139.7514801
東京都,港区,4-5,港区芝公園2-7-2,アクアフィールド芝公園北側植込,35.6545324,139.7506466
東京都,港区,4-6,港区芝公園3-2-25,みなと図書館左側芝公園4号地多目的広場前植込,35.65989,139.75016
東京都,港区,4-7,港区芝公園4-8,都営大江戸線芝公園駅Ａ4出入口北側都立芝公園内植込,35.6539326,139.7498313
東京都,港区,5-1,港区海岸１－４,都立旧芝離宮恩賜庭園児童公園入口左側鉄柵,35.6549505,139.7587206
東京都,港区,5-2,港区海岸１－２－１０,海岸通り交差点植込,35.6572939,139.7597676
東京都,港区,5-3,港区海岸１－８－２５,都立芝商業高等学校正門右側の塀,35.6563541,139.7608742
東京都,港区,5-4,港区東新橋１－１０－２０,イタリア公園西側植込,35.659514,139.7591846
東京都,港区,5-5,港区東新橋１－１０－２０,イタリア公園東側植込,35.659514,139.7591846
東京都,港区,5-6,港区海岸１－５－３７,区立浜崎公園,35.653273,139.757395
東京都,港区,5-7,港区浜松町２－１３－３,浜松町四丁目児童遊園西側出口階段手前,35.6533393,139.7545538
東京都,港区,5-8,港区海岸１－４,都立旧芝離宮恩賜庭園南側鉄柵,35.6549505,139.7587206
東京都,港区,6-1,港区芝１－８－２３,障害保健福祉センター前植込,35.6515665,139.7555231
東京都,港区,6-2,港区芝４－１５,本芝公園北側トイレ前植込,35.6470459,139.7499803
東京都,港区,6-3,港区芝浦１－１－１０,新浜公園北西側ブロック塀,35.6524367,139.7586898
東京都,港区,6-4,港区芝浦１－６－６,東京電力（株）南浜橋変電所北側右寄り塀,35.6477966,139.7558743
東京都,港区,6-5,港区海岸２－６－３６,日の出駅北側出口モノレール下歩道植込,35.6495069,139.7588051
東京都,港区,6-6,港区芝浦１－２,末広橋北側道路鉄柵,35.649953,139.7567427
東京都,港区,6-7,港区海岸２－１－２７,末広橋児童遊園内北側植込,35.6491715,139.7579663
東京都,港区,6-8,港区海岸２－６－２４,日の出駅北側出口モノレール下歩道植込,35.6495069,139.7588051
東京都,港区,7-1,港区芝２－１２－３,芝新堀町児童遊園北東側植込,35.6516053,139.7530381
東京都,港区,7-2,港区芝２－２１－３,芝小学校北東側門左側植込,35.6507996,139.7500489
東京都,港区,7-3,港区芝２－２１－３,旧芝幼稚園正門右側給食室前塀,35.6657394,139.7524942
東京都,港区,7-4,港区芝３－７－１,ＮＴＴ三田ビル北西側鉄柵,35.6522758,139.748039
東京都,港区,7-5,港区芝３－３４,芝３－３４南側区道沿い,35.650386,139.7477995
東京都,港区,7-6,港区芝３－２４－５,masked,35.6513651,139.7481388
東京都,港区,7-7,港区芝３－２３,芝３－２３都道植込,35.6510572,139.7487576
東京都,港区,7-8,港区芝４－１－１７,三田いきいきプラザ東南植込,35.6488104,139.7497509
東京都,港区,8-1,港区芝5-8-1,芝税務署北側鉄柵,35.6490078,139.7470242
東京都,港区,8-2,港区芝5-8-1,芝税務署西側鉄柵,35.6490078,139.7470242
東京都,港区,8-3,港区芝5-18-1,芝保育園南側鉄柵,35.6482899,139.7478457
東京都,港区,8-4,港区芝5-18-1,芝保育園西側金網,35.6482899,139.7478457
東京都,港区,8-5,港区芝5-18-2,東京都障害者福祉会館前鉄柵,35.6483654,139.7485676
東京都,港区,8-6,港区芝5-18-4,芝五丁目児童遊園東側植込,35.6482192,139.748147
東京都,港区,8-7,港区芝5-28-4,旧三田図書館北側鉄柵,35.6470147,139.7452161
東京都,港区,9-1,港区芝浦2-5-1,あすか製薬前緑地,35.6453196,139.7539509
東京都,港区,9-2,港区芝浦2-11-5,芝渚橋東側鉄柵,35.6422769,139.7516598
東京都,港区,9-3,港区芝浦3-1-16,しばうら保育園前植込,35.645072,139.750218
東京都,港区,9-4,港区芝浦1-16-1,みなとパーク芝浦北側植込,35.646589,139.7517867
東京都,港区,9-5,港区芝浦1-16-25,芝浦公園北西側植込,35.645561,139.7516646
東京都,港区,9-6,港区芝浦3-19-26,渚橋西側橋台敷植込,35.6416274,139.7498066
東京都,港区,9-7,港区海岸3-14-34,埠頭公園西側植込右寄り,35.6417298,139.7555405
東京都,港区,9-8,港区芝浦3-3-6,東京工業大学附属科学技術高等学校南側港芝浦郵便局寄り堺,35.6440497,139.7472295
東京都,港区,10-1,港区三田3-2-23,（財）香川育英会学生寮安全寺坂側金網,35.646964,139.7417278
東京都,港区,10-2,港区三田3-2-27,普連土学園西側金網右寄り,35.646489,139.7416688
東京都,港区,10-3,港区三田4-13-13,三田中学校 バスケットコート前植込,35.64523,139.740851
東京都,港区,10-4,港区三田4-13-13,三田中学校 地域開放施設入口コンクリート堺,35.64523,139.740851
東京都,港区,10-5,港区三田3-5-28,東京聖徳学園前都道沿い,35.6455491,139.7439787
東京都,港区,10-6,港区三田3-8-6,高輪郵便局西側植込,35.6422137,139.7413878
東京都,港区,10-7,港区三田3-8-6,高輪郵便局入口右側植込,35.6422137,139.7413878
東京都,港区,11-1,港区三田２－６－２,赤羽小学校西側鉄柵,35.6516132,139.7424911
東京都,港区,11-2,港区三田２－６－２,赤羽小学校正門左側植込,35.6516132,139.7424911
東京都,港区,11-3,港区三田１－１０,古川地下調節池排水施設脇（左側）鉄柵,35.6555061,139.7379435
東京都,港区,11-4,港区三田１－４－４６,都立三田高等学校正門左側植込,35.6523271,139.7427018
東京都,港区,11-5,港区三田１－１３－１１,龍原寺東側塀右寄り,35.6526535,139.7397968
東京都,港区,11-6,港区三田２－１０－７,三田二丁目児童遊園南側植込左寄り,35.6504515,139.7445233
東京都,港区,11-7,港区三田２－２－２４,慶応義塾大学グランド入口左側塀,35.6489596,139.7431687
東京都,港区,11-8,港区三田２－６－１７,東京消防庁家族待機宿舎及び指定待機宿舎南側鉄柵,35.6512246,139.74251
東京都,港区,12-1,港区三田２－１７－１０,慶應義塾中等部正門左側塀左端,35.6489494,139.7404588
東京都,港区,12-2,港区三田２－１９－１１,三田綱町児童遊園東側植込,35.6493883,139.7396018
東京都,港区,12-3,港区三田２－１７－２３,慶應義塾女子高等学校西側塀,35.6479979,139.7401478
東京都,港区,12-4,港区三田２－１７－２３,慶應義塾女子高等学校南側塀,35.6479979,139.7401478
東京都,港区,12-5,港区三田４－２－１０,願海寺 国道１号線歩道前石垣,35.6454823,139.7400315
東京都,港区,12-6,港区三田５－７－８,シャンボール三田公園西側鉄柵,35.6464932,139.7388975
東京都,港区,12-7,港区三田５－７－８,シャンボール三田公園北側鉄柵,35.6464932,139.7388975
東京都,港区,12-8,港区三田５－２１,さわやか信金前都道植込,35.6442411,139.7365026
東京都,港区,13-1,港区三田４－７－３０,忍願寺入口右側鉄柵右寄り,35.6441564,139.7377905
東京都,港区,13-2,港区三田４－１７,三田台公園（南側）北側植込,35.6422458,139.7397768
東京都,港区,13-3,港区三田４－１６,亀塚公園内小山前鉄柵,35.6431655,139.7406811
東京都,港区,13-4,港区三田４－１６,亀塚公園内北側植込,35.6431655,139.7406811
東京都,港区,13-5,港区三田４－１７,三田台公園（南側）南側植込,35.6422458,139.7397768
東京都,港区,13-6,港区高輪１－５－３８,ゆらりん高輪保育園金網,35.6417002,139.7366622
東京都,港区,13-7,港区三田４－１７,三田台公園（北側）南側植込,35.6422458,139.7397768
東京都,港区,14-1,港区白金４－１－１２,白金の丘学園正門右側植込,35.6435111,139.7268165
東京都,港区,14-2,港区白金１－２５－３,白金一丁目児童遊園植込,35.6445124,139.731966
東京都,港区,14-3,港区白金１－１７－４,白高児童遊園北側植込,35.6450302,139.7334847
東京都,港区,14-4,港区白金３－７－９,シティハイツ白金東側鉄柵,35.6460483,139.7302763
東京都,港区,14-5,港区白金３－１８－２,旧三光小学校南側植込,35.6437464,139.7268322
東京都,港区,14-6,港区白金３－１８－２,旧三光小学校正門左側植込,35.6437464,139.7268322
東京都,港区,14-7,港区白金３－１３－８,三光幼稚園南側鉄柵,35.644986,139.728885
東京都,港区,14-8,港区白金４－３－９,西光寺北側塀バス停前,35.643706,139.7299371
東京都,港区,14-9,港区白金１－２９,白金志田町歩道橋,35.6432761,139.7338284
東京都,港区,15-1,港区白金５－９－１,北里大学白金キャンパス北側入口左側塀,35.6447768,139.7256298
東京都,港区,15-2,港区白金５－９－１,北里大学白金キャンパス正面入口左側塀,35.6447768,139.7256298
東京都,港区,15-3,港区白金５－１２－７,（有）荒木塗工所東側塀,35.6457433,139.7243789
東京都,港区,15-4,港区白金６－９－５,神応いきいきプラザ北側植込,35.6436311,139.7246094
東京都,港区,15-5,港区白金６－９－５,神応いきいきプラザ南側フェンス,35.6436311,139.7246094
東京都,港区,15-6,港区白金６－２２－４,奥三光児童遊園西側金網,35.6439246,139.7214758
東京都,港区,15-7,港区白金台５－１１,日東坂下遊び場内西側植込,35.6413318,139.7195
東京都,港区,15-8,港区白金５－１２－５,三光児童遊園北側金網,35.6459354,139.7243854
東京都,港区,16-1,港区白金台５－１９－１,白金台どんぐり児童遊園東側塀,35.6365634,139.722171
東京都,港区,16-2,港区白金台１－４－２６,白金小学校西側鉄柵（南寄り）,35.6367213,139.7285128
東京都,港区,16-3,港区白金台２－２４－３,白金児童遊園南側金網,35.6328559,139.7293547
東京都,港区,16-4,港区白金台２－２５－３,独立行政法人地域医療機能推進機構東京高輪病院第一白金寮入口右側金網,35.6312096,139.7319296
東京都,港区,16-5,港区白金台３－７－１,白金台幼稚園入口右側金網,35.635614,139.726499
東京都,港区,16-6,港区白金台１－４－２６,白金小学校西側鉄柵（北寄り）,35.6367213,139.7285128
東京都,港区,16-7,港区白金台３－１４－６,ＮＴＴ白金ビル東側鉄柵右寄り,35.6368286,139.7254474
東京都,港区,16-8,港区白金台５－１９－１,白金台どんぐり児童遊園バス停前植込,35.6365634,139.722171
東京都,港区,17-1,港区高輪１－１５－１,都営高輪一丁目アパート南側植込,35.6393419,139.7345928
東京都,港区,17-2,港区高輪１－４－３５,高輪子ども中高生プラザ前鉄柵,35.6424207,139.7348263
東京都,港区,17-3,港区高輪１－１６－２５,区立高松中学校東側金網,35.6420115,139.7339513
東京都,港区,17-4,港区高輪１－１６－２５,区立高松中学校北西石垣,35.6420115,139.7339513
東京都,港区,17-5,港区高輪１－２７－２７,区立高輪一丁目緑地,35.635823,139.7329442
東京都,港区,17-6,港区高輪２－１２－３１,高輪幼稚園入口左側金網,35.6354068,139.7353078
東京都,港区,17-7,港区高輪２－８－２４,高輪台小学校の中央寄り門左側植込,35.6362996,139.7343135
東京都,港区,17-8,港区高輪３－１,高輪郵政宿舎西側植込右寄り,35.6354913,139.7315934
東京都,港区,18-1,港区高輪２－１３－８,シティハイツ桂坂公園側鉄柵,35.6345147,139.7377242
東京都,港区,18-2,港区高輪２－１３－８,シティハイツ桂坂東側植込左寄り,35.6345147,139.7377242
東京都,港区,18-3,港区高輪３－１９－３６,桂坂保育室Ａ棟南側金網,35.6337643,139.7374406
東京都,港区,18-4,港区高輪２－１５－３７,泉岳寺前児童遊園金網,35.637334,139.7380139
東京都,港区,18-5,港区高輪３－１８－１８,高輪公園入口左側スロープ,35.6329215,139.7354937
東京都,港区,18-6,港区高輪３－１９－３６,桂坂保育室Ａ棟北側金網,35.6337643,139.7374406
東京都,港区,18-7,港区高輪３－１８－１８,高輪公園入口右側植込,35.6329215,139.7354937
東京都,港区,19-1,港区高輪４－１０－８,柘榴坂標識前植込,35.6295267,139.7330659
東京都,港区,19-2,港区高輪３－９－１３,東京電力パワーグリッド（株）高輪調整所南側植込,35.6321171,139.7318129
東京都,港区,19-3,港区高輪３－１３－３,シナガワグース南西角搬入車両入口右側,35.6303427,139.7361334
東京都,港区,19-4,港区高輪４－１－５,佛所護念会高輪教会東側鉄柵,35.629674,139.731305
東京都,港区,19-5,港区高輪４－１－５,佛所護念会高輪教会北側鉄柵,35.629674,139.731305
東京都,港区,19-6,港区高輪４－２４－３６,区立高輪南町児童遊園北側植込,35.6250716,139.7351505
東京都,港区,19-7,港区高輪３－１３,旧品川駅高輪口第一暫定自転車等駐車場（旧みなと高輪バイクイン）金網,35.6305456,139.7351855
東京都,港区,20-1,港区港南4-6,天王洲大橋手前（港区側）都道鉄柵,35.6268689,139.7517918
東京都,港区,20-2,港区港南4-3-3,港南中学校北側植込,35.631199,139.749111
東京都,港区,20-3,港区港南4-3-28,港南小学校正門横植込,35.6291935,139.7495522
東京都,港区,20-4,港区港南4-3,港南子ども中高生プラザ前都道植込,35.6309619,139.7500326
東京都,港区,20-5,港区港南4-3-28,港南小学校開放玄関左側植込,35.6291898,139.7496418
東京都,港区,20-6,港区港南4-5,海岸通り側東京海洋大学前都道植込,35.6289869,139.746763
東京都,港区,20-7,港区港南4-5-1,都営港南四丁目アパート1号棟北側植込,35.6283971,139.7465619
東京都,港区,20-8,港区港南4-5-4,都営港南四丁目アパート4号棟前区立高浜運河沿緑地,35.6246105,139.7467777
東京都,港区,21-1,港区六本木4-2-27,三河台公園南側入口右側植込,35.6646342,139.7339768
東京都,港区,21-2,港区六本木4-2-30,三河台公園西側鉄柵,35.6646342,139.7339768
東京都,港区,21-3,港区六本木6-8-16,六本木中学校校庭側左寄り塀,35.6608896,139.7322104
東京都,港区,21-4,港区六本木7-7,政策研究大学院大学北東道路（区道852号線）道路植込,35.6640667,139.7270857
東京都,港区,21-5,港区六本木7-7,政策研究大学院大学北東道路（区道852号線）道路植込,35.6640667,139.7270857
東京都,港区,21-6,港区六本木7-9-1,masked,35.6645355,139.7295644
東京都,港区,21-7,港区六本木7-17-8,六本木西公園内スツール植込,35.6633551,139.7298333
東京都,港区,22-1,港区麻布台1-5-15,麻布小学校正門右側植込,35.6617978,139.738422
東京都,港区,22-2,港区麻布台1-5-15,麻布小学校前区掲示板右横ブロック塀,35.6617978,139.738422
東京都,港区,22-3,港区六本木1-3-50,(旧)齋藤病院北側塀右寄り,35.6664675,139.7395451
東京都,港区,22-4,港区六本木1-8-1,masked,35.6634819,139.7389897
東京都,港区,22-5,港区六本木1-4-11,六本木坂上児童遊園植込,35.6656481,139.7399096
東京都,港区,22-6,港区六本木5-16-46,麻布保育園裏側植込,35.6612021,139.7351456
東京都,港区,22-7,港区六本木5-18,永坂上遊び場東側金網,35.6600313,139.7367084
東京都,港区,22-8,港区六本木1-6-1,泉ガーデンタワー前歩道植込,35.6645616,139.7394963
東京都,港区,23-1,港区港区麻布台３－５－５,飯倉ヒルズ区道側金網,35.6601626,139.7399676
東京都,港区,23-2,港区東麻布１－２１,飯倉公園南側鉄柵,35.6557099,139.7438591
東京都,港区,23-3,港区東麻布１－２２,飯倉公園東側植込,35.6557099,139.7438591
東京都,港区,23-4,港区東麻布２－３２,東麻布２－３２都道319植込,35.6558823,139.7402148
東京都,港区,23-5,港区東麻布２－１６－１１,飯倉いきいきプラザ南側植込右寄り,35.656923,139.740911
東京都,港区,23-6,港区東麻布２－３５,首都高速道路サービス㈱東麻布駐車場鉄柵（東麻布二丁目バス停前）,35.6554196,139.7406831
東京都,港区,23-7,港区麻布狸穴町６３,狸穴公園北側植込,35.6581285,139.7389849
東京都,港区,23-8,港区東麻布１－３０,首都高速道路 芝公園入口（渋谷方面）北側金網,35.6550125,139.7421211
東京都,港区,24-1,港区麻布十番１－１０,新一の橋交差点前歩道,35.6561311,139.7365426
東京都,港区,24-2,港区元麻布２－６－２,宮村児童遊園入口左側ガードレール寄り金網,35.6545071,139.7299083
東京都,港区,24-3,港区元麻布３－９,旧麻布保育園跡地南西側金網（茶色鉄柱の野口邸側）,35.6562247,139.730875
東京都,港区,24-4,港区元麻布３－８－１５,南山小学校体育館前左側鉄柵,35.657256,139.731121
東京都,港区,24-5,港区六本木６－１６－３６,都立六本木高等学校正門横鉄柵,35.65774,139.731209
東京都,港区,24-6,港区六本木６－１６－３６,都立六本木高等学校北側塀,35.65774,139.731209
東京都,港区,24-7,港区六本木６－１６,さくら坂公園南側植込,35.6583433,139.7290811
東京都,港区,25-1,港区南麻布１－８,東町小学校北側植込,35.6508706,139.7358331
東京都,港区,25-2,港区南麻布２－２－８,南麻布新堀児童遊園北側植込,35.6498614,139.7358051
東京都,港区,25-3,港区南麻布１－８－１１,東町小学校東側植込,35.6508706,139.7358331
東京都,港区,25-4,港区南麻布１－７－２９,区立南麻布一丁目児童遊園植込,35.6509642,139.7371107
東京都,港区,25-5,港区南麻布２－７,首都高速道路サービス㈱古川橋駐車場金網,35.6469669,139.7364939
東京都,港区,25-6,港区麻布十番２－１５－１,網代公園北側植込,35.6544591,139.7355369
東京都,港区,25-7,港区麻布十番２－１５－１,網代公園西側植込,35.6544591,139.7355369
東京都,港区,25-8,港区麻布十番４－５－１,新広尾公園東側植込,35.6544393,139.7374259
東京都,港区,25-9,港区南麻布２－２－８,南麻布新堀児童遊園南側植込,35.6498614,139.7358051
東京都,港区,26-1,港区南麻布3-11,薬園坂緑地,35.6487466,139.7309028
東京都,港区,26-2,港区南麻布3-9-33,本村小学校西側植込左寄り,35.6499747,139.7298728
東京都,港区,26-3,港区南麻布3-9-33,本村小学校南側植込左寄り,35.6499747,139.7298728
東京都,港区,26-4,港区南麻布4-2-29,南麻布保育園南側鉄柵,35.6477412,139.7241201
東京都,港区,26-5,港区南麻布4-3-2,都営南麻布四丁目アパート2号棟前鉄柵,35.648047,139.7245295
東京都,港区,26-6,港区元麻布2-14-12,元麻布保育園西側鉄柵,35.6529682,139.7303804
東京都,港区,26-7,港区南麻布4-15,首都高速道路サービス㈱天現寺橋（1）駐車場,35.6465488,139.7269639
東京都,港区,26-8,港区南麻布4-6-1,ありすの杜 きのこ南麻布 駐車場入口右側植込,35.6502115,139.7265872
東京都,港区,27-1,港区西麻布3-20-14,梅田ビル前植込,35.6602226,139.7258664
東京都,港区,27-2,港区南麻布5-6-33,麻布運動場（野球場）東側植込右寄り,35.6522727,139.7283694
東京都,港区,27-3,港区南麻布5-6-33,麻布運動場（テニスコート）西側鉄柵左寄り,35.6519076,139.7277645
東京都,港区,27-4,港区南麻布5-6-33,麻布運動場（テニスコート）西側鉄柵右寄り,35.6519076,139.7277645
東京都,港区,27-5,港区西麻布3-11-28,笄小学校西側金網,35.656476,139.724904
東京都,港区,27-6,港区西麻布3-12-1,笄公園西側金網,35.6565632,139.7242058
東京都,港区,27-7,港区西麻布3-21-6,麻布カトリック教会西側塀,35.6592671,139.7252349
東京都,港区,27-8,港区西麻布3-12-1,笄公園東側鉄柵,35.6565632,139.7242058
東京都,港区,28-1,港区西麻布1-1-1,六本木六丁目交差点都道植込,35.6616475,139.7279841
東京都,港区,28-2,港区西麻布2-26-23,高樹町センタービル前植込,35.6598656,139.7199636
東京都,港区,28-3,港区西麻布2-1-2,笄児童遊園西側鉄柵,35.6641268,139.7199741
東京都,港区,28-4,港区西麻布1-2,西麻布1-2霞坂植込,35.6614943,139.7272033
東京都,港区,28-5,港区西麻布2-1-2,笄児童遊園東側トイレ裏鉄柵,35.6641268,139.7199741
東京都,港区,28-6,港区西麻布2-21,長谷会館前墓地堺,35.6608746,139.7182778
東京都,港区,28-7,港区西麻布1-11-4,ホテル＆レジデンス六本木前植込,35.6603457,139.7246094
東京都,港区,29-1,港区南青山７－８－８,南青山ロイアルハイツ前植込,35.6589948,139.7174466
東京都,港区,29-2,港区西麻布４－９－２,神道大教院南側金網,35.6569066,139.7224058
東京都,港区,29-3,港区西麻布４－１４－８,高陵中学校東側奥植込,35.6568062,139.7203576
東京都,港区,29-4,港区西麻布４－１３－１５,西麻布４丁目緑地,35.657518,139.7212887
東京都,港区,29-5,港区西麻布４－１４－８,高陵中学校正門右側植込,35.656898,139.720394
東京都,港区,29-6,港区南青山７－１,しまねイン青山前植込,35.6585577,139.7133685
東京都,港区,29-7,港区南青山７－１－７,南青山七丁目緑地,35.6581783,139.7148044
東京都,港区,30-1,港区元赤坂１－２－１７,ＡＫＡＳＡＫＡ Ｋ－ＴＯＷＥＲ前歩道植込,35.678444,139.734483
東京都,港区,30-2,港区赤坂４－８－２０,ＡＳＯビルディング（ドトールコーヒー）前歩道植込,35.6758995,139.7334293
東京都,港区,30-3,港区赤坂４－１０－３６,山脇学園南側鉄柵右寄り,35.6747838,139.7331742
東京都,港区,30-4,港区赤坂４－１３－２２,ドーミー赤坂入口左側塀,35.6730867,139.732271
東京都,港区,30-5,港区赤坂４－１８－１３,赤坂地区総合支所前歩道植込,35.674752,139.731631
東京都,港区,30-6,港区赤坂５－２－４７,円通寺坂公園南側植込,35.6728914,139.7338235
東京都,港区,30-7,港区赤坂５－２－５０,シティハイツーツ木入口右側金網,35.6729695,139.7340679
東京都,港区,31-1,港区赤坂１－７,赤坂榎坂町緑地前歩道植込,35.66889,139.74191
東京都,港区,31-2,港区赤坂５－５－２６,一ツ木公園北側植込,35.6708108,139.7334276
東京都,港区,31-3,港区赤坂６－５－４,氷川公園南側倉庫右側植込,35.6709043,139.7371892
東京都,港区,31-4,港区赤坂６－６－１４,赤坂子ども中高生プラザ東側植込,35.6699662,139.7376307
東京都,港区,31-5,港区赤坂６－６－１４,赤坂子ども中高生プラザ南東駐輪場前,35.6699662,139.7376307
東京都,港区,31-6,港区赤坂６－７－１７,masked,35.6691814,139.7378971
東京都,港区,31-7,港区赤坂６－１０－１２,赤坂氷川神社入口左側石柵,35.6682467,139.7355223
東京都,港区,31-8,港区赤坂６－５－４,氷川公園北東部植込,35.6709043,139.7371892
東京都,港区,32-1,港区赤坂7-3-39,高橋是清翁記念公園北側植込,35.673673,139.7288999
東京都,港区,32-2,港区赤坂8-13-29,赤坂小学校南側鉄柵,35.669311,139.731028
東京都,港区,32-3,港区赤坂8-11-32,乃木公園西側金網,35.6679674,139.7274786
東京都,港区,32-4,港区赤坂8-13-29,赤坂小学校西側鉄柵,35.669311,139.731028
東京都,港区,32-5,港区赤坂9-3-21,区立桑田記念児童遊園植込,35.6685899,139.730311
東京都,港区,32-6,港区赤坂9-7-9,桧町公園東北側植込（桧坂下）,35.6669098,139.732213
東京都,港区,32-7,港区赤坂9-7-9,桧町公園東南側植込（桧坂上）,35.6669098,139.732213
東京都,港区,32-8,港区赤坂7-1-16,オーク赤坂ビル（ファミリーマート）前植込,35.6742909,139.7299257
東京都,港区,33-1,港区赤坂8-4-16,赤坂郵便局前歩道植込,35.673344,139.726419
東京都,港区,33-2,港区南青山1-3-6,都営南青山一丁目アパート前歩道植込,35.6715441,139.7259877
東京都,港区,33-3,港区南青山1-4-4,区立青葉公園入口植込,35.6709544,139.7248
東京都,港区,33-4,港区南青山1-5,東京都立青山公園西側植込,35.6693188,139.7246242
東京都,港区,33-5,港区南青山1-6,東京都南青山一丁目ひろば南側金網,35.6701843,139.7247291
東京都,港区,33-6,港区南青山1-1,新青山ビル前歩道鉄柵,35.6726892,139.7253975
東京都,港区,33-7,港区南青山1-15,第45興和ビル前歩道鉄柵,35.668845,139.7266867
東京都,港区,34-1,港区南青山2-1-1,ホンダ青山ビル前歩道区掲示板脇植込,35.6724123,139.7237877
東京都,港区,34-2,港区南青山2-16-5,青山いきいきプラザ北側植込,35.6690328,139.721294
東京都,港区,34-3,港区南青山2-21-2,青山小学校西側門右側塀,35.669877,139.719063
東京都,港区,34-4,港区南青山2-21-12,青山運動場管理棟左側鉄柵,35.6692332,139.7189531
東京都,港区,34-5,港区北青山1-1-9,青山中学校東側門左側鉄柵,35.674193,139.722154
東京都,港区,34-6,港区北青山1-6-6,区立北青山一丁目児童遊園鉄柵,35.674911,139.7216223
東京都,港区,34-7,港区北青山1-6-1,都営北青山一丁目アパート1号棟南西側植込,35.6730824,139.7214968
東京都,港区,35-1,港区南青山4-21-15,青南小学校南側 側門鉄柵,35.663508,139.716141
東京都,港区,35-2,港区南青山3-1-31,ＮＢＦ南青山ビル前歩道植込,35.6682776,139.7158705
東京都,港区,35-3,港区南青山4-19,青南小学校第2屋外運動場フェンス,35.6639439,139.7165089
東京都,港区,35-4,港区南青山4-21-15,青南小学校東側生垣右寄り,35.663508,139.716141
東京都,港区,35-5,港区南青山4-21-15,青南小学校西側塀,35.663508,139.716141
東京都,港区,35-6,港区南青山4-28-2,東京都南青山霊園立山墓地東側塀,35.6634862,139.7194219
東京都,港区,35-7,港区南青山6-7-12,コンシェリア南青山前植込,35.6594709,139.7176089
東京都,港区,35-8,港区南青山4-2,青山マスターズハウス前歩道,35.6648037,139.7202639
東京都,港区,36-1,港区北青山2-14,青山グランドホテル前歩道植込（国道沿い）,35.66952,139.715796
東京都,港区,36-2,港区北青山3-3-11,ルネ青山ビル前歩道植込,35.6679999,139.7145538
東京都,港区,36-3,港区北青山3-5-4,青山高野ビル前植込,35.6675046,139.7142722
東京都,港区,36-4,港区北青山3-3,北青山3-3-4ビル前植込,35.6687649,139.7153127
東京都,港区,36-5,港区北青山3-4,青山保育園入口前鉄柵,35.6668617,139.7130211
東京都,港区,36-6,港区北青山2-14,青山グランドホテル前歩道鉄柵（都道沿い）,35.66952,139.715796
東京都,港区,36-7,港区北青山3-6-12,ヒューリック青山ビル前植込,35.6650537,139.7118742
東京都,港区,37-1,港区台場1-1-5,お台場学園正門右側塀,35.633646,139.777123
東京都,港区,37-2,港区台場1-1-5,お台場学園西側植込左寄り,35.633646,139.777123
東京都,港区,37-3,港区台場1-3,お台場レインボー公園前歩道植込,35.6330836,139.7779994
東京都,港区,37-4,港区台場1-5,台場1丁目5番階段付近歩道植込,35.6300575,139.7776686
東京都,港区,37-5,港区台場1-5-1,台場区民センター正面入口左側植込,35.6297541,139.7770602
東京都,港区,37-6,港区台場1-4,お台場海浜公園南西側歩道鉄柵,35.6300488,139.7756912
東京都,港区,37-7,港区台場1-5,マルエツ前テレポートブリッジ下受電所囲い金網,35.6298085,139.777947
東京都,港区,38-1,港区芝浦４－８－１８,芝浦小学校前植込,35.6383977,139.746778
東京都,港区,38-2,港区芝浦４－７－５,デュプレ芝浦右側植込,35.6375119,139.7459405
東京都,港区,38-3,港区芝浦４－８－５,港区立芝浦四丁目緑地,35.6394288,139.7461843
東京都,港区,38-4,港区芝浦４－１０－１６,沖電気ビジネスセンター５号館左側鉄柵,35.6406225,139.7474472
東京都,港区,38-5,港区芝浦４－１５－１,プラウドタワー芝浦前歩道植込,35.6389139,139.7477979
東京都,港区,38-6,港区芝浦４－１３－２,芝浦港南区民センター前植込（トリニティ芝浦緑地）,35.6405364,139.748558
東京都,港区,38-7,港区芝浦４－１５－７,日本電気計器検定所東側鉄柵,35.638666,139.748447
東京都,港区,38-8,港区芝浦４－４－３８,都営芝浦４丁目アパート駐輪場鉄柵,35.641447,139.7451046
東京都,港区,39-1,港区港南１－２－２８,東京都下水道局芝浦水再生センター東側塀,35.6361409,139.7457319
東京都,港区,39-2,港区港南１－３－２３,東京都水道局港南庁舎旧海岸通り側右側塀,35.6356488,139.7467152
東京都,港区,39-3,港区港南２－１６－１０,区立汐の公園植込,35.6277166,139.7414768
東京都,港区,39-4,港区港南２－７－１９,東京都中央卸売市場食肉市場東門右側金網,35.6266453,139.7446544
東京都,港区,39-5,港区港南２－７－１９,東京都中央卸売市場食肉市場南門右側植込,35.6270406,139.7437993
東京都,港区,39-6,港区港南２－７－１９,東京都中央卸売市場食肉市場正門左側鉄柵,35.6278199,139.7439239
東京都,港区,39-7,港区港南２－１６－７,区立杜の公園西側植込,35.6251588,139.7412034
東京都,港区,40-1,港区芝浦４－１９－７,都営芝浦四丁目第２アパート港栄橋側集会室前鉄柵,35.6382557,139.7508097
東京都,港区,40-2,港区芝浦４－１９－１,芝浦西運河沿緑地（芝浦アークビル向かい）,35.6384953,139.7501295
東京都,港区,40-3,港区芝浦４－２０－１,芝浦アイランド児童高齢者交流プラザ前鉄柵,35.6404403,139.7525551
東京都,港区,40-4,港区芝浦４－２０－４８,東京都下水道局芝浦ポンプ所夕凪橋際遊び場左側鉄柵,35.6394005,139.7503464
東京都,港区,40-5,港区芝浦４－２０－４８,東京都下水道局芝浦ポンプ所正門横植込,35.6394432,139.7507538
東京都,港区,40-6,港区海岸３－９－４５,東京労働局海岸庁舎海岸通り側植込,35.639804,139.754066
東京都,港区,40-7,港区海岸３－１１,海岸三丁目１１番区道植込,35.639809,139.7557844
東京都,港区,40-8,港区海岸３－４,海岸通り駐車場前都道植込,35.6392309,139.7529097
東京都,港区,41-1,港区港南3-2,港南三丁目遊び場北側金網左寄り,35.6334842,139.7502364
東京都,港区,41-2,港区港南3-2,港南三丁目遊び場南側金網,35.6334842,139.7502364
東京都,港区,41-3,港区港南3-8-1,住友不動産品川港南ビル前歩道植込,35.6320104,139.750115
東京都,港区,41-4,港区港南3-8,森永乳業ビル東側都道上歩道植込,35.6319712,139.7500945
東京都,港区,41-5,港区港南3-6,コスモポリス品川前都道植込,35.632002,139.7478536
東京都,港区,41-6,港区港南3-7-1,コーシャハイム港南三丁目前植込,35.6324741,139.7490365
東京都,港区,41-7,港区港南3-9-50,都営港南3丁目第2アパート入口右側植込,35.6328908,139.7514598
東京都,港区,41-8,港区港南5-2,都立品川北ふ頭公園東側入口右寄り,35.6306374,139.7549427
