prefecture,city,number,address,name,lat,long
神奈川県,相模原市,11,中央区横山台１丁目３番てるて公園東側,てるて公園東側,35.5688054,139.360372
神奈川県,相模原市,12,中央区横山台２丁目３５番１号横山小学校西側,横山小学校西側,35.565983,139.354914
神奈川県,相模原市,13,中央区横山台１丁目４５番松並子ども広場東側,松並子ども広場東側,35.5697903,139.353426
神奈川県,相模原市,14,中央区横山台１丁目２０番１０号横山公民館,横山公民館,35.5684403,139.3562982
神奈川県,相模原市,15,中央区横山台２丁目３５番１号横山小学校プール横,横山小学校プール横,35.565983,139.354914
神奈川県,相模原市,16,中央区横山台２丁目２３番横山台公園西側,横山台公園西側,35.5646033,139.3573023
神奈川県,相模原市,17,中央区横山台１丁目３番てるて公園西側,てるて公園西側,35.5688054,139.360372
神奈川県,相模原市,18,中央区横山台２丁目３５番１号横山小学校南側,横山小学校南側,35.565983,139.354914
神奈川県,相模原市,21,中央区横山２丁目１６番横山２丁目交差点北側緑地帯,横山２丁目交差点北側緑地帯,35.565445,139.3695986
神奈川県,相模原市,22,中央区横山１丁目７番２０号県立相模原高等学校北側,県立相模原高等学校北側,35.5676098,139.3652355
神奈川県,相模原市,23,中央区横山４丁目５番８号横山あじさいハイツ集会所前,横山あじさいハイツ集会所前,35.5670251,139.3638146
神奈川県,相模原市,24,中央区横山１丁目７番２０号県立相模原高等学校南側,県立相模原高等学校南側,35.5676098,139.3652355
神奈川県,相模原市,25,中央区横山４丁目９番長久保第１公園南側,長久保第１公園南側,35.5659765,139.3629763
神奈川県,相模原市,26,中央区横山５丁目４番横山５丁目公園南側,横山５丁目公園南側,35.5639218,139.3617057
神奈川県,相模原市,27,中央区横山３丁目１１番長久保第２公園南側,長久保第２公園南側,35.5647955,139.3646902
神奈川県,相模原市,31,中央区千代田２丁目１番千代田２丁目１番１８号前緑地帯,千代田２丁目１番１８号前緑地帯,35.5663307,139.3709869
神奈川県,相模原市,32,中央区横山６丁目５番１号市営横山住宅東側,市営横山住宅東側,35.5611504,139.3662039
神奈川県,相模原市,33,中央区星が丘４丁目９番市営星が丘住宅前,市営星が丘住宅前,35.5605684,139.3683802
神奈川県,相模原市,34,中央区星が丘３丁目１番６号星が丘小学校東側,星が丘小学校東側,35.5599678,139.3709104
神奈川県,相模原市,35,中央区星が丘３丁目１番３８号星が丘公民館,星が丘公民館,35.5595816,139.3698762
神奈川県,相模原市,36,中央区星が丘３丁目１番６号星が丘小学校北側,星が丘小学校北側,35.5599678,139.3709104
神奈川県,相模原市,37,中央区星が丘３丁目４番星が丘ふれあい広場北側,星が丘ふれあい広場北側,35.5585468,139.3712896
神奈川県,相模原市,38,中央区千代田２丁目２番横山２丁目交差点東側緑地帯,横山２丁目交差点東側緑地帯,35.5650283,139.369678
神奈川県,相模原市,41,中央区千代田７丁目６番千代田７丁目水道道緑道,千代田７丁目水道道緑道,35.5604766,139.3813407
神奈川県,相模原市,42,中央区千代田６丁目４番千代田ふれあい広場北側,千代田ふれあい広場北側,35.5595545,139.3757414
神奈川県,相模原市,43,中央区千代田３丁目１０番月見公園北,月見公園北,35.564639,139.3765286
神奈川県,相模原市,44,中央区千代田６丁目４番千代田ふれあい広場西側,千代田ふれあい広場西側,35.5595545,139.3757414
神奈川県,相模原市,46,中央区千代田３丁目１０番月見公園南側,月見公園南側,35.564639,139.3765286
神奈川県,相模原市,47,中央区千代田３丁目２０番昭和シェルガソリンスタンド横空地,昭和シェルガソリンスタンド横空地,35.5644674,139.3793571
神奈川県,相模原市,48,中央区千代田７丁目１１番千代田緑道北側,千代田緑道北側,35.5619734,139.3804068
神奈川県,相模原市,51,中央区並木２丁目１６番１号並木小学校屋内運動場入口横,並木小学校屋内運動場入口横,35.557645,139.380573
神奈川県,相模原市,52,中央区並木２丁目１６番１号並木小学校南側,並木小学校南側,35.557645,139.380573
神奈川県,相模原市,53,中央区光が丘２丁目１９番１号光が丘小学校西側,光が丘小学校西側,35.554856,139.376816
神奈川県,相模原市,54,中央区光が丘２丁目１９番１号光が丘小学校南側,光が丘小学校南側,35.554856,139.376816
神奈川県,相模原市,55,中央区光が丘２丁目９番光が丘第１公園,光が丘第１公園,35.5568765,139.3790667
神奈川県,相模原市,56,中央区光が丘２丁目２５番光が丘第２公園,光が丘第２公園,35.5547805,139.3785371
神奈川県,相模原市,57,中央区光が丘１丁目１１番山見公園南側投票区,山見公園南側投票区,35.5571533,139.3759995
神奈川県,相模原市,61,中央区陽光台２丁目１９番ひまわり公園,ひまわり公園,35.5558668,139.3711816
神奈川県,相模原市,62,中央区陽光台５丁目１３番道保川公園北側,道保川公園北側,35.549236,139.3742793
神奈川県,相模原市,63,中央区陽光台１丁目１５番１号陽光台小学校西側,陽光台小学校西側,35.5546633,139.3687196
神奈川県,相模原市,64,中央区陽光台１丁目１５番１号陽光台小学校屋内運動場横,陽光台小学校屋内運動場横,35.5546633,139.3687196
神奈川県,相模原市,65,中央区陽光台５丁目１３番道保川公園東側,道保川公園東側,35.549236,139.3742793
神奈川県,相模原市,66,中央区陽光台１丁目１番上溝坂上公園,上溝坂上公園,35.558099,139.3642441
神奈川県,相模原市,67,中央区陽光台５丁目６番１号陽光台公民館,陽光台公民館,35.5502188,139.3766635
神奈川県,相模原市,68,中央区陽光台４丁目６番光が丘小学校前交差点南西側緑地帯,光が丘小学校前交差点南西側緑地帯,35.5535235,139.3760247
神奈川県,相模原市,71,中央区光が丘３丁目７番１１号県営上溝団地集会所,県営上溝団地集会所,35.5516851,139.38073
神奈川県,相模原市,72,中央区光が丘３丁目８番里見公園南側,里見公園南側,35.5521243,139.381011
神奈川県,相模原市,73,中央区並木４丁目８番４号青葉小学校東側,青葉小学校東側,35.554367,139.382829
神奈川県,相模原市,74,中央区光が丘３丁目２０番県営光が丘ハイム１号棟前,県営光が丘ハイム１号棟前,35.5498202,139.3790173
神奈川県,相模原市,75,中央区光が丘３丁目９番１２号県営上溝団地９－１２号棟西側,県営上溝団地９－１２号棟西側,35.5516851,139.38073
神奈川県,相模原市,76,中央区並木４丁目１１番２号並木ふれあい広場西側,並木ふれあい広場西側,35.5532205,139.3828267
神奈川県,相模原市,77,中央区並木４丁目８番４号青葉小学校北側,青葉小学校北側,35.554367,139.382829
神奈川県,相模原市,81,中央区陽光台６丁目４番マクドナルド陽光台店駐車場横畑,マクドナルド陽光台店駐車場横畑,35.549104,139.3788463
神奈川県,相模原市,82,中央区陽光台６丁目７番虹が丘公園,虹が丘公園,35.5477946,139.377584
神奈川県,相模原市,83,中央区緑が丘１丁目２８番１号緑が丘中学校正門横,緑が丘中学校正門横,35.5476229,139.383007
神奈川県,相模原市,84,中央区緑が丘１丁目３０番みどりの道,みどりの道,35.545852,139.3812702
神奈川県,相模原市,85,中央区緑が丘２丁目４０番そらの広場前,そらの広場前,35.5484559,139.385943
神奈川県,相模原市,86,中央区緑が丘２丁目３１番緑が丘２丁目公園,緑が丘２丁目公園,35.5499602,139.3861672
神奈川県,相模原市,87,中央区緑が丘２丁目４０番みどりの道いしの小径,みどりの道いしの小径,35.5487327,139.3875897
神奈川県,相模原市,91,中央区松ヶ丘１丁目１０番松ヶ丘２丁目交差点西側緑地帯,松ヶ丘２丁目交差点西側緑地帯,35.5525338,139.3938789
神奈川県,相模原市,92,中央区並木３丁目３番弥栄小入口交差点南側緑地帯,弥栄小入口交差点南側緑地帯,35.5570795,139.3851204
神奈川県,相模原市,93,中央区松が丘１丁目２３番松が丘園前,松が丘園前,35.5530676,139.3920749
神奈川県,相模原市,94,中央区青葉２丁目１３番青山学院大学緑ヶ丘グランド向畑,青山学院大学緑ヶ丘グランド向畑,35.5490618,139.3872988
神奈川県,相模原市,95,中央区青葉３丁目９番青葉第２雨水調整池,青葉第２雨水調整池,35.548896,139.3913958
神奈川県,相模原市,96,中央区青葉２丁目７番和泉短大グランド西側,和泉短大グランド西側,35.5503661,139.3895934
神奈川県,相模原市,97,中央区青葉２丁目７番和泉短大グランド北側,和泉短大グランド北側,35.5503661,139.3895934
神奈川県,相模原市,101,中央区弥栄３丁目１番淵野辺公園バス停奥,淵野辺公園バス停奥,35.5544928,139.3915712
神奈川県,相模原市,102,中央区弥栄３丁目１番淵野辺公園東側,淵野辺公園東側,35.5544928,139.3915712
神奈川県,相模原市,103,中央区弥栄３丁目１番１０号弥栄小学校正門横,弥栄小学校正門横,35.557845,139.3872123
神奈川県,相模原市,104,中央区弥栄２丁目２番栄公園,栄公園,35.5606176,139.3840357
神奈川県,相模原市,105,中央区弥栄１丁目７番１８号弥栄児童館,弥栄児童館,35.5605097,139.3868223
神奈川県,相模原市,106,中央区高根２丁目７番緑の森チビッ子広場前,緑の森チビッ子広場前,35.5616863,139.3890947
神奈川県,相模原市,107,中央区相生２丁目８番市営東団地５号棟西側,市営東団地５号棟西側,35.5630707,139.3884304
神奈川県,相模原市,108,中央区由野台３丁目１番由野台中学校南側,由野台中学校南側,35.5564206,139.395011
神奈川県,相模原市,111,中央区相生１丁目９番県営相生ハイツ西側,県営相生ハイツ西側,35.5650349,139.3870117
神奈川県,相模原市,112,中央区富士見３丁目１３番相生公園,相生公園,35.5664666,139.3841762
神奈川県,相模原市,113,中央区富士見４丁目１番富士見公園,富士見公園,35.5660031,139.3804014
神奈川県,相模原市,114,中央区富士見２丁目１３番富士見小学校南側中央公民館横,富士見小学校南側中央公民館横,35.567693,139.380331
神奈川県,相模原市,115,中央区富士見５丁目６番県営富士見団地３号棟前,県営富士見団地３号棟前,35.5674191,139.3775917
神奈川県,相模原市,116,中央区富士見１丁目３番中央中学校東側,中央中学校東側,35.569354,139.377312
神奈川県,相模原市,117,中央区富士見１丁目３番中央小学校南西側,中央小学校南西側,35.5702007,139.3758337
神奈川県,相模原市,118,中央区千代田１丁目２番農協向緑地帯投票区,農協向緑地帯投票区,35.5670768,139.3715025
神奈川県,相模原市,121,中央区中央６丁目３番ＮＴＴ東日本新相模原ビル南側,ＮＴＴ東日本新相模原ビル南側,35.5687526,139.3684117
神奈川県,相模原市,122,中央区中央５丁目１３番中央５丁目公園,中央５丁目公園,35.5698723,139.3677103
神奈川県,相模原市,123,中央区中央３丁目１３番市役所第２駐車場北側緑地帯,市役所第２駐車場北側緑地帯,35.5707185,139.374231
神奈川県,相模原市,124,中央区中央２丁目１１番市役所本庁舎前,市役所本庁舎前,35.5713636,139.3732479
神奈川県,相模原市,125,中央区中央２丁目２番消防指令センター北西側緑地帯,消防指令センター北西側緑地帯,35.5729693,139.3706334
神奈川県,相模原市,126,中央区相模原６丁目２４番グリーンプラザバス停南西側緑地帯,グリーンプラザバス停南西側緑地帯,35.574033,139.3759454
神奈川県,相模原市,127,中央区中央２丁目８番市役所公用車駐車場北側,市役所公用車駐車場北側,35.5727644,139.372344
神奈川県,相模原市,128,中央区相模原４丁目１０番増田立体駐車場,増田立体駐車場,35.5776083,139.3765822
神奈川県,相模原市,129,中央区相模原４丁目１１番さがみ仁和会病院前線路沿い,さがみ仁和会病院前線路沿い,35.5772118,139.3781302
神奈川県,相模原市,131,中央区矢部１丁目５番相模原警察署前交差点東側緑地帯,相模原警察署前交差点東側緑地帯,35.572888,139.3759454
神奈川県,相模原市,132,中央区矢部１丁目３番矢部あじさい公園,矢部あじさい公園,35.5748923,139.377436
神奈川県,相模原市,133,中央区矢部１丁目２番西門大通り東側緑地帯,西門大通り東側緑地帯,35.5756647,139.3778496
神奈川県,相模原市,134,中央区矢部１丁目２７番横河レンタ・リース（株）東側,横河レンタ・リース（株）東側,35.5712946,139.3782985
神奈川県,相模原市,135,中央区矢部２丁目７番村富公園,村富公園,35.5731962,139.380792
神奈川県,相模原市,136,中央区矢部２丁目７番村富神社西側,村富神社西側,35.573536,139.381234
神奈川県,相模原市,137,中央区矢部２丁目７番村富神社北側,村富神社北側,35.573536,139.381234
神奈川県,相模原市,138,中央区矢部３丁目１番ＪＲ横浜線矢部駅西側線路沿い,ＪＲ横浜線矢部駅西側線路沿い,35.5736568,139.3850701
神奈川県,相模原市,141,中央区矢部３丁目２５番学研相模栄光幼稚園駐車場,学研相模栄光幼稚園駐車場,35.5697694,139.3841983
神奈川県,相模原市,142,中央区矢部３丁目１８番ＪＲ横浜線矢部駅ふれあい地下道横,ＪＲ横浜線矢部駅ふれあい地下道横,35.5728518,139.3867594
神奈川県,相模原市,143,中央区矢部４丁目１番２０号相模白ゆり幼稚園正門横,相模白ゆり幼稚園正門横,35.5717019,139.3884004
神奈川県,相模原市,144,中央区矢部４丁目２０番矢部公園,矢部公園,35.5712193,139.3895
神奈川県,相模原市,145,中央区矢部４丁目１６番榎町交差点西側緑地帯,榎町交差点西側緑地帯,35.5690509,139.3891147
神奈川県,相模原市,146,中央区矢部４丁目１４番矢部ふれあい広場,矢部ふれあい広場,35.5683885,139.3876095
神奈川県,相模原市,147,中央区矢部３丁目７番矢部３丁目７番信号南側緑地帯,矢部３丁目７番信号南側緑地帯,35.5703718,139.3833244
神奈川県,相模原市,151,中央区中央１丁目７番比丘口公園,比丘口公園,35.5740742,139.3687931
神奈川県,相模原市,152,中央区清新７丁目３番清新ふれあい広場,清新ふれあい広場,35.5734173,139.3640593
神奈川県,相模原市,153,中央区清新８丁目５番清新中学校西側,清新中学校西側,35.572269,139.3629837
神奈川県,相模原市,154,中央区清新３丁目９番矢懸公園,矢懸公園,35.5765176,139.3637398
神奈川県,相模原市,155,中央区清新３丁目１６番清新小学校東側,清新小学校東側,35.5767804,139.3621423
神奈川県,相模原市,156,中央区清新３丁目１６番清新小学校西側,清新小学校西側,35.5767804,139.3621423
神奈川県,相模原市,157,中央区清新５丁目１２番清新５丁目ふれあい公園,清新５丁目ふれあい公園,35.5795304,139.358821
神奈川県,相模原市,158,中央区清新５丁目１８番氷川公園,氷川公園,35.5799921,139.3559357
神奈川県,相模原市,161,中央区南橋本１丁目１９番県営南橋本プラザハイム南側,県営南橋本プラザハイム南側,35.5778787,139.3544917
神奈川県,相模原市,162,中央区南橋本１丁目１３番南橋本自治会館,南橋本自治会館,35.579952,139.353904
神奈川県,相模原市,163,中央区南橋本２丁目２番南橋本駅西口第２無料自転車駐車場前,南橋本駅西口第２無料自転車駐車場前,35.5820719,139.3525034
神奈川県,相模原市,164,中央区南橋本２丁目２番南橋本雨水調整池,南橋本雨水調整池,35.5819857,139.3518312
神奈川県,相模原市,165,中央区南橋本３丁目４番南橋本公園,南橋本公園,35.580215,139.3505105
神奈川県,相模原市,166,中央区南橋本３丁目６番柴胡ヶ原霊園,柴胡ヶ原霊園,35.5811059,139.348405
神奈川県,相模原市,167,中央区南橋本３丁目１番ＩＩＦ相模原Ｒ＆Ｄセンター南側,ＩＩＦ相模原Ｒ＆Ｄセンター南側,35.5769998,139.3512446
神奈川県,相模原市,168,中央区南橋本１丁目16番南橋本駅ロータリー植栽帯投票区,南橋本駅ロータリー植栽帯投票区,35.5801949,139.352503
神奈川県,相模原市,171,中央区相模原３丁目８番相模原２丁目交差点北側植栽帯,相模原２丁目交差点北側植栽帯,35.5775069,139.3685197
神奈川県,相模原市,172,中央区相模原４丁目３番相模原４丁目ふれあい公園,相模原４丁目ふれあい公園,35.5792259,139.3735312
神奈川県,相模原市,173,中央区相模原７丁目４番相模原７丁目公園南側,相模原７丁目公園南側,35.5764666,139.3695284
神奈川県,相模原市,174,中央区相模原２丁目１３番相模原駅３丁目交差点北側緑地帯,相模原駅３丁目交差点北側緑地帯,35.5782142,139.3688352
神奈川県,相模原市,175,中央区相模原８丁目７番相模原保育園,相模原保育園,35.5783688,139.3654735
神奈川県,相模原市,176,中央区相模原２丁目１６番相模原２丁目すみれ公園西側,相模原２丁目すみれ公園西側,35.5788392,139.3663132
神奈川県,相模原市,177,中央区相模原７丁目４番相模原７丁目公園北側,相模原７丁目公園北側,35.5764666,139.3695284
神奈川県,相模原市,178,中央区相模原２丁目１６番相模原２丁目すみれ公園東側,相模原２丁目すみれ公園東側,35.5788392,139.3663132
神奈川県,相模原市,181,中央区小山２丁目６番氷川神社前交差点西側緑地帯,氷川神社前交差点西側緑地帯,35.5834873,139.3606349
神奈川県,相模原市,182,中央区清新４丁目１１番清新４丁目公園北側,清新４丁目公園北側,35.5823089,139.358998
神奈川県,相模原市,183,中央区小山１丁目１５番(株)オハラ正門横,(株)オハラ正門横,35.5869314,139.3580174
神奈川県,相模原市,184,中央区小山１丁目１５番小山１丁目交差点北側,小山１丁目交差点北側,35.5869314,139.3580174
神奈川県,相模原市,185,中央区小山４丁目１番小山公園ニュースポーツ広場,小山公園ニュースポーツ広場,35.5887311,139.3533426
神奈川県,相模原市,186,中央区小山４丁目３番小原公園,小原公園,35.5855169,139.3540557
神奈川県,相模原市,187,中央区小山４丁目３番１号小山中学校西側,小山中学校西側,35.586579,139.354775
神奈川県,相模原市,191,中央区相模原１丁目１番相模原駅南口ペデストリアンデッキ上,相模原駅南口ペデストリアンデッキ上,35.580665,139.371106
神奈川県,相模原市,192,中央区氷川町７番氷川町公園,氷川町公園,35.5825317,139.36476
神奈川県,相模原市,193,中央区相模原１丁目１番相模原１丁目ほほえみ公園,相模原１丁目ほほえみ公園,35.582794,139.3672631
神奈川県,相模原市,194,中央区小山３４３０番地相模原駅北口自転車駐車場北側緑地帯,相模原駅北口自転車駐車場北側緑地帯,35.5828981,139.3683405
神奈川県,相模原市,195,中央区向陽町８番向陽小学校東側小山公民館横,向陽小学校東側小山公民館横,35.5854181,139.3675183
神奈川県,相模原市,196,中央区向陽町８番向陽小学校正門横,向陽小学校正門横,35.586099,139.366252
神奈川県,相模原市,197,中央区すすきの町１９番すすきの住宅,すすきの住宅,35.5893414,139.3672464
神奈川県,相模原市,198,中央区すすきの町１８番すすきの公園,すすきの公園,35.5890337,139.3681112
神奈川県,相模原市,201,中央区宮下本町１丁目３５番グランメールⅡ番館前,グランメールⅡ番館前,35.5891881,139.3785603
神奈川県,相模原市,202,中央区宮下本町１丁目１８番宮下さくら公園南側,宮下さくら公園南側,35.589488,139.3770962
神奈川県,相模原市,203,中央区宮下本町１丁目１８番宮下さくら公園北側,宮下さくら公園北側,35.589488,139.3770962
神奈川県,相模原市,204,中央区すすきの町３８番すすきの第２雨水調整池,すすきの第２雨水調整池,35.5906728,139.3695192
神奈川県,相模原市,205,中央区すすきの町３３番すすきの第１雨水調整池,すすきの第１雨水調整池,35.5903298,139.3708083
神奈川県,相模原市,206,中央区宮下２丁目８番小山ふれあい広場,小山ふれあい広場,35.5919732,139.3674925
神奈川県,相模原市,207,中央区宮下本町３丁目５５番宮下雨水調整池北側,宮下雨水調整池北側,35.5964551,139.3623258
神奈川県,相模原市,208,中央区宮下本町３丁目５５番宮下雨水調整池南側,宮下雨水調整池南側,35.5964551,139.3623258
神奈川県,相模原市,211,中央区下九沢１１２０番地日本電気（株）正門横,日本電気（株）正門横,35.5766443,139.3450964
神奈川県,相模原市,212,中央区下九沢１１２０番地南橋本３丁目交差点北側,南橋本３丁目交差点北側,35.5763967,139.348345
神奈川県,相模原市,213,中央区下九沢５７番地あじさい通りヤオコー横,あじさい通りヤオコー横,35.5756854,139.3466034
神奈川県,相模原市,214,中央区下九沢１２１１番地１ビレッジハウス下九沢,ビレッジハウス下九沢,35.5751443,139.3438416
神奈川県,相模原市,215,中央区下九沢６３番地４下九沢つくし公園,下九沢つくし公園,35.5749122,139.3467242
神奈川県,相模原市,216,中央区下九沢９６４番地３下九沢児童館,下九沢児童館,35.5741273,139.3464147
神奈川県,相模原市,217,中央区下九沢７２７番地３宮山坂公園,宮山坂公園,35.5730248,139.3455682
神奈川県,相模原市,221,中央区矢部新町３番矢部駅北口ロータリー植込み,矢部駅北口ロータリー植込み,35.57358,139.386378
神奈川県,相模原市,222,中央区矢部新町３番上矢部公園,上矢部公園,35.5735867,139.3874577
神奈川県,相模原市,223,中央区矢部新町１番県営上矢部団地８号棟前植樹帯,県営上矢部団地８号棟前植樹帯,35.5760436,139.3875445
神奈川県,相模原市,224,中央区矢部新町３番１５号青少年学習センター前,青少年学習センター前,35.5746773,139.3872476
神奈川県,相模原市,225,中央区淵野辺１丁目１６番淵野辺１丁目第１公園北側,淵野辺１丁目第１公園北側,35.5734207,139.3912192
神奈川県,相模原市,226,中央区淵野辺１丁目１６番淵野辺１丁目第１公園南側,淵野辺１丁目第１公園南側,35.5734207,139.3912192
神奈川県,相模原市,227,中央区淵野辺１丁目１７番７１号麻布大学附属家畜病院体育館前投票区,麻布大学附属家畜病院体育館前投票区,35.576619,139.391319
神奈川県,相模原市,231,中央区上矢部１丁目１番緑地帯,緑地帯,35.5862455,139.3868159
神奈川県,相模原市,232,中央区上矢部３丁目８番秋元里子宅畑地,秋元里子宅畑地,35.5831392,139.3922123
神奈川県,相模原市,233,中央区上矢部４丁目１０番上矢部あさひ公園,上矢部あさひ公園,35.5826926,139.3936751
神奈川県,相模原市,234,中央区上矢部２丁目２３番上矢部みたけ子ども広場,上矢部みたけ子ども広場,35.5847942,139.393107
神奈川県,相模原市,235,中央区上矢部5丁目３番上矢部はなみずき公園,上矢部はなみずき公園,35.5842313,139.3946786
神奈川県,相模原市,236,中央区上矢部５丁目２３番上矢部けやき公園,上矢部けやき公園,35.5838679,139.3983852
神奈川県,相模原市,237,中央区上矢部４丁目６番１２号上矢部こども会館,上矢部こども会館,35.5814814,139.3926686
神奈川県,相模原市,238,中央区上矢部１丁目３番緑地帯,緑地帯,35.5872581,139.3873714
神奈川県,相模原市,241,中央区淵野辺３丁目３番宝来公園,宝来公園,35.5711595,139.3920039
神奈川県,相模原市,242,中央区淵野辺４丁目３番１０号幸町児童館,幸町児童館,35.5715554,139.3972298
神奈川県,相模原市,243,中央区淵野辺３丁目５番淵野辺駅北口ロータリー植え込み,淵野辺駅北口ロータリー植え込み,35.5695802,139.3938835
神奈川県,相模原市,244,中央区淵野辺本町３丁目１７番中淵西山公園,中淵西山公園,35.5696029,139.4054425
神奈川県,相模原市,245,中央区淵野辺４丁目３１番７号淵野辺ひばり幼稚園正門横,淵野辺ひばり幼稚園正門横,35.570466,139.399721
神奈川県,相模原市,246,中央区淵野辺５丁目１０番１号青山学院大学H棟前,青山学院大学H棟前,35.5673434,139.4013982
神奈川県,相模原市,247,中央区淵野辺４丁目６番２２号淵野辺小学校東側,淵野辺小学校東側,35.5730355,139.3990037
神奈川県,相模原市,248,中央区淵野辺４丁目１６番１号桜美林大学プラネット淵野辺キャンパス,桜美林大学プラネット淵野辺キャンパス,35.5683368,139.3961717
神奈川県,相模原市,251,中央区淵野辺２丁目１番上原公園,上原公園,35.5804227,139.3951569
神奈川県,相模原市,252,中央区淵野辺２丁目３１番ボヌールⅡ横,ボヌールⅡ横,35.5755762,139.3987997
神奈川県,相模原市,253,中央区淵野辺２丁目８番４０号大野北中学校北側,大野北中学校北側,35.574571,139.3964051
神奈川県,相模原市,254,中央区淵野辺２丁目８番４０号大野北中学校南側,大野北中学校南側,35.574571,139.3964051
神奈川県,相模原市,255,中央区淵野辺２丁目３４番１号大野北小学校東側,大野北小学校東側,35.574461,139.398205
神奈川県,相模原市,256,中央区淵野辺２丁目５番８号日立建機日本㈱北側,日立建機日本㈱北側,35.5749243,139.3930456
神奈川県,相模原市,257,中央区淵野辺本町２丁目１１番淵野辺本町第２公園,淵野辺本町第２公園,35.5720982,139.4029676
神奈川県,相模原市,258,中央区淵野辺本町２丁目２８番山王公園,山王公園,35.5743992,139.4029225
神奈川県,相模原市,261,中央区淵野辺５丁目１０番１号青山学院大学　I棟東側,青山学院大学　I棟東側,35.5673434,139.4013982
神奈川県,相模原市,262,中央区淵野辺本町４丁目１０番淵野辺本町公園南側,淵野辺本町公園南側,35.5688207,139.4071222
神奈川県,相模原市,263,中央区東淵野辺２丁目２６番東嶽之内公園,東嶽之内公園,35.5652147,139.4140017
神奈川県,相模原市,264,中央区淵野辺本町５丁目２６番嶽之内公園,嶽之内公園,35.5681615,139.4105326
神奈川県,相模原市,265,中央区淵野辺本町４丁目１０番淵野辺本町公園北側,淵野辺本町公園北側,35.5688207,139.4071222
神奈川県,相模原市,266,中央区東淵野辺３丁目１７番１号淵野辺東小学校南側,淵野辺東小学校南側,35.5600565,139.4162127
神奈川県,相模原市,267,中央区東淵野辺３丁目１７番１号淵野辺東小学校東側,淵野辺東小学校東側,35.5600565,139.4162127
神奈川県,相模原市,268,中央区東淵野辺１丁目１７番東淵野辺１丁目公園,東淵野辺１丁目公園,35.5633359,139.4107368
神奈川県,相模原市,271,中央区東淵野辺５丁目共和嶽之内立体緑地帯,共和嶽之内立体緑地帯,35.5599742,139.4065785
神奈川県,相模原市,272,中央区東淵野辺５丁目２７番西野工務店前線路沿い,西野工務店前線路沿い,35.5612869,139.4081165
神奈川県,相模原市,273,中央区東淵野辺４丁目２３番２０号たけのうち幼稚園駐車場東側畑内,たけのうち幼稚園駐車場東側畑内,35.558492,139.4116596
神奈川県,相模原市,274,中央区東淵野辺４丁目１８番２号東京電力古淵変電所,東京電力古淵変電所,35.5567831,139.4146128
神奈川県,相模原市,275,中央区東淵野辺５丁目１０番東淵野辺正栄公園,東淵野辺正栄公園,35.5597419,139.4088274
神奈川県,相模原市,276,中央区東淵野辺４丁目２６番１３号嶽之内児童館,嶽之内児童館,35.559946,139.411373
神奈川県,相模原市,277,中央区東淵野辺４丁目９番東淵野辺４丁目南公園投票区,東淵野辺４丁目南公園投票区,35.5576941,139.4101387
神奈川県,相模原市,281,中央区鹿沼台２丁目１５番鹿沼公園西側,鹿沼公園西側,35.5668229,139.3919776
神奈川県,相模原市,282,中央区鹿沼台２丁目１５番鹿沼公園駐車場前,鹿沼公園駐車場前,35.5673363,139.3921243
神奈川県,相模原市,283,中央区鹿沼台１丁目１０番淵野辺駅南口緑地帯,淵野辺駅南口緑地帯,35.5683371,139.3934821
神奈川県,相模原市,284,中央区共和１丁目３番１０号共和中学校正門横,共和中学校正門横,35.5658068,139.3975258
神奈川県,相模原市,285,中央区共和１丁目３番１０号共和中学校南側,共和中学校南側,35.5658068,139.3975258
神奈川県,相模原市,286,中央区鹿沼台２丁目１５番鹿沼児童交通公園東側,鹿沼児童交通公園東側,35.5663444,139.3934198
神奈川県,相模原市,287,中央区共和１丁目１３番共和１丁目公園（南側）,共和１丁目公園（南側）,35.5637284,139.3986095
神奈川県,相模原市,288,中央区共和１丁目１３番共和１丁目公園（北側）,共和１丁目公園（北側）,35.5637284,139.3986095
神奈川県,相模原市,291,中央区高根１丁目１０番銀河北公園東側,銀河北公園東側,35.5619675,139.3958429
神奈川県,相模原市,292,中央区共和３丁目２番共和桜の木公園,共和桜の木公園,35.5629799,139.4008935
神奈川県,相模原市,293,中央区高根１丁目１０番銀河北公園北側,銀河北公園北側,35.5619675,139.3958429
神奈川県,相模原市,294,中央区高根１丁目１６番１３号共和小学校東側,共和小学校東側,35.5607175,139.395304
神奈川県,相模原市,295,中央区高根１丁目１６番１３号共和小学校南側,共和小学校南側,35.5607175,139.395304
神奈川県,相模原市,296,中央区由野台１丁目６番由野台第３公園,由野台第３公園,35.5598399,139.3963844
神奈川県,相模原市,297,中央区由野台２丁目１７番由野台第１公園,由野台第１公園,35.5590729,139.4004485
神奈川県,相模原市,298,中央区由野台２丁目１２番由野台第２公園,由野台第２公園,35.5575968,139.3981016
神奈川県,相模原市,301,中央区田名４６８５番地田名バスターミナル西側信号横,田名バスターミナル西側信号横,35.5513234,139.3358811
神奈川県,相模原市,302,中央区田名１９３２番地１田名北小学校体育館横緑道沿い,田名北小学校体育館横緑道沿い,35.555425,139.334584
神奈川県,相模原市,303,中央区田名１９３２番地１田名北小学校東側,田名北小学校東側,35.555425,139.334584
神奈川県,相模原市,304,中央区田名４５２７番地２田名四ツ谷自治会館前,田名四ツ谷自治会館前,35.5547298,139.3377056
神奈川県,相模原市,305,中央区田名３３５５番地２８田名みどり野公園,田名みどり野公園,35.5593938,139.3350746
神奈川県,相模原市,306,中央区田名３０６２番地８田名やすらぎ公園,田名やすらぎ公園,35.5629095,139.331208
神奈川県,相模原市,307,中央区田名２９４０番地４田名比羅野公園,田名比羅野公園,35.5678921,139.3356596
神奈川県,相模原市,308,中央区田名３８９１番地東陽倉庫㈱相模原営業所前,東陽倉庫㈱相模原営業所前,35.5573358,139.3422316
神奈川県,相模原市,311,中央区田名５２５０番地１田名中学校正門横,田名中学校正門横,35.5504541,139.3370721
神奈川県,相模原市,312,中央区田名４８３８番地田名まちづくりセンター駐車場前,田名まちづくりセンター駐車場前,35.5501655,139.3357548
神奈川県,相模原市,313,中央区田名５０９１番地１田名小学校体育館横,田名小学校体育館横,35.549288,139.3362496
神奈川県,相模原市,314,中央区田名５０９１番地１田名小学校正門横,田名小学校正門横,35.549288,139.3362496
神奈川県,相模原市,315,中央区田名５２５０番地１田名中学校西側,田名中学校西側,35.5504541,139.3370721
神奈川県,相模原市,316,中央区田名６７８６番地１県立相模田名高校西側,県立相模田名高校西側,35.5488253,139.3450086
神奈川県,相模原市,317,中央区田名７０１９番地新宿小学校東側,新宿小学校東側,35.5512292,139.3512113
神奈川県,相模原市,318,中央区田名７４０１番地４新宿さわやか公園,新宿さわやか公園,35.5468988,139.3549355
神奈川県,相模原市,321,中央区田名６２２９番地１１０田名団地公園南側,田名団地公園南側,35.5454103,139.3402622
神奈川県,相模原市,322,中央区田名５６４７番地１南光寺前バス停前,南光寺前バス停前,35.5423587,139.3381182
神奈川県,相模原市,323,中央区田名６２９５番地田名団地３号棟南側,田名団地３号棟南側,35.544984,139.3429553
神奈川県,相模原市,324,中央区田名塩田３丁目３番市営田名塩田団地１号棟前,市営田名塩田団地１号棟前,35.5342446,139.352426
神奈川県,相模原市,325,中央区田名塩田２丁目１６番しおだせせらぎ公園,しおだせせらぎ公園,35.5342034,139.3539826
神奈川県,相模原市,326,中央区田名塩田２丁目１６番八瀬川緑道塩田さくら橋交差点際,八瀬川緑道塩田さくら橋交差点際,35.5359644,139.3545163
神奈川県,相模原市,327,中央区田名塩田１丁目８番田名塩田１丁目８番８号先植栽帯,田名塩田１丁目８番８号先植栽帯,35.538605,139.3584933
神奈川県,相模原市,328,中央区田名塩田３丁目３番市営田名塩田団地カインズホーム向い投票区,市営田名塩田団地カインズホーム向い投票区,35.5342446,139.352426
神奈川県,相模原市,331,中央区水郷田名１丁目２３番５４号滝自治会館前,滝自治会館前,35.5470103,139.3257044
神奈川県,相模原市,332,中央区水郷田名１丁目５番１号相模川ふれあい科学館滝ふれあい橋横,相模川ふれあい科学館滝ふれあい橋横,35.5474198,139.3289159
神奈川県,相模原市,333,中央区水郷田名１丁目５番１号相模川ふれあい科学館北東側三差路,相模川ふれあい科学館北東側三差路,35.5474198,139.3289159
神奈川県,相模原市,334,中央区水郷田名１丁目５番１号相模川ふれあい科学館東側,相模川ふれあい科学館東側,35.5474198,139.3289159
神奈川県,相模原市,335,中央区水郷田名１丁目８番２８号田名八幡宮前,田名八幡宮前,35.546565,139.3280618
神奈川県,相模原市,336,中央区水郷田名３丁目１７番水郷田名ひがし公園前,水郷田名ひがし公園前,35.5450939,139.3340885
神奈川県,相模原市,337,中央区水郷田名２丁目２６番水郷田名子どもの広場前,水郷田名子どもの広場前,35.5427049,139.3294711
神奈川県,相模原市,341,中央区上溝４丁目１８番日金沢公園,日金沢公園,35.5626645,139.3554392
神奈川県,相模原市,342,中央区横山５丁目１９番横山公園第４駐車場前,横山公園第４駐車場前,35.561314,139.3645696
神奈川県,相模原市,343,中央区上溝７丁目６番１号上溝小学校北側,上溝小学校北側,35.5552988,139.3600103
神奈川県,相模原市,344,中央区上溝７丁目６番１号上溝小学校西側,上溝小学校西側,35.5552988,139.3600103
神奈川県,相模原市,345,中央区上溝２４２１番地１県営上溝神明団地公園,県営上溝神明団地公園,35.5505312,139.3571789
神奈川県,相模原市,346,中央区上溝２３２２番地２上溝南中学校,上溝南中学校,35.5469648,139.3570413
神奈川県,相模原市,347,中央区上溝２０４７番地区画整理事業記念碑横,区画整理事業記念碑横,35.5520481,139.3596135
神奈川県,相模原市,348,中央区上溝５丁目１０番上溝こまどり公園,上溝こまどり公園,35.5598701,139.3595204
神奈川県,相模原市,351,中央区上溝２０２７番地田尻第２公園,田尻第２公園,35.5497029,139.3614323
神奈川県,相模原市,352,中央区上溝２０４０番地２田尻第１公園,田尻第１公園,35.546447,139.3639849
神奈川県,相模原市,353,中央区上溝７８２番地１上溝南小学校北側,上溝南小学校北側,35.5423255,139.366982
神奈川県,相模原市,354,中央区上溝６２２番地１２虹吹公園,虹吹公園,35.5459657,139.3694396
神奈川県,相模原市,355,中央区上溝２６９番地県立上溝南高等学校北側,県立上溝南高等学校北側,35.5408662,139.3633848
神奈川県,相模原市,356,中央区上溝１６４６番地農協スポーツ広場,農協スポーツ広場,35.5481263,139.3673578
神奈川県,相模原市,357,中央区上溝１３０２番地虹吹自治会館前,虹吹自治会館前,35.5470328,139.3705704
神奈川県,相模原市,358,中央区上溝１４９６番地５田島公園,田島公園,35.5488972,139.3704913
神奈川県,相模原市,361,中央区上溝６丁目１６番鳩川つつじ公園,鳩川つつじ公園,35.5538239,139.3565984
神奈川県,相模原市,362,中央区上溝３丁目１番上溝北ふれあい広場西側,上溝北ふれあい広場西側,35.5600672,139.3516518
神奈川県,相模原市,363,中央区上溝３８７６番地市営石橋団地２号棟東側,市営石橋団地２号棟東側,35.5575282,139.3509359
神奈川県,相模原市,364,中央区上溝３８７６番地石住若草公園北側,石住若草公園北側,35.5581729,139.3508393
神奈川県,相模原市,365,中央区田名３９９８番地１豊原公園,豊原公園,35.5546867,139.34923
神奈川県,相模原市,366,中央区上溝２４６２番地２石橋自治会館前,石橋自治会館前,35.5533217,139.3539464
神奈川県,相模原市,367,中央区上溝６丁目５番１号県立上溝高等学校北側,県立上溝高等学校北側,35.5561857,139.3555191
神奈川県,相模原市,368,中央区上溝６丁目４番上溝中央公園,上溝中央公園,35.5552588,139.3568003
神奈川県,相模原市,371,中央区上溝２丁目２番上溝川辺公園県道沿い,上溝川辺公園県道沿い,35.56364,139.3499124
神奈川県,相模原市,372,中央区上溝２丁目１番９号四ツ谷児童館,四ツ谷児童館,35.5648946,139.3488097
神奈川県,相模原市,373,中央区上溝４４００番地作の口交差点西側,作の口交差点西側,35.5654186,139.3485202
神奈川県,相模原市,374,中央区上溝４６０５番地１四ツ谷さくら橋横緑地帯,四ツ谷さくら橋横緑地帯,35.5520481,139.3596135
神奈川県,相模原市,375,中央区上溝４４９２番１０上溝雨水調整池,上溝雨水調整池,35.5668403,139.3452066
神奈川県,相模原市,376,中央区上溝４４０８番地１４上溝四ッ谷第１雨水調整池,上溝四ッ谷第１雨水調整池,35.5650653,139.3441437
神奈川県,相模原市,377,中央区上溝１丁目１番消防団第２分団横,消防団第２分団横,35.5342388,139.3652913
神奈川県,相模原市,378,中央区上溝１丁目１１番上溝みどり公園,上溝みどり公園,35.5630939,139.3539934
神奈川県,相模原市,11,緑区東橋本４丁目１３番東橋本ポケットパーク北側,東橋本ポケットパーク北側,35.5969958,139.3573651
神奈川県,相模原市,12,緑区東橋本４丁目１０番京王帝都相模原線多摩境第１８架道橋前,京王帝都相模原線多摩境第１８架道橋前,35.5951579,139.3564312
神奈川県,相模原市,13,緑区東橋本２丁目７番東橋本ブレーメン公園,東橋本ブレーメン公園,35.5948898,139.3554345
神奈川県,相模原市,14,緑区東橋本１丁目１１番東橋本公園,東橋本公園,35.5914272,139.3542986
神奈川県,相模原市,15,緑区東橋本１丁目２２番京王帝都相模原線多摩境第２２架道橋前,京王帝都相模原線多摩境第２２架道橋前,35.5951579,139.3564312
神奈川県,相模原市,16,緑区東橋本１丁目２３番やすらぎの道立体北東側路側帯,やすらぎの道立体北東側路側帯,35.5935475,139.3502605
神奈川県,相模原市,17,緑区東橋本２丁目３４番宮上公園,宮上公園,35.5953475,139.3510798
神奈川県,相模原市,18,緑区東橋本３丁目１５番宮上児童館,宮上児童館,35.5967014,139.3533641
神奈川県,相模原市,21,緑区橋本３丁目１番新町やらぎ 公園,新町やらぎ 公園,35.59377,139.3482625
神奈川県,相模原市,22,緑区橋本３丁目１５番橋本駅北口第２自動車駐車場入口スロープ横,橋本駅北口第２自動車駐車場入口スロープ横,35.594531,139.346344
神奈川県,相模原市,23,緑区橋本４丁目１６番北消防署,北消防署,35.5971641,139.348637
神奈川県,相模原市,24,緑区橋本４丁目１１番宮上小学校門横,宮上小学校門横,35.6000577,139.3502159
神奈川県,相模原市,25,緑区橋本４丁目１１番宮上小学校北側,宮上小学校北側,35.6000577,139.3502159
神奈川県,相模原市,26,緑区橋本４丁目１１番橋本４丁目団地プレイグランド西側,橋本４丁目団地プレイグランド西側,35.6003674,139.3492225
神奈川県,相模原市,27,緑区橋本４丁目１１番橋本４丁目団地２号棟南側,橋本４丁目団地２号棟南側,35.6003674,139.3492225
神奈川県,相模原市,31,緑区橋本６丁目１番橋本駅口ペデストリアンデッキ上,橋本駅口ペデストリアンデッキ上,35.595246,139.3446346
神奈川県,相模原市,32,緑区橋本６丁目６番ＮＴＴ橋本ビル北側,ＮＴＴ橋本ビル北側,35.5980058,139.3457051
神奈川県,相模原市,33,緑区橋本５丁目１０番橋本寿町公園,橋本寿町公園,35.6000691,139.3458146
神奈川県,相模原市,34,緑区橋本６丁目１５番旭小学校正横,旭小学校正横,35.599097,139.343428
神奈川県,相模原市,35,緑区橋本６丁目１５旭小学校西側,旭小学校西側,35.599097,139.343428
神奈川県,相模原市,36,緑区橋本６丁目３９番神明大神宮西側,神明大神宮西側,35.5985149,139.3390394
神奈川県,相模原市,37,緑区橋本６丁目３１番旭児童クラブ,旭児童クラブ,35.6005174,139.3407846
神奈川県,相模原市,38,緑区元橋本町１５番元橋本けやき公園,元橋本けやき公園,35.6033302,139.3361516
神奈川県,相模原市,39,緑区元橋本町１１番元橋本ふよう公園,元橋本ふよう公園,35.6034714,139.3377776
神奈川県,相模原市,41,緑区橋本２丁目１番８３号橋本駅南口第一自転車駐車場前,橋本駅南口第一自転車駐車場前,35.593659,139.3463484
神奈川県,相模原市,42,緑区橋本２丁目７番橋本２丁目交差点忠魂碑前,橋本２丁目交差点忠魂碑前,35.5957834,139.3416016
神奈川県,相模原市,43,緑区西橋本５丁目２番１号橋本郵便局北西側,橋本郵便局北西側,35.5976546,139.3359251
神奈川県,相模原市,44,緑区西橋本２丁目１番平和公園,平和公園,35.5934555,139.3373289
神奈川県,相模原市,45,緑区西橋本３丁目１番西橋本３丁目トライ公園前,西橋本３丁目トライ公園前,35.5944116,139.3337986
神奈川県,相模原市,46,緑区西橋本５丁目３番橋本公園西側,橋本公園西側,35.5956867,139.3365842
神奈川県,相模原市,47,緑区西橋本５丁目３番橋本公園南側,橋本公園南側,35.5956867,139.3365842
神奈川県,相模原市,48,緑区西橋本２丁目５番西橋本２丁目公園,西橋本２丁目公園,35.5944716,139.3373459
神奈川県,相模原市,51,緑区橋本１丁目１２番２０号橋本小校正門横,橋本小校正門横,35.588207,139.344945
神奈川県,相模原市,52,緑区橋本１丁目１２番２０号橋本小学校裏門横,橋本小学校裏門横,35.5882931,139.3446275
神奈川県,相模原市,53,緑区橋本１丁目１２番１５号橋本みどり子どもの広場前,橋本みどり子どもの広場前,35.5905016,139.3441127
神奈川県,相模原市,54,緑区橋本台１丁目３３番橋本台ふれあい公園前,橋本台ふれあい公園前,35.5815208,139.3461629
神奈川県,相模原市,55,緑区西橋本１丁目１８番西橋本くすのき公園前,西橋本くすのき公園前,35.5893011,139.3409482
神奈川県,相模原市,56,緑区西橋本１丁目１６番西橋本はなみずき公園前,西橋本はなみずき公園前,35.5886085,139.3377549
神奈川県,相模原市,57,緑区橋本台１丁目１３番もみの木公園前,もみの木公園前,35.5854122,139.3418076
神奈川県,相模原市,58,緑区西橋本３丁目１９番峡の原ひばり公園前,峡の原ひばり公園前,35.5910795,139.333949
神奈川県,相模原市,61,緑区橋本８丁目８番１号橋本高校南側,橋本高校南側,35.5993513,139.3347977
神奈川県,相模原市,62,緑区橋本８丁目１番１号相原中学校正門横,相原中学校正門横,35.599239,139.3328408
神奈川県,相模原市,63,緑区橋本８丁目１２番１号相原中学校北側,相原中学校北側,35.599239,139.3328408
神奈川県,相模原市,64,緑区橋本８丁目３０相原台バス停横,相原台バス停横,35.5984163,139.3287225
神奈川県,相模原市,65,緑区相原１丁目１３番安室宅横緑地帯,安室宅横緑地帯,35.6023965,139.3279648
神奈川県,相模原市,66,緑区相原１丁目１４番１号当麻田小学校正門横,当麻田小学校正門横,35.603232,139.327813
神奈川県,相模原市,67,緑区相原１丁目１４番１号当麻田小学校西側,当麻田小学校西側,35.603232,139.327813
神奈川県,相模原市,68,緑区相原２丁目１８番相原第２雨水調整池前,相原第２雨水調整池前,35.6023154,139.3249525
神奈川県,相模原市,71,緑区相原３丁目１３番田通公園北側,田通公園北側,35.6035857,139.3220989
神奈川県,相模原市,72,緑区相原４丁目２４番相原第３雨水調整池,相原第３雨水調整池,35.6036487,139.320095
神奈川県,相模原市,73,緑区相原４丁目２１番６号相原保育園フェンス,相原保育園フェンス,35.6018726,139.3219476
神奈川県,相模原市,74,緑区相原４丁目１３番１４号相原小学校南側,相原小学校南側,35.5996973,139.3215546
神奈川県,相模原市,75,緑区相原４丁目１４番１２号相原公民館前,相原公民館前,35.5994992,139.3203254
神奈川県,相模原市,76,緑区相原６丁目７番ルインズマルヤマ駐車場南側,ルインズマルヤマ駐車場南側,35.6027276,139.3180565
神奈川県,相模原市,77,緑区相原５丁目７番当麻田どうどう公園前,当麻田どうどう公園前,35.6014475,139.3193798
神奈川県,相模原市,78,緑区相原５丁目１番二本松交差点前,二本松交差点前,35.5992898,139.3198002
神奈川県,相模原市,81,緑区二本松４丁目７番松の内公園前,松の内公園前,35.5971686,139.3248855
神奈川県,相模原市,82,緑区二本松４丁目１６番市営二本松団地前（国道沿い）,市営二本松団地前（国道沿い）,35.5981343,139.3232879
神奈川県,相模原市,83,緑区二本松４丁目８番相原児童遊園,相原児童遊園,35.5961792,139.3249096
神奈川県,相模原市,84,緑区西橋本４丁目１１番神奈川中央交通東㈱橋本営業所前,神奈川中央交通東㈱橋本営業所前,35.5922989,139.3274374
神奈川県,相模原市,85,緑区西橋本４丁目１３番西橋本ふれあい広場南側,西橋本ふれあい広場南側,35.5919746,139.3299467
神奈川県,相模原市,86,緑区西橋本４丁目４番西橋本下原公園前,西橋本下原公園前,35.5937858,139.3303626
神奈川県,相模原市,87,緑区西橋本４丁目８番西橋本ひかり公園前,西橋本ひかり公園前,35.5939855,139.3273187
神奈川県,相模原市,91,緑区二本松３丁目３番日枝前公園南側,日枝前公園南側,35.5961656,139.3197788
神奈川県,相模原市,92,緑区二本松２丁目１番１号二本松こどもセンター東側,二本松こどもセンター東側,35.5938656,139.3209018
神奈川県,相模原市,93,緑区二本松２丁目９番１号二本松小学校北側,二本松小学校北側,35.5921614,139.3170748
神奈川県,相模原市,94,緑区二本松２丁目９番１号二本松小学校正門横,二本松小学校正門横,35.592113,139.316712
神奈川県,相模原市,95,緑区二本松２丁目３１番上松並公園前,上松並公園前,35.5902226,139.3186493
神奈川県,相模原市,96,緑区二本松１丁目２８番窪ノ淵公園前,窪ノ淵公園前,35.5913788,139.3249596
神奈川県,相模原市,97,緑区二本松２丁目５１番相原下九沢雨水調整池東側,相原下九沢雨水調整池東側,35.5888462,139.3206721
神奈川県,相模原市,98,緑区二本松１丁目１８番二本松一丁目公園西側,二本松一丁目公園西側,35.5920746,139.324344
神奈川県,相模原市,101,緑区下九沢２９７０番地４上九沢団地北側交差点角,上九沢団地北側交差点角,35.5871822,139.3149846
神奈川県,相模原市,102,緑区大島１１番地１４２大島団地公園北側,大島団地公園北側,35.5855983,139.3136275
神奈川県,相模原市,103,緑区上九沢４番地市営上九沢団地西側（県営団地側）,市営上九沢団地西側（県営団地側）,35.5860794,139.3152067
神奈川県,相模原市,104,緑区上九沢４番地市営上九沢団地北側,市営上九沢団地北側,35.5860794,139.3152067
神奈川県,相模原市,105,緑区大島７８１番地２藤本光教宅向（横浜市水道局ポンプ場前）,藤本光教宅向（横浜市水道局ポンプ場前）,35.5795363,139.3139614
神奈川県,相模原市,106,緑区大島７２１番地２上大島自治会館前,上大島自治会館前,35.579818,139.3118942
神奈川県,相模原市,107,緑区大島３４９７番地１相模川自然の村前,相模川自然の村前,35.5789324,139.3072353
神奈川県,相模原市,108,緑区大島１１番地県営大島団地北側,県営大島団地北側,35.5868025,139.3125283
神奈川県,相模原市,111,緑区下九沢２０７１番地１北清掃工場前交差点角,北清掃工場前交差点角,35.5857798,139.3326538
神奈川県,相模原市,112,緑区下九沢２３６８番地１北総合体育館北側,北総合体育館北側,35.5848669,139.3286072
神奈川県,相模原市,113,緑区下九沢２３６８番地１相模原北公園第２駐車場前,相模原北公園第２駐車場前,35.5821709,139.3334386
神奈川県,相模原市,114,緑区上九沢６９番地上九沢自治会館前,上九沢自治会館前,35.5828032,139.3254487
神奈川県,相模原市,115,緑区大島１５６６番地大沢小学校北側,大沢小学校北側,35.5760077,139.3255416
神奈川県,相模原市,116,緑区大島１７７６番地５大沢まちづくりセンター駐車場前,大沢まちづくりセンター駐車場前,35.5751004,139.3262677
神奈川県,相模原市,117,緑区大島１８００番地大沢中学校北側,大沢中学校北側,35.574972,139.327742
神奈川県,相模原市,118,緑区大島１８００番地大沢中学校体育館前,大沢中学校体育館前,35.5744382,139.3275318
神奈川県,相模原市,121,緑区大島３３３９番地老人福祉センター渓松園前,老人福祉センター渓松園前,35.575462,139.3132518
神奈川県,相模原市,122,緑区大島３３３３番地１大島ふれあい広場前自転車置場,大島ふれあい広場前自転車置場,35.5754668,139.3151735
神奈川県,相模原市,123,緑区大島２９７１番地西川宏宅横横浜水道局敷地前,西川宏宅横横浜水道局敷地前,35.5722429,139.3165024
神奈川県,相模原市,124,緑区大島２２５０番地日々神社北側,日々神社北側,35.5698736,139.324042
神奈川県,相模原市,125,緑区大島２１８２番２水場バス停前,水場バス停前,35.5662541,139.3233126
神奈川県,相模原市,126,緑区大島３３２９番地４中の郷公園前,中の郷公園前,35.5746534,139.3146953
神奈川県,相模原市,127,緑区大島２３５７番地２古清水自治会館前,古清水自治会館前,35.5627883,139.3249723
神奈川県,相模原市,128,緑区大島２６５２番地１常盤子どもの広場前,常盤子どもの広場前,35.5678921,139.3209483
神奈川県,相模原市,131,緑区下九沢１５９９番地５県道相模大磯線の新道植栽帯,県道相模大磯線の新道植栽帯,35.5800404,139.3361306
神奈川県,相模原市,132,緑区下九沢６１３番地１下九沢宮下バス停横鳩川河川敷,下九沢宮下バス停横鳩川河川敷,35.5800404,139.3361306
神奈川県,相模原市,133,緑区下九沢４４１番地１てるて幼稚園,てるて幼稚園,35.5666967,139.3481485
神奈川県,相模原市,134,緑区下九沢４５９番地１作の口小学屋内運動場前,作の口小学屋内運動場前,35.5693587,139.3500576
神奈川県,相模原市,135,緑区下九沢４７９番地５５五十嵐宅前緑地帯,五十嵐宅前緑地帯,35.5704844,139.3487132
神奈川県,相模原市,136,緑区下九沢５３５番地１山口・尾嶋宅前鳩川河川敷,山口・尾嶋宅前鳩川河川敷,35.5800404,139.3361306
神奈川県,相模原市,137,緑区下九沢１３３６番地１御嶽神社,御嶽神社,35.5737913,139.3430613
神奈川県,相模原市,141,緑区下九沢１６６８番地５１下九沢桑実公園前,下九沢桑実公園前,35.5808443,139.3402267
神奈川県,相模原市,142,緑区大島１８５９番地３九沢小学校南側（九沢児童クラブ前）,九沢小学校南側（九沢児童クラブ前）,35.5800404,139.3361306
神奈川県,相模原市,143,緑区大島１８５９番地３九沢小学校正門横,九沢小学校正門横,35.5800404,139.3361306
神奈川県,相模原市,144,緑区下九沢１４７５番地８西内出公園,西内出公園,35.5748288,139.3373063
神奈川県,相模原市,145,緑区下九沢１７６番地１大沢団地管理組合第２集会場前,大沢団地管理組合第２集会場前,35.5800404,139.3361306
神奈川県,相模原市,146,緑区下九沢１７７７番地１大沢団地前バス停前,大沢団地前バス停前,35.576787,139.336309
神奈川県,相模原市,147,緑区下九沢１５５８番地上中ノ原団地給水場前,上中ノ原団地給水場前,35.5790764,139.3391987
神奈川県,相模原市,148,緑区下九沢１５５８番地上中の原団地バス停前,上中の原団地バス停前,35.5804385,139.3368996
神奈川県,相模原市,151,緑区城山１丁目１５番水源公園,水源公園,35.5891479,139.2888141
神奈川県,相模原市,152,緑区城山４丁目１１番内藤宅前,内藤宅前,35.5941931,139.2862026
神奈川県,相模原市,153,緑区城山４丁目７番島崎農園西側畑,島崎農園西側畑,35.5919209,139.2896806
神奈川県,相模原市,154,緑区城山４丁目１番都井沢バス停前,都井沢バス停前,35.59112,139.2912737
神奈川県,相模原市,155,緑区谷ケ原１丁目９番谷ケ原自治会館南側,谷ケ原自治会館南側,35.5919177,139.297075
神奈川県,相模原市,156,緑区谷ケ原２丁目７番谷ケ原バス停南側,谷ケ原バス停南側,35.5911279,139.2941248
神奈川県,相模原市,157,緑区城山１丁目６番城山水源のこみち公園国道側,城山水源のこみち公園国道側,35.5897241,139.2876399
神奈川県,相模原市,161,緑区久保沢２丁目２６番もみじホール城山南側植栽帯,もみじホール城山南側植栽帯,35.599608,139.301479
神奈川県,相模原市,162,緑区向原１丁目１０番中原公園,中原公園,35.5923288,139.3048439
神奈川県,相模原市,163,緑区川尻１６９３番２城山学校給食センター前,城山学校給食センター前,35.5903637,139.3080496
神奈川県,相模原市,164,緑区久保沢３丁目１番ＪＡ会館前国道側）,ＪＡ会館前国道側）,35.5938641,139.3027045
神奈川県,相模原市,165,緑区向原３丁目１番向原北公園新小倉橋東側交差点側,向原北公園新小倉橋東側交差点側,35.5894207,139.3032419
神奈川県,相模原市,166,緑区久保沢３丁目１３番久保沢南公園道路フェンス,久保沢南公園道路フェンス,35.5916936,139.3010257
神奈川県,相模原市,167,緑区久保沢１丁目３番城山総合事務所第１別館西側,城山総合事務所第１別館西側,35.5959021,139.3026042
神奈川県,相模原市,171,緑区原宿南３丁目１３番地原宿南第３公園北側,原宿南第３公園北側,35.5932386,139.3098395
神奈川県,相模原市,172,緑区原宿４丁目４番甘草塚自転車駐輪場フェンス,甘草塚自転車駐輪場フェンス,35.5973648,139.3039955
神奈川県,相模原市,173,緑区原宿４丁目１番原宿堀公園北側,原宿堀公園北側,35.5974672,139.3078493
神奈川県,相模原市,174,緑区原宿南２丁目２８番原宿南第２公園北側,原宿南第２公園北側,35.595962,139.310882
神奈川県,相模原市,175,緑区原宿南１丁目１７番原宿公園南側,原宿公園南側,35.5928126,139.3139607
神奈川県,相模原市,176,緑区原宿５丁目１４番間の原公園南側,間の原公園南側,35.5947739,139.3076859
神奈川県,相模原市,177,緑区原宿１丁目１２番相原界公園南側,相原界公園南側,35.5994676,139.3139909
神奈川県,相模原市,178,緑区原宿南１丁目１７番地原宿公園北側,原宿公園北側,35.5928126,139.3139607
神奈川県,相模原市,181,緑区町屋１丁目６番神奈中「本郷」バス停向かい側畑,神奈中「本郷」バス停向かい側畑,35.6017571,139.3125085
神奈川県,相模原市,182,緑区町屋１丁目２番本郷第２公園,本郷第２公園,35.5997254,139.3107553
神奈川県,相模原市,183,緑区町屋３丁目１３番砂公園東側フェンス,砂公園東側フェンス,35.6042768,139.3066719
神奈川県,相模原市,184,緑区町屋４丁目１７番町屋公園南,町屋公園南,35.6002489,139.3068488
神奈川県,相模原市,185,緑区町屋４丁目２番町屋第２公園南側,町屋第２公園南側,35.6027794,139.3047947
神奈川県,相模原市,186,緑区町屋３丁目３１番付近町屋小橋西側,町屋小橋西側,35.6039601,139.3063271
神奈川県,相模原市,187,緑区町屋４丁目９番川尻八幡宮前交差点北側,川尻八幡宮前交差点北側,35.6007465,139.302999
神奈川県,相模原市,191,緑区広田１５番城北センター前,城北センター前,35.6055282,139.2989486
神奈川県,相模原市,192,緑区川尻４０２１番地４小松橋バス停前,小松橋バス停前,35.604166,139.299232
神奈川県,相模原市,193,緑区川尻３９７２番地１小林宅県道沿い,小林宅県道沿い,35.6022488,139.3010477
神奈川県,相模原市,194,緑区川尻４０１１番かたくりの里バス停東,かたくりの里バス停東,35.6031347,139.2984241
神奈川県,相模原市,195,緑区川尻５２０３番地１川尻北部農産物加工直販所横,川尻北部農産物加工直販所横,35.6078617,139.2964187
神奈川県,相模原市,196,緑区川尻５７７２番地２青少年センター入口バス停前,青少年センター入口バス停前,35.6129511,139.2858035
神奈川県,相模原市,201,緑区城山２丁目６番水の苑地駐車場向かい,水の苑地駐車場向かい,35.5897397,139.2835974
神奈川県,相模原市,202,緑区城山２丁目７番中沢中学校国道側フェンス,中沢中学校国道側フェンス,35.589485,139.285784
神奈川県,相模原市,203,緑区中沢５７５番地１中沢自治会館前フェンス,中沢自治会館前フェンス,35.5942031,139.2804795
神奈川県,相模原市,204,緑区中沢５２１番地上中沢バス停付近ガードレール,上中沢バス停付近ガードレール,35.6472045,139.1429181
神奈川県,相模原市,205,緑区中沢６５０番地３笹本宅西側畑,笹本宅西側畑,35.5964596,139.2752717
神奈川県,相模原市,211,緑区小倉１９１番地９相模原ICBランプ橋BA2橋台東側,相模原ICBランプ橋BA2橋台東側,35.5674831,139.2968186
神奈川県,相模原市,212,緑区小倉３５０番地２ 神奈中「小倉」バス停脇フェンス,神奈中「小倉」バス停脇フェンス,35.5674831,139.2968186
神奈川県,相模原市,213,緑区小倉４０９番地１セブンイレブン駐車場前,セブンイレブン駐車場前,35.5832286,139.2978387
神奈川県,相模原市,214,緑区小倉５２５番地小倉自治会前フェンス,小倉自治会前フェンス,35.5814011,139.2988154
神奈川県,相模原市,215,緑区小倉９０９番地１井上宅西側の畑,井上宅西側の畑,35.5674831,139.2968186
神奈川県,相模原市,216,緑区小倉１４３７番地１小川工業㈱入口向い側道路敷,小川工業㈱入口向い側道路敷,35.5772387,139.3001041
神奈川県,相模原市,217,緑区小倉１５７３番地湘南小学校フェンス,湘南小学校フェンス,35.572412,139.307788
神奈川県,相模原市,221,緑区葉山島８２番地１食彩倶楽部悠遊前,食彩倶楽部悠遊前,35.5496674,139.3202549
神奈川県,相模原市,222,緑区葉山島１５６番地１葉山バス停前,葉山バス停前,35.5515488,139.3207316
神奈川県,相模原市,223,緑区葉山島３１７番地１中平バス停横,中平バス停横,35.5574253,139.3171053
神奈川県,相模原市,224,緑区葉山島３６３番地１葉山島センター付近の齋藤宅塀,葉山島センター付近の齋藤宅塀,35.5573631,139.3183775
神奈川県,相模原市,225,緑区葉山島581番地2の先藤木沢沿いガードレール,藤木沢沿いガードレール,35.5585432,139.3185649
神奈川県,相模原市,226,緑区葉山島７８８番地１ハイツ小川前フェンスの県道側,ハイツ小川前フェンスの県道側,35.566574,139.3122438
神奈川県,相模原市,231,緑区若葉台２丁目７番地７若葉台砥石山公園東側,若葉台砥石山公園東側,35.5961135,139.2957433
神奈川県,相模原市,232,緑区若葉台２丁目７番地７若葉台砥石山公園西側,若葉台砥石山公園西側,35.5961135,139.2957433
神奈川県,相模原市,233,緑区若葉台３丁目９番地１１若葉台カタクリ公園東側,若葉台カタクリ公園東側,35.5942583,139.2920469
神奈川県,相模原市,234,緑区若葉台４丁目３番地１広陵小学校体育館前,広陵小学校体育館前,35.5961502,139.2916806
神奈川県,相模原市,235,緑区若葉台４丁目１番地若葉台中央バス停後,若葉台中央バス停後,35.5955182,139.2935685
神奈川県,相模原市,236,緑区若葉台５丁目４番地１１若葉台谷津公園西側,若葉台谷津公園西側,35.5961811,139.2902462
神奈川県,相模原市,237,緑区若葉台６丁目５番地５若葉台小栗公園西側,若葉台小栗公園西側,35.597584,139.292387
神奈川県,相模原市,241,緑区三井３６1番地３三井南バス停脇,三井南バス停脇,35.5987841,139.2613339
神奈川県,相模原市,242,緑区三井３７９番地２防災消防訓練場前,防災消防訓練場前,35.5987841,139.2613339
神奈川県,相模原市,243,緑区三井５７５番地３三井八幡神社脇,三井八幡神社脇,35.5924312,139.262805
神奈川県,相模原市,244,緑区三井３９４番地三井地域センター北側生垣前,三井地域センター北側生垣前,35.5921632,139.2625811
神奈川県,相模原市,245,緑区三井６４１番地３三井バス停脇道路フェンス,三井バス停脇道路フェンス,35.5987841,139.2613339
神奈川県,相模原市,246,緑区三井７７５番地１ゴミステーション脇,ゴミステーション脇,35.5987841,139.2613339
神奈川県,相模原市,251,緑区三井９４４番地２名手自治会館前,名手自治会館前,35.5987841,139.2613339
神奈川県,相模原市,252,緑区三井１０１４番地４名手橋付近ガードレール,名手橋付近ガードレール,35.598362,139.242518
神奈川県,相模原市,261,緑区太井６７１番地２山口孝造宅脇,山口孝造宅脇,35.5873671,139.2714841
神奈川県,相模原市,262,緑区太井２３５番地３西川秀威宅ブロック塀,西川秀威宅ブロック塀,35.5846786,139.2683391
神奈川県,相模原市,263,緑区太井２５２番地１小網地域センターフェンス,小網地域センターフェンス,35.5851394,139.2706769
神奈川県,相模原市,264,緑区太井５９３番地北根小屋バス停付近信号脇道路フェンス,北根小屋バス停付近信号脇道路フェンス,35.5850222,139.2752717
神奈川県,相模原市,265,緑区太井３３６番地７５金丸入り口付近道路フェンス（太井側）,金丸入り口付近道路フェンス（太井側）,35.5804787,139.2677264
神奈川県,相模原市,266,緑区太井３３６番地１厚木愛川津久井線金丸入り口付近緑地帯,厚木愛川津久井線金丸入り口付近緑地帯,35.5804787,139.2677264
神奈川県,相模原市,267,緑区太井１５７番地１津久井消防署救急隊派出所フェンス,津久井消防署救急隊派出所フェンス,35.5836739,139.2648577
神奈川県,相模原市,271,緑区中野２５６番地相模原赤十字病院フェンス,相模原赤十字病院フェンス,35.5837144,139.2610146
神奈川県,相模原市,272,緑区中野６３３番地津久井中央公民館前,津久井中央公民館前,35.58651,139.2565499
神奈川県,相模原市,273,緑区中野１０１２番地５津久井総合事務所倉庫前,津久井総合事務所倉庫前,35.5865758,139.2568941
神奈川県,相模原市,274,緑区中野１０５８番地２奈良井自治会館フェンス,奈良井自治会館フェンス,35.5868581,139.2519719
神奈川県,相模原市,275,緑区中野１３１２番１高城宅向い月極駐車場敷地,高城宅向い月極駐車場敷地,35.5881641,139.2515845
神奈川県,相模原市,276,緑区中野１６８１番地１西メディカルセンター急病診療所南側フェンス,西メディカルセンター急病診療所南側フェンス,35.5898943,139.2506728
神奈川県,相模原市,277,緑区中野１８２４番地６大沢バス停脇,大沢バス停脇,35.5881641,139.2515845
神奈川県,相模原市,281,緑区又野１３９番地５新境橋又野側歩道,新境橋又野側歩道,35.5917832,139.2487651
神奈川県,相模原市,282,緑区又野１５９番１津久井不動産脇,津久井不動産脇,35.5925043,139.2474886
神奈川県,相模原市,283,緑区又野６９１番地尾崎咢堂記念館西側,尾崎咢堂記念館西側,35.5943544,139.2462694
神奈川県,相模原市,284,緑区又野５６４番地２尾崎宅向い側太陽光パネル隣地,尾崎宅向い側太陽光パネル隣地,35.5932124,139.2448663
神奈川県,相模原市,285,緑区又野７６２番地３津久井又野公園入口前,津久井又野公園入口前,35.5965795,139.2488107
神奈川県,相模原市,286,緑区又野４２２番１津久井湖駐車場フェンス,津久井湖駐車場フェンス,35.5969017,139.2475746
神奈川県,相模原市,287,緑区又野５３０番地２又野八幡神社バス停付近,又野八幡神社バス停付近,35.5932124,139.2448663
神奈川県,相模原市,291,緑区三ヶ木１１７３番２本田紘一宅前,本田紘一宅前,35.5966578,139.2356647
神奈川県,相模原市,292,緑区三ヶ木９０７番地３内田幸一宅向い側土手,内田幸一宅向い側土手,35.5909591,139.2309359
神奈川県,相模原市,293,緑区三ヶ木９３２番地津久井中央保育園フェンス,津久井中央保育園フェンス,35.5928936,139.2338975
神奈川県,相模原市,294,緑区三ヶ木１５９３番地４ファミリーマート向い側市道,ファミリーマート向い側市道,35.5904585,139.2287905
神奈川県,相模原市,295,緑区三ヶ木３３１番地神奈川中央交通西株式会社津久井営業所駐車場,神奈川中央交通西株式会社津久井営業所駐車場,35.5882058,139.2332508
神奈川県,相模原市,296,緑区三ヶ木６７８番地１先中保宅向い側土手,中保宅向い側土手,35.5909591,139.2309359
神奈川県,相模原市,297,緑区三ヶ木１３０番地５小島房子宅前道路フェンス,小島房子宅前道路フェンス,35.5831166,139.2296004
神奈川県,相模原市,301,緑区青山２９７２番地２稲葉商店向い側道路フェンス,稲葉商店向い側道路フェンス,35.5823258,139.2306307
神奈川県,相模原市,302,緑区青山３３８９番地７津久井クリーンセンター入口向側,津久井クリーンセンター入口向側,35.579695,139.2280671
神奈川県,相模原市,303,緑区青山３８４３番地５地蔵前バス停付近道路敷,地蔵前バス停付近道路敷,35.572064,139.3452319
神奈川県,相模原市,304,緑区青山３７１９番地１鮑子取入口バス停付近国道沿,鮑子取入口バス停付近国道沿,35.57178,139.2218
神奈川県,相模原市,305,緑区青山３０２３番地２鈴木宅南側道路敷,鈴木宅南側道路敷,35.5739187,139.2284034
神奈川県,相模原市,306,緑区青山３０１２番地永井宅前水路西側道路敷,永井宅前水路西側道路敷,35.5739187,139.2284034
神奈川県,相模原市,311,緑区青山６３９番地荒井謙次宅前,荒井謙次宅前,35.5708775,139.2369532
神奈川県,相模原市,312,緑区青山９２８番地２掛川商店向い側ガードフェンス,掛川商店向い側ガードフェンス,35.5680639,139.2420799
神奈川県,相模原市,313,緑区青山２４９８番地２武内富夫宅脇,武内富夫宅脇,35.584436,139.229878
神奈川県,相模原市,314,緑区青山８８１番地１佐藤定生宅向い側駐車場,佐藤定生宅向い側駐車場,35.5658863,139.2439758
神奈川県,相模原市,315,緑区青山１１７５番地３守屋浩之宅脇土手,守屋浩之宅脇土手,35.5739187,139.2284034
神奈川県,相模原市,316,緑区青山１００６番地６グリーンハイツ脇フェンス,グリーンハイツ脇フェンス,35.5739187,139.2284034
神奈川県,相模原市,317,緑区青山１０１２番地１串川地域センター南側,串川地域センター南側,35.5664199,139.2467724
神奈川県,相模原市,318,緑区青山２４０番地７鈴木保宅向い側,鈴木保宅向い側,35.5662038,139.2494357
神奈川県,相模原市,321,緑区長竹１１８５番地９長竹自治会館南側フェンス,長竹自治会館南側フェンス,35.5665966,139.2538715
神奈川県,相模原市,322,緑区長竹８５０番地５串川グラウンド北側,串川グラウンド北側,35.5675441,139.2574043
神奈川県,相模原市,323,緑区長竹１５０９番地５串川小学校屋内運動場駐車場,串川小学校屋内運動場駐車場,35.5652739,139.2627518
神奈川県,相模原市,324,緑区長竹１７４０番地６コバホーム下道路フェンス,コバホーム下道路フェンス,35.5652795,139.2631621
神奈川県,相模原市,325,緑区長竹２９７２番地６原宅前ガードフェンス,原宅前ガードフェンス,35.5585511,139.2625524
神奈川県,相模原市,326,緑区長竹２８９２番地３付近市消防団津久井方面隊第５分団第１部詰所向いフェンス,市消防団津久井方面隊第５分団第１部詰所向いフェンス,35.5561292,139.2611506
神奈川県,相模原市,327,緑区長竹１２８番地１松喜屋商店横空地,松喜屋商店横空地,35.613935,139.159822
神奈川県,相模原市,328,緑区長竹８２１番地１市営串川第２住宅空地,市営串川第２住宅空地,35.5673744,139.261679
神奈川県,相模原市,331,緑区根小屋２５０９番地６小室文雄宅脇畑,小室文雄宅脇畑,35.5744764,139.2756616
神奈川県,相模原市,332,緑区根小屋２３６６番地１８金丸団地西入口,金丸団地西入口,35.5792338,139.2632283
神奈川県,相模原市,333,緑区根小屋５４６番地３荒句バス停向い側フェンス,荒句バス停向い側フェンス,35.5744764,139.2756616
神奈川県,相模原市,334,緑区根小屋２８８１番地３功雲寺駐車場向い側,功雲寺駐車場向い側,35.577136,139.2698731
神奈川県,相模原市,335,緑区根小屋１番地１０付近津久井湖城山公園根小屋駐車場入口角道路フェンス,津久井湖城山公園根小屋駐車場入口角道路フェンス,35.5789894,139.273119
神奈川県,相模原市,336,緑区根小屋１５８０番地１根小屋小学校駐車場フェンス,根小屋小学校駐車場フェンス,35.5755015,139.2731684
神奈川県,相模原市,337,緑区根小屋１４５８番地３宝ヶ峯子どもの広場南側,宝ヶ峯子どもの広場南側,35.5769446,139.2755229
神奈川県,相模原市,338,緑区根小屋１０６７番地２西中野バス停向い側空地,西中野バス停向い側空地,35.5722016,139.2765093
神奈川県,相模原市,341,緑区鳥屋９８番地２馬石橋バス停付近フェンス,馬石橋バス停付近フェンス,35.5557819,139.2301387
神奈川県,相模原市,342,緑区鳥屋３４０番地１渡戸自治会館駐車場,渡戸自治会館駐車場,35.5526991,139.2262418
神奈川県,相模原市,343,緑区鳥屋８２７番地１林道入口西側財産区用地,林道入口西側財産区用地,35.5182825,139.1929609
神奈川県,相模原市,344,緑区鳥屋１１３２番地７宮上橋付近フェンス,宮上橋付近フェンス,35.5465644,139.2191254
神奈川県,相模原市,345,緑区鳥屋１０６１番地１鳥屋地域センター向かい,鳥屋地域センター向かい,35.5466338,139.2204036
神奈川県,相模原市,346,緑区鳥屋１３６１番地３鳥屋中学校付近県道フェンス,鳥屋中学校付近県道フェンス,35.5445722,139.2180429
神奈川県,相模原市,347,緑区鳥屋１４８９番地イ－１鳥屋バス停脇,鳥屋バス停脇,35.5405882,139.2162848
神奈川県,相模原市,348,緑区鳥屋１８６１番地水野孝雄宅向かい空地,水野孝雄宅向かい空地,35.5182825,139.1929609
神奈川県,相模原市,349,緑区鳥屋２０８０番地山崎実宅脇畑,山崎実宅脇畑,35.5182825,139.1929609
神奈川県,相模原市,351,緑区青野原３０４番地２川村工業所前,川村工業所前,35.5573818,139.1878994
神奈川県,相模原市,352,緑区青野原３７９番地３前戸バス停西,前戸バス停西,35.5573818,139.1878994
神奈川県,相模原市,353,緑区青野原７３２番地２梶野児童遊園地フェンス,梶野児童遊園地フェンス,35.5634514,139.2059254
神奈川県,相模原市,354,緑区青野原８５２番地３井上友治宅畑,井上友治宅畑,35.5573818,139.1878994
神奈川県,相模原市,355,緑区青野原８６９番３『「清流の里」道志川へようこそ』看板の向い側,『「清流の里」道志川へようこそ』看板の向い側,35.5573818,139.1878994
神奈川県,相模原市,356,緑区青野原１００１番地１青野原第一児童遊園地,青野原第一児童遊園地,35.5633955,139.1977708
神奈川県,相模原市,357,緑区青野原１２４３番地２青和学園フェンス,青和学園フェンス,35.5625572,139.1938171
神奈川県,相模原市,361,緑区青野原２０２８番地２青野原郵便局向い側,青野原郵便局向い側,35.5614046,139.1884333
神奈川県,相模原市,362,緑区青野原２０５４番地８若宮橋フェンス,若宮橋フェンス,35.5634298,139.1893937
神奈川県,相模原市,363,緑区青野原２３１９番地６井上和俊宅南側,井上和俊宅南側,35.5618986,139.1851859
神奈川県,相模原市,364,緑区青野原２９４９番地４尾崎食品店向い側道路フェンス,尾崎食品店向い側道路フェンス,35.5592377,139.1834836
神奈川県,相模原市,365,緑区青野原２９６６番地１長野会館前空地の入口付近フェンス,長野会館前空地の入口付近フェンス,35.5600332,139.1810844
神奈川県,相模原市,366,緑区青野原３０９３番地２西沢大橋西側フェンス,西沢大橋西側フェンス,35.5606552,139.1793698
神奈川県,相模原市,367,緑区青野原３３０６番地２涸沢橋フェンス,涸沢橋フェンス,35.5581614,139.174042
神奈川県,相模原市,371,緑区青根２４３番地２柳川太造宅前駐車場,柳川太造宅前駐車場,35.5034926,139.1120314
神奈川県,相模原市,372,緑区青根６１０番地９荒丸会館南国道側,荒丸会館南国道側,35.5482511,139.1433438
神奈川県,相模原市,381,緑区青根１１０９番地１加藤健宅向い側畑,加藤健宅向い側畑,35.5034926,139.1120314
神奈川県,相模原市,382,緑区青根９７９番地３口ノ沢駐車場東側フェンス,口ノ沢駐車場東側フェンス,35.5034926,139.1120314
神奈川県,相模原市,383,緑区青根１２８９番地４旧津久井消防署青根出張所脇,旧津久井消防署青根出張所脇,35.5419378,139.1292986
神奈川県,相模原市,384,緑区青根１９８９番地３佐藤宅向かいフェンス,佐藤宅向かいフェンス,35.5034926,139.1120314
神奈川県,相模原市,385,緑区青根１７７１番地４山口商店前西側ガードレール,山口商店前西側ガードレール,35.5694325,139.3518684
神奈川県,相模原市,386,緑区青根１４０６番地２宮沢新橋東側欄干,宮沢新橋東側欄干,35.544756,139.1278901
神奈川県,相模原市,387,緑区牧野１０６２９番地大川原橋北側道路沿,大川原橋北側道路沿,35.544745,139.1210727
神奈川県,相模原市,391,緑区青根２８５１番地4高足静子宅前防火水槽下ガードレール,高足静子宅前防火水槽下ガードレール,35.5034926,139.1120314
神奈川県,相模原市,392,緑区青根３００６番地１永井雄二宅南側畑,永井雄二宅南側畑,35.5034926,139.1120314
神奈川県,相模原市,401,緑区与瀬２２９２番地横橋集会所前道路擁壁,横橋集会所前道路擁壁,35.6216821,139.1778088
神奈川県,相模原市,402,緑区与瀬６９５番地６与瀬上町集会所前及び西側柿沢実宅前,与瀬上町集会所前及び西側柿沢実宅前,35.6179253,139.1834361
神奈川県,相模原市,403,緑区与瀬１３９５番地ＪＲ相模湖駅前,ＪＲ相模湖駅前,35.6177394,139.1879686
神奈川県,相模原市,404,緑区与瀬８９６番地相模湖総合事務所前,相模湖総合事務所前,35.6148896,139.1887293
神奈川県,相模原市,405,緑区与瀬９４２番地２与瀬グラウンド南側フェンス,与瀬グラウンド南側フェンス,35.6140933,139.1905307
神奈川県,相模原市,406,緑区与瀬８７７番地桂北小学校前,桂北小学校前,35.6226295,139.1853689
神奈川県,相模原市,407,緑区与瀬２１９番地与瀬中丸公園前,与瀬中丸公園前,35.6179385,139.1920868
神奈川県,相模原市,408,緑区若柳１４６番地榎本隆宅前,榎本隆宅前,35.6143345,139.2045983
神奈川県,相模原市,411,緑区小原８４０番地４平野前田モータース前,平野前田モータース前,35.6224796,139.2010851
神奈川県,相模原市,412,緑区小原４２１番地１３小原の郷東側隣道路用地,小原の郷東側隣道路用地,35.6228578,139.2011961
神奈川県,相模原市,413,緑区小原７０９番地１付近小原の郷駐車場向かい道路沿,小原の郷駐車場向かい道路沿,35.6228578,139.2011961
神奈川県,相模原市,414,緑区小原４１９番地底沢バス停横,底沢バス停横,35.6231438,139.2017872
神奈川県,相模原市,415,緑区小原１７８番地２底沢集会所前フェンス,底沢集会所前フェンス,35.6224796,139.2010851
神奈川県,相模原市,421,緑区千木良１２２０番地２千木良バス停横畑,千木良バス停横畑,35.6212005,139.205182
神奈川県,相模原市,422,緑区千木良１０４４番地３千木良公民館前,千木良公民館前,35.6203778,139.2077544
神奈川県,相模原市,423,緑区千木良１１４７番地１小島重三宅前,小島重三宅前,35.6210639,139.2088325
神奈川県,相模原市,424,緑区千木良８６３番地１溝口電気西側畑,溝口電気西側畑,35.6212005,139.205182
神奈川県,相模原市,425,緑区千木良７７６番地榎本栄宅前,榎本栄宅前,35.6157314,139.2120018
神奈川県,相模原市,426,緑区千木良４４２番地４県道三井相模湖線赤馬バス停横,県道三井相模湖線赤馬バス停横,35.6125907,139.2151174
神奈川県,相模原市,427,緑区千木良３９２番地３岸光男宅前,岸光男宅前,35.6121724,139.2179275
神奈川県,相模原市,431,緑区寸沢嵐３３８０番地プレジャーフォレスト前バス停横,プレジャーフォレスト前バス停横,35.601124,139.1993579
神奈川県,相模原市,432,緑区若柳１４８３番地石老山入口信号機横,石老山入口信号機横,35.5998669,139.2050607
神奈川県,相模原市,433,緑区若柳９８６番地１４阿津交差点横フェンス,阿津交差点横フェンス,35.6004796,139.2166725
神奈川県,相模原市,434,緑区若柳７１８番地東洋紙業㈱対面の道路敷,東洋紙業㈱対面の道路敷,35.6055998,139.2192779
神奈川県,相模原市,435,緑区寸沢嵐８５０番地１Ｊーマート調整池国道側フェンス,Ｊーマート調整池国道側フェンス,35.5839429,139.2081479
神奈川県,相模原市,436,緑区寸沢嵐３１５番地５国道412号線沼本バス停横,国道412号線沼本バス停横,35.5839429,139.2081479
神奈川県,相模原市,437,緑区寸沢嵐１７０６番地１道志営農センター前,道志営農センター前,35.5873373,139.218255
神奈川県,相模原市,438,緑区寸沢嵐２６６０番地１神保和弘宅前フェンス,神保和弘宅前フェンス,35.5941647,139.210808
神奈川県,相模原市,439,緑区寸沢嵐３０６８番地大神田賢宅前,大神田賢宅前,35.5954059,139.2046657
神奈川県,相模原市,441,緑区吉野７９番地６勝瀬橋国道入口南側欄干,勝瀬橋国道入口南側欄干,35.6144231,139.1715502
神奈川県,相模原市,442,緑区吉野１３３７番地永井啓之宅東側フェンス,永井啓之宅東側フェンス,35.6231802,139.1686236
神奈川県,相模原市,443,緑区吉野２７７番地４藤野方面消防団吉野分団本部東側間地ブロック,藤野方面消防団吉野分団本部東側間地ブロック,35.614375,139.1665613
神奈川県,相模原市,444,緑区吉野４０７番地シュタイナー学園高等部入口,シュタイナー学園高等部入口,35.615863,139.166419
神奈川県,相模原市,445,緑区吉野５３４番地１付近船橋仁市宅前ガードレール,船橋仁市宅前ガードレール,35.6138667,139.1671757
神奈川県,相模原市,446,緑区吉野１４３１番地２ファミリーオート対面の間地ブロック,ファミリーオート対面の間地ブロック,35.6245879,139.1685923
神奈川県,相模原市,447,緑区吉野１２０３番地１県立陣場相模湖自然公園奈良本園地休憩所向かい,県立陣場相模湖自然公園奈良本園地休憩所向かい,35.6213954,139.1649829
神奈川県,相模原市,451,緑区小渕１６８６番地藤野駅周辺第１駐車場フェンス,藤野駅周辺第１駐車場フェンス,35.615448,139.152992
神奈川県,相模原市,452,緑区小渕１９６７番地佐々木光子宅南側ブロック塀,佐々木光子宅南側ブロック塀,35.6150685,139.1561286
神奈川県,相模原市,453,緑区吉野８８５番地藤野中学校南側間地ブロック,藤野中学校南側間地ブロック,35.6146171,139.1606937
神奈川県,相模原市,454,緑区小渕１８０２番地４門倉睦男宅南側ガードレール,門倉睦男宅南側ガードレール,35.6151664,139.1504888
神奈川県,相模原市,455,緑区小渕８９７番地５付近諸角洋治宅手前ブロック積,諸角洋治宅手前ブロック積,35.6194674,139.1355974
神奈川県,相模原市,456,緑区小渕１２４４番地柏屋商店隣の空き家前,柏屋商店隣の空き家前,35.6185232,139.1409709
神奈川県,相模原市,457,緑区小渕３９６番地消防器具置場（上小渕）,消防器具置場（上小渕）,35.620502,139.1295143
神奈川県,相模原市,458,緑区小渕３６番地先臼井邦士宅前道路フェンス,臼井邦士宅前道路フェンス,35.6250797,139.1239098
神奈川県,相模原市,461,緑区澤井１７４番地中央電子㈱前,中央電子㈱前,35.6213189,139.1547039
神奈川県,相模原市,462,緑区澤井２７６番地御嶽神社前,御嶽神社前,35.621828,139.1523536
神奈川県,相模原市,463,緑区澤井３３３番地４澤井隧道北側,澤井隧道北側,35.6200514,139.153793
神奈川県,相模原市,464,緑区澤井６２５番地中里橋バス停前,中里橋バス停前,35.6376192,139.155011
神奈川県,相模原市,465,緑区澤井１１５６番地２付近栃谷入口南側落合橋欄干,栃谷入口南側落合橋欄干,35.6304157,139.1475909
神奈川県,相模原市,466,緑区澤井２４６９番地御前屋商店前,御前屋商店前,35.6337685,139.1413838
神奈川県,相模原市,467,緑区澤井１９８９番地市道栃谷上栃谷入口右側擁壁,市道栃谷上栃谷入口右側擁壁,35.6350966,139.1579552
神奈川県,相模原市,471,緑区牧野２６０４番地河内宅前間地ブロック,河内宅前間地ブロック,35.5926466,139.1728827
神奈川県,相模原市,472,緑区牧野３２３１番地エイト資源開発入口,エイト資源開発入口,35.5894185,139.1678937
神奈川県,相模原市,473,緑区牧野２８８１番地篠原の里南側玉石積,篠原の里南側玉石積,35.5889701,139.1735076
神奈川県,相模原市,474,緑区牧野１７１４番地３付近篠原バス停前清水橋欄干,篠原バス停前清水橋欄干,35.5870502,139.1728746
神奈川県,相模原市,475,緑区牧野６４４番地２佐藤トモエ宅対面ガードレール,佐藤トモエ宅対面ガードレール,35.5812091,139.1502513
神奈川県,相模原市,476,緑区牧野２５０番地１市道入口西側県道間地ブロック,市道入口西側県道間地ブロック,35.5812091,139.1502513
神奈川県,相模原市,481,緑区牧野４２３２番地藤野農村改善センター前間地ブロック,藤野農村改善センター前間地ブロック,35.5815684,139.1499602
神奈川県,相模原市,482,緑区牧野４３５７番２黄色点滅灯西側ガードレール,黄色点滅灯西側ガードレール,35.5835336,139.1489333
神奈川県,相模原市,483,緑区牧野５７３５番創和建設㈱向い畑,創和建設㈱向い畑,35.5812091,139.1502513
神奈川県,相模原市,484,緑区牧野５５３８番３赤沢バス停先県道石積,赤沢バス停先県道石積,35.5980836,139.1522187
神奈川県,相模原市,485,緑区牧野５７９７番地２坂口優宅前,坂口優宅前,35.5918997,139.1470598
神奈川県,相模原市,486,緑区牧野１３８９０番小舟集会所東側間地ブロック,小舟集会所東側間地ブロック,35.57017,139.1492
神奈川県,相模原市,487,緑区牧野１４５４２番地２佐藤仁則宅上市道ガードレール,佐藤仁則宅上市道ガードレール,35.5812091,139.1502513
神奈川県,相模原市,491,緑区牧野６６７５番地２宮ノ前バス停,宮ノ前バス停,35.58737,139.147394
神奈川県,相模原市,492,緑区牧野７１２５番地梶原守宅前,梶原守宅前,35.5835737,139.1445107
神奈川県,相模原市,493,緑区牧野７０４０番地５白井バス停前,白井バス停前,35.5812091,139.1502513
神奈川県,相模原市,494,緑区牧野７９１３番２志村土建対面道路敷,志村土建対面道路敷,35.587959,139.1354995
神奈川県,相模原市,495,緑区牧野９４１４番地加藤茂子宅手前ブロック積,加藤茂子宅手前ブロック積,35.5821894,139.1297568
神奈川県,相模原市,496,緑区牧野８７８１番地３奥牧野バス停横,奥牧野バス停横,35.58527,139.127705
神奈川県,相模原市,501,緑区牧野１１７３９番地１付近Team UKYOフェンス,Team UKYOフェンス,35.5812091,139.1502513
神奈川県,相模原市,502,緑区牧野１２０９４番地菅井上バス停前,菅井上バス停前,35.56002,139.1466
神奈川県,相模原市,503,緑区牧野１１２５８番地長又生活改善センター前,長又生活改善センター前,35.55092,139.137
神奈川県,相模原市,504,緑区牧野１２６４３番地２高崎永治宅下間地ブロック,高崎永治宅下間地ブロック,35.5598518,139.1650353
神奈川県,相模原市,505,緑区牧野１００６３番地綱子橋東側,綱子橋東側,35.5641407,139.1354726
神奈川県,相模原市,511,緑区日連５５８番地名倉入口バス停前,名倉入口バス停前,35.6106794,139.1560119
神奈川県,相模原市,512,緑区日連３５６番地４付近森久保和男宅前（山側）ブロック積,森久保和男宅前（山側）ブロック積,35.6078103,139.1561559
神奈川県,相模原市,513,緑区日連１０３７番地１日連診療所前,日連診療所前,35.6080966,139.1575921
神奈川県,相模原市,514,緑区日連１０９番地森久保スタンド前,森久保スタンド前,35.6078103,139.1561559
神奈川県,相模原市,515,緑区日連８１３番地杉集会所前ガードレール,杉集会所前ガードレール,35.6092787,139.1604236
神奈川県,相模原市,516,緑区日連１４９５番地真板達雄宅前,真板達雄宅前,35.610469,139.169175
神奈川県,相模原市,517,緑区日連１４１３番地２富山庄二宅対面ガードレール,富山庄二宅対面ガードレール,35.6086418,139.1779402
神奈川県,相模原市,521,緑区名倉２８１番地４名倉グランド入口,名倉グランド入口,35.6096364,139.1504272
神奈川県,相模原市,522,緑区名倉２４４４番地３付近野崎鉄工所北側道路敷,野崎鉄工所北側道路敷,35.5872344,139.3356153
神奈川県,相模原市,523,緑区名倉１２５０番地研修センターふじの入口,研修センターふじの入口,35.6133628,139.1446025
神奈川県,相模原市,524,緑区名倉３７５４番４名倉分団詰所東側ガードレール,名倉分団詰所東側ガードレール,35.6013313,139.1357747
神奈川県,相模原市,525,緑区名倉４１２２番地向原集会所前,向原集会所前,35.605034,139.1348899
神奈川県,相模原市,526,緑区名倉３３０７番地大濱祐雄宅前,大濱祐雄宅前,35.5953331,139.1349899
神奈川県,相模原市,527,緑区名倉５３４番地２杉本敏正宅西側対面ガードレール,杉本敏正宅西側対面ガードレール,35.6054785,139.1485501
神奈川県,相模原市,531,緑区佐野川２０９０番地１上河原バス停前,上河原バス停前,35.63748,139.1396
神奈川県,相模原市,532,緑区佐野川１９０７番地１付近藤野北小学校西側道路間地ブロック,藤野北小学校西側道路間地ブロック,35.640725,139.139715
神奈川県,相模原市,533,緑区佐野川１４９２番地３鎌沢入口,鎌沢入口,35.649604,139.14477
神奈川県,相模原市,534,緑区佐野川１３２５番地杉本勝宏宅前,杉本勝宏宅前,35.6528623,139.1424976
神奈川県,相模原市,535,緑区佐野川６６１番地和田バス停前,和田バス停前,35.6554849,139.1373096
神奈川県,相模原市,536,緑区佐野川５６３番地２八坂橋先,八坂橋先,35.6529833,139.1500651
神奈川県,相模原市,537,緑区佐野川３２４番地小林満宅前石垣,小林満宅前石垣,35.6560784,139.1544775
神奈川県,相模原市,541,緑区佐野川２４４４番地佐野川バス停前,佐野川バス停前,35.6431662,139.1271377
神奈川県,相模原市,542,緑区佐野川２８４４番地芳ヶ沢バス停前,芳ヶ沢バス停前,35.6454116,139.1256098
神奈川県,相模原市,543,緑区佐野川３０７８番地４山下商店先,山下商店先,35.649046,139.122122
神奈川県,相模原市,544,緑区佐野川３１０８番地５船橋電気工場前,船橋電気工場前,35.650121,139.121855
神奈川県,相模原市,545,緑区佐野川３３９１番地岩集会施設,岩集会施設,35.6092757,139.160445
神奈川県,相模原市,11,南区大野台２丁目１２番大野台２丁目公園,大野台２丁目公園,35.5557659,139.4044067
神奈川県,相模原市,12,南区大野台３丁目３０番大沼松音公園,大沼松音公園,35.5515028,139.4017716
神奈川県,相模原市,13,南区大野台３丁目４０番松が丘バス停後植樹帯,松が丘バス停後植樹帯,35.5508495,139.3978472
神奈川県,相模原市,14,南区大野台２丁目２６番８号大野台中央小学校南側,大野台中央小学校南側,35.55122,139.404702
神奈川県,相模原市,15,南区大野台２丁目２６番８号大野台中央小学校東側,大野台中央小学校東側,35.55122,139.404702
神奈川県,相模原市,16,南区大野台５丁目１６番３８号大野台公民館,大野台公民館,35.5523698,139.4076282
神奈川県,相模原市,17,南区大野台５丁目２６番大野台５丁目公園,大野台５丁目公園,35.54932,139.406133
神奈川県,相模原市,18,南区大野台１丁目６番大野台１丁目きらきら公園,大野台１丁目きらきら公園,35.5578685,139.4046274
神奈川県,相模原市,21,南区大野台４丁目１番大野台中央公園,大野台中央公園,35.5514532,139.4033354
神奈川県,相模原市,22,南区大野台６丁目５番大野台６丁目第２公園,大野台６丁目第２公園,35.5527566,139.4144991
神奈川県,相模原市,23,南区大野台６丁目４番大野台６丁目公園,大野台６丁目公園,35.5527735,139.4125649
神奈川県,相模原市,24,南区大野台８丁目１番１５号大野台小学校東側,大野台小学校東側,35.5481576,139.4135744
神奈川県,相模原市,25,南区大野台８丁目２番１号大野台中学校東側,大野台中学校東側,35.5455487,139.4123498
神奈川県,相模原市,26,南区大野台４丁目１３番大野台４丁目ふれあい公園,大野台４丁目ふれあい公園,35.5477071,139.4051873
神奈川県,相模原市,27,南区大野台４丁目１４番１３号大野台第２児童館横,大野台第２児童館横,35.546032,139.405824
神奈川県,相模原市,28,南区大野台４丁目３０番大野台４丁目バス停後植樹帯,大野台４丁目バス停後植樹帯,35.5439676,139.3995934
神奈川県,相模原市,31,南区古淵２丁目１１番古淵西公園西側,古淵西公園西側,35.5545823,139.4172426
神奈川県,相模原市,32,南区古淵４丁目１番２号古淵駅北口自転車駐車場前,古淵駅北口自転車駐車場前,35.555623,139.4208373
神奈川県,相模原市,33,南区古淵２丁目１３番古淵駅南口自転車駐車場前,古淵駅南口自転車駐車場前,35.5561832,139.4176555
神奈川県,相模原市,34,南区古淵３丁目１番８号古淵保育園,古淵保育園,35.555074,139.420439
神奈川県,相模原市,35,南区古淵３丁目４番古淵南公園南側,古淵南公園南側,35.5543381,139.4217196
神奈川県,相模原市,36,南区古淵３丁目１４番上長久保南公園西側,上長久保南公園西側,35.551542,139.4192859
神奈川県,相模原市,37,南区古淵３丁目１４番上長久保南公園１６号側,上長久保南公園１６号側,35.551542,139.4192859
神奈川県,相模原市,38,南区西大沼１丁目３３番西大沼なかよし公園,西大沼なかよし公園,35.5467299,139.4189412
神奈川県,相模原市,41,南区古淵３丁目２１番２号大野小学校西側,大野小学校西側,35.552227,139.421201
神奈川県,相模原市,42,南区古淵４丁目２４番市営古淵住宅前,市営古淵住宅前,35.5542545,139.4230579
神奈川県,相模原市,43,南区古淵３丁目２１番２号大野小学校体育館前,大野小学校体育館前,35.552227,139.421201
神奈川県,相模原市,44,南区古淵５丁目３２番古淵鵜野森公園駐車場,古淵鵜野森公園駐車場,35.5488206,139.4270791
神奈川県,相模原市,45,南区古淵５丁目２６番市営斎場西側,市営斎場西側,35.550389,139.4263057
神奈川県,相模原市,46,南区古淵５丁目２４番市営斎場第２駐車場南側,市営斎場第２駐車場南側,35.550389,139.4263057
神奈川県,相模原市,47,南区東大沼１丁目１番大野小学校入口前バス停,大野小学校入口前バス停,35.549827,139.421115
神奈川県,相模原市,48,南区東大沼１丁目３番南警察署バス停前　こもれびの森内,南警察署バス停前　こもれびの森内,35.5463076,139.4261763
神奈川県,相模原市,51,南区鵜野森１丁目３０番柏木第一公園,柏木第一公園,35.5459911,139.431254
神奈川県,相模原市,52,南区鵜野森１丁目５番鵜野森中学校横緑地帯,鵜野森中学校横緑地帯,35.545125,139.4287827
神奈川県,相模原市,53,南区鵜野森１丁目２８番グリーンハイツＤ２号棟南側,グリーンハイツＤ２号棟南側,35.5470267,139.4314886
神奈川県,相模原市,54,南区鵜野森１丁目２６番グリーンハイツＦ５号棟北側向,グリーンハイツＦ５号棟北側向,35.5488821,139.4283331
神奈川県,相模原市,55,南区鵜野森１丁目３０番柏木第２公園,柏木第２公園,35.5451825,139.4317553
神奈川県,相模原市,56,南区鵜野森１丁目１１番鵜野森中学校東側フェンス,鵜野森中学校東側フェンス,35.545125,139.4287827
神奈川県,相模原市,57,南区鵜野森１丁目２８番グリーンハイツＦ１号棟東側,グリーンハイツＦ１号棟東側,35.5470529,139.4314716
神奈川県,相模原市,61,南区鵜野森２丁目２７番鹿島森公園,鹿島森公園,35.5459671,139.4362936
神奈川県,相模原市,62,南区鵜野森２丁目２７番鵜野森団地Ｋ棟前,鵜野森団地Ｋ棟前,35.5455779,139.4351567
神奈川県,相模原市,63,南区鵜野森２丁目１０番相模緑道緑地（鵜野森2丁目10番地先）,相模緑道緑地（鵜野森2丁目10番地先）,35.5437779,139.4334156
神奈川県,相模原市,64,南区鵜野森３丁目１９番相模緑道緑地（鵜野森3丁目19番地先）,相模緑道緑地（鵜野森3丁目19番地先）,35.5424944,139.4348451
神奈川県,相模原市,65,南区鵜野森３丁目３１番鵜野森鹿島公園,鵜野森鹿島公園,35.5439441,139.4375635
神奈川県,相模原市,66,南区鵜野森３丁目１９番盆栽ちはる園横植込み前,盆栽ちはる園横植込み前,35.5424944,139.4348451
神奈川県,相模原市,67,南区鵜野森２丁目１６番相模緑道緑地（鵜野森2丁目16番地先）,相模緑道緑地（鵜野森2丁目16番地先）,35.5444342,139.4323832
神奈川県,相模原市,71,南区東大沼２丁目２番木もれびの森（東大沼2丁目2番地先）,木もれびの森（東大沼2丁目2番地先）,35.5434525,139.4202337
神奈川県,相模原市,72,南区西大沼３丁目１８番市道側山林,市道側山林,35.542852,139.413027
神奈川県,相模原市,73,南区西大沼５丁目１５番西大沼バス停横,西大沼バス停横,35.5329656,139.4130881
神奈川県,相模原市,74,南区東大沼２丁目３２番若沼ふれあい広場,若沼ふれあい広場,35.539447,139.4245997
神奈川県,相模原市,75,南区西大沼３丁目５番西大沼中央公園,西大沼中央公園,35.5431556,139.4143217
神奈川県,相模原市,76,南区西大沼４丁目４番1号オルガノ㈱開発センター西側,オルガノ㈱開発センター西側,35.5400637,139.4108413
神奈川県,相模原市,77,南区西大沼４丁目４番1号オルガノ㈱開発センター南側,オルガノ㈱開発センター南側,35.5400637,139.4108413
神奈川県,相模原市,78,南区西大沼２丁目４７番森林公園子供広場,森林公園子供広場,35.5456701,139.4140408
神奈川県,相模原市,81,南区東大沼３丁目２０番１号大沼小学校南側,大沼小学校南側,35.5389517,139.420043
神奈川県,相模原市,82,南区東大沼３丁目２０番１号大沼小学校西側,大沼小学校西側,35.5389517,139.420043
神奈川県,相模原市,83,南区若松６丁目２１番若松６丁目公園,若松６丁目公園,35.5346604,139.4191298
神奈川県,相模原市,84,南区東大沼３丁目２０番１号大沼小学校東側,大沼小学校東側,35.5389517,139.420043
神奈川県,相模原市,85,南区東大沼４丁目１８番大沼ふれあい広場東側,大沼ふれあい広場東側,35.5333789,139.4150337
神奈川県,相模原市,86,南区若松６丁目１番やまびこ公園,やまびこ公園,35.5374083,139.4184029
神奈川県,相模原市,87,南区若松５丁目２４番若松郵便局横駐車場（裏通り側）,若松郵便局横駐車場（裏通り側）,35.5375108,139.4209483
神奈川県,相模原市,88,南区若松５丁目２４番若松郵便局横駐車場（大通り側）,若松郵便局横駐車場（大通り側）,35.5375108,139.4209483
神奈川県,相模原市,91,南区若松２丁目２２番１号若松小学校正門横,若松小学校正門横,35.54099,139.429242
神奈川県,相模原市,92,南区若松１丁目７番相模原療育園駐車場向,相模原療育園駐車場向,35.5434994,139.4222996
神奈川県,相模原市,93,南区若松２丁目２２番１号若松小学校北側,若松小学校北側,35.54099,139.429242
神奈川県,相模原市,94,南区若松２丁目１２番小沼西公園西側,小沼西公園西側,35.5398697,139.4264785
神奈川県,相模原市,95,南区若松２丁目１７番小沼東公園,小沼東公園,35.5403579,139.4284615
神奈川県,相模原市,96,南区若松２丁目１番３８号老人福祉センター若竹園,老人福祉センター若竹園,35.5412627,139.4257501
神奈川県,相模原市,97,南区若松２丁目２２番１号若松小学校東側,若松小学校東側,35.54099,139.429242
神奈川県,相模原市,101,南区相模大野４丁目５番ロビーシティー集会所前,ロビーシティー集会所前,35.5330165,139.4328608
神奈川県,相模原市,102,南区相模大野４丁目２番相模大野中央公園東側,相模大野中央公園東側,35.5349069,139.4336811
神奈川県,相模原市,103,南区相模大野４丁目１番１号相模原中等教育学校南側,相模原中等教育学校南側,35.5362689,139.4312601
神奈川県,相模原市,104,南区相模大野４丁目２番相模大野中央公園南側（立体駐車場向）,相模大野中央公園南側（立体駐車場向）,35.5343929,139.433634
神奈川県,相模原市,105,南区相模大野４丁目１番１号相模原中等教育学校東側,相模原中等教育学校東側,35.5362689,139.4312601
神奈川県,相模原市,106,南区相模大野４丁目１番１号相模原中等教育学校北側,相模原中等教育学校北側,35.5362689,139.4312601
神奈川県,相模原市,107,南区相模大野１丁目３番丸屋公園東側,丸屋公園東側,35.5384063,139.4303648
神奈川県,相模原市,108,南区文京１丁目１番文京青空公園西側,文京青空公園西側,35.5392708,139.4285818
神奈川県,相模原市,111,南区御園３丁目１９番御園公園南側,御園公園南側,35.5302807,139.4157062
神奈川県,相模原市,112,南区御園３丁目４１番みゆき台公園西側,みゆき台公園西側,35.5294852,139.4176149
神奈川県,相模原市,113,南区御園２丁目１１番御園すみれ公園,御園すみれ公園,35.529935,139.4199036
神奈川県,相模原市,114,南区文京２丁目１２番１号谷口台小学校正門横,谷口台小学校正門横,35.532128,139.426315
神奈川県,相模原市,115,南区文京１丁目１０番１号大野南中学校南側,大野南中学校南側,35.537124,139.429409
神奈川県,相模原市,116,南区文京１丁目１７番文京みどりの公園北側,文京みどりの公園北側,35.5364276,139.4245636
神奈川県,相模原市,117,南区文京２丁目１２番１号谷口台小学校西側,谷口台小学校西側,35.532128,139.426315
神奈川県,相模原市,118,南区御園１丁目１８番御園雨水調整池北側,御園雨水調整池北側,35.5304692,139.4175342
神奈川県,相模原市,131,南区相模大野５丁目３１番1号南区役所東側,南区役所東側,35.5301932,139.4301151
神奈川県,相模原市,132,南区相模大野５丁目３４番２号ＮＴＴ相模大野ビル前,ＮＴＴ相模大野ビル前,35.5293605,139.4291592
神奈川県,相模原市,133,南区相模大野５丁目８番相模緑道緑地（相模大野5丁目8番地先）,相模緑道緑地（相模大野5丁目8番地先）,35.5285933,139.427936
神奈川県,相模原市,134,南区相模大野３丁目８番相模大野駅北口デッキ東側防護柵,相模大野駅北口デッキ東側防護柵,35.5320119,139.4369101
神奈川県,相模原市,135,南区相模大野５丁目３番相模緑道緑地（相模大野5丁目3番地先）,相模緑道緑地（相模大野5丁目3番地先）,35.5306812,139.4246009
神奈川県,相模原市,136,南区栄町１３番市道上鶴間植樹帯（栄町13番地先）,市道上鶴間植樹帯（栄町13番地先）,35.5294166,139.4248391
神奈川県,相模原市,137,南区相模大野３丁目２３番相模大野北口公園東側,相模大野北口公園東側,35.5332897,139.4375261
神奈川県,相模原市,138,南区栄町３番市道上鶴間空地（栄町3番地先）,市道上鶴間空地（栄町3番地先）,35.5299489,139.4226157
神奈川県,相模原市,141,南区相模大野６丁目２３番プラザシティ相模大野１４号棟南側,プラザシティ相模大野１４号棟南側,35.5277594,139.4327832
神奈川県,相模原市,142,南区相模大野６丁目２３番プラザシティ相模大野20号棟向,プラザシティ相模大野20号棟向,35.5277594,139.4327832
神奈川県,相模原市,143,南区旭町２４番５号鶴の台小学校北側,鶴の台小学校北側,35.5235007,139.4285103
神奈川県,相模原市,144,南区旭町１４番旭森公園,旭森公園,35.5256916,139.4272042
神奈川県,相模原市,145,南区旭町２４番５号鶴の台小学校東側,鶴の台小学校東側,35.5235007,139.4285103
神奈川県,相模原市,146,南区相模大野６丁目２1番プラザシティ相模大野公園南側,プラザシティ相模大野公園南側,35.5285754,139.4314302
神奈川県,相模原市,147,南区相模大野６丁目２３番プラザシティ相模大野１７号棟東側,プラザシティ相模大野１７号棟東側,35.5277594,139.4327832
神奈川県,相模原市,148,南区相模大野６丁目２２番1号南保健福祉センター前,南保健福祉センター前,35.5278411,139.430074
神奈川県,相模原市,151,南区上鶴間本町１丁目９番１号鹿島台小学校グランド西側,鹿島台小学校グランド西側,35.5393016,139.4394281
神奈川県,相模原市,152,南区上鶴間本町１丁目９番１号鹿島台小学校体育館前,鹿島台小学校体育館前,35.5393016,139.4394281
神奈川県,相模原市,153,南区上鶴間本町１丁目９番１号鹿島台小学校正門横,鹿島台小学校正門横,35.5393016,139.4394281
神奈川県,相模原市,154,南区上鶴間本町２丁目１９番鹿島台公園,鹿島台公園,35.5403842,139.4409219
神奈川県,相模原市,155,南区上鶴間本町２丁目２９番丸山公園,丸山公園,35.538783,139.442043
神奈川県,相模原市,156,南区上鶴間本町２丁目１１番下森鹿島第１雨水調整池前,下森鹿島第１雨水調整池前,35.5430714,139.4396872
神奈川県,相模原市,157,南区上鶴間本町１丁目４８番谷口志女竹公園南側,谷口志女竹公園南側,35.5343913,139.4388624
神奈川県,相模原市,158,南区上鶴間本町１丁目１２番17号小宮宅前ブロック塀,小宮宅前ブロック塀,35.5383328,139.4370926
神奈川県,相模原市,161,南区上鶴間本町４丁目１５番上村公園北側,上村公園北側,35.535165,139.4413018
神奈川県,相模原市,162,南区上鶴間本町６丁目３番先交差点市道南大野植栽帯,市道南大野植栽帯,35.5306417,139.4448529
神奈川県,相模原市,163,南区上鶴間本町５丁目１３番１号谷口小学校南側,谷口小学校南側,35.535854,139.447457
神奈川県,相模原市,164,南区上鶴間本町５丁目１９番谷口南台公園,谷口南台公園,35.5333708,139.4491035
神奈川県,相模原市,165,南区上鶴間本町６丁目２２番谷口第２子供広場前,谷口第２子供広場前,35.5322142,139.4480303
神奈川県,相模原市,166,南区上鶴間本町４丁目４６番１７号谷口児童館前,谷口児童館前,35.5323552,139.444107
神奈川県,相模原市,167,南区上鶴間本町４丁目１３番４３号谷口中学校西側,谷口中学校西側,35.5334965,139.4419934
神奈川県,相模原市,168,南区上鶴間本町４丁目６番谷口中村公園前,谷口中村公園前,35.5331404,139.4403603
神奈川県,相模原市,171,南区相模大野７丁目１０番相模大野南口公園南側,相模大野南口公園南側,35.5308438,139.4390907
神奈川県,相模原市,172,南区相模大野７丁目１０番相模大野南口公園東側,相模大野南口公園東側,35.5308438,139.4390907
神奈川県,相模原市,173,南区相模大野８丁目９番南新町公園東側,南新町公園東側,35.5292467,139.4379633
神奈川県,相模原市,174,南区相模大野９丁目１７番新町中学校グラウンド北側,新町中学校グラウンド北側,35.5257073,139.4369101
神奈川県,相模原市,175,南区相模大野９丁目１４番１号新町中学校南側,新町中学校南側,35.5251329,139.4375127
神奈川県,相模原市,176,南区相模大野７丁目３６番相模大野７丁目公園,相模大野７丁目公園,35.529314,139.4416087
神奈川県,相模原市,177,南区相模大野７丁目４０番４号上鶴間分署前,上鶴間分署前,35.528438,139.4428374
神奈川県,相模原市,178,南区上鶴間１丁目５番１号南大野小学校正門横,南大野小学校正門横,35.5280294,139.4442965
神奈川県,相模原市,181,南区上鶴間３丁目１２番深堀都市下水路前,深堀都市下水路前,35.5201517,139.447792
神奈川県,相模原市,182,南区上鶴間１丁目１９番きづき公園,きづき公園,35.5248268,139.4437063
神奈川県,相模原市,183,南区上鶴間２丁目１８番１号若葉きずき自治会館前,若葉きずき自治会館前,35.5240964,139.444654
神奈川県,相模原市,184,南区上鶴間３丁目１１番深堀都市下水路前,深堀都市下水路前,35.521041,139.4471565
神奈川県,相模原市,185,南区上鶴間３丁目１７番深堀公園北側,深堀公園北側,35.5201975,139.4491746
神奈川県,相模原市,186,南区上鶴間３丁目２１番深堀ポンプ場横,深堀ポンプ場横,35.5194614,139.4498869
神奈川県,相模原市,187,南区上鶴間３丁目２１番深堀中央公園南側,深堀中央公園南側,35.5187239,139.449846
神奈川県,相模原市,191,南区上鶴間本町７丁目８番１号鶴園小学校西側,鶴園小学校西側,35.5294876,139.4492122
神奈川県,相模原市,192,南区上鶴間本町９丁目３１番１号上鶴間高校西側,上鶴間高校西側,35.5251843,139.4555377
神奈川県,相模原市,193,南区上鶴間本町８丁目２２番上河内遊園地,上河内遊園地,35.5303045,139.4534532
神奈川県,相模原市,194,南区上鶴間本町８丁目４７番７号市川宅横,市川宅横,35.5266162,139.4532902
神奈川県,相模原市,195,南区上鶴間本町９丁目３番中和田ふれあい広場,中和田ふれあい広場,35.5259353,139.4520874
神奈川県,相模原市,196,南区上鶴間本町９丁目５１番４号中和田ポンプ場,中和田ポンプ場,35.521264,139.4540444
神奈川県,相模原市,197,南区上鶴間本町９丁目２６番上鶴間下河内公園,上鶴間下河内公園,35.5265784,139.4564928
神奈川県,相模原市,198,南区上鶴間本町９丁目３１番１号上鶴間高校東側,上鶴間高校東側,35.5251843,139.4555377
神奈川県,相模原市,201,南区上鶴間４丁目７番１号上鶴間小学校東側,上鶴間小学校東側,35.5201976,139.4449788
神奈川県,相模原市,202,南区上鶴間４丁目１４番１号上鶴間中学校東側,上鶴間中学校東側,35.5189122,139.4459651
神奈川県,相模原市,203,南区上鶴間４丁目１４番１号上鶴間中学校西側,上鶴間中学校西側,35.5189122,139.4459651
神奈川県,相模原市,204,南区上鶴間８丁目４番横浜水道道緑道（上鶴間8丁目4番地先）,横浜水道道緑道（上鶴間8丁目4番地先）,35.5172842,139.4431848
神奈川県,相模原市,205,南区上鶴間７丁目１４番横浜水道道緑道（上鶴間7丁目1４番地先）,横浜水道道緑道（上鶴間7丁目1４番地先）,35.5180892,139.4412785
神奈川県,相模原市,206,南区上鶴間７丁目９番林間白笹公園,林間白笹公園,35.5189349,139.4403614
神奈川県,相模原市,207,南区上鶴間７丁目８番東林間駅前公園,東林間駅前公園,35.5205955,139.4396115
神奈川県,相模原市,208,南区上鶴間８丁目１０番相模緑道緑地（上鶴間8丁目10番地先）,相模緑道緑地（上鶴間8丁目10番地先）,35.5166567,139.443582
神奈川県,相模原市,211,南区上鶴間５丁目７番１号くぬぎ台小学校北側,くぬぎ台小学校北側,35.5221281,139.4421788
神奈川県,相模原市,212,南区上鶴間５丁目７番１号くぬぎ台小学校西側,くぬぎ台小学校西側,35.5221281,139.4421788
神奈川県,相模原市,213,南区上鶴間５丁目７番１号くぬぎ台小学校東側,くぬぎ台小学校東側,35.5221281,139.4421788
神奈川県,相模原市,214,南区上鶴間５丁目６番東林間公園東側,東林間公園東側,35.52264,139.444161
神奈川県,相模原市,215,南区上鶴間６丁目６番東林間シニアクラブ前,東林間シニアクラブ前,35.5236656,139.4428902
神奈川県,相模原市,216,南区上鶴間５丁目６番東林間公園南側,東林間公園南側,35.52264,139.444161
神奈川県,相模原市,217,南区上鶴間７丁目３番東林間さくら公園,東林間さくら公園,35.5210605,139.4418805
神奈川県,相模原市,221,南区東林間１丁目５番松蔭公園南側,松蔭公園南側,35.5244436,139.4363368
神奈川県,相模原市,222,南区東林間１丁目５番松蔭公園北側,松蔭公園北側,35.5244436,139.4363368
神奈川県,相模原市,223,南区東林間１丁目２２番林間公園東側,林間公園東側,35.5240298,139.431079
神奈川県,相模原市,224,南区東林間１丁目２２番林間公園南側,林間公園南側,35.5240298,139.431079
神奈川県,相模原市,225,南区東林間１丁目２２番林間公園北側,林間公園北側,35.5240298,139.431079
神奈川県,相模原市,226,南区東林間４丁目２４番ふれあいの森東側,ふれあいの森東側,35.5210808,139.4341737
神奈川県,相模原市,227,南区東林間４丁目３２番１号東林間児童館東側,東林間児童館東側,35.5199457,139.4354767
神奈川県,相模原市,228,南区東林間５丁目７番横浜水道道緑道（三角公園内）,横浜水道道緑道（三角公園内）,35.5183704,139.4398488
神奈川県,相模原市,231,南区相南１丁目１０番１０号東林まちづくりセンター横,東林まちづくりセンター横,35.5170792,139.4343433
神奈川県,相模原市,232,南区東林間６丁目7番相模緑道緑地（東林間6丁目7番地先）,相模緑道緑地（東林間6丁目7番地先）,35.518073,139.4369895
神奈川県,相模原市,233,南区東林間７丁目２８番林間さくら遊園地前,林間さくら遊園地前,35.5151921,139.4373072
神奈川県,相模原市,234,南区東林間７丁目９番東林間七丁目公園前,東林間七丁目公園前,35.515508,139.4386949
神奈川県,相模原市,235,南区東林間８丁目１３番東林みなみ公園前,東林みなみ公園前,35.5135542,139.4400772
神奈川県,相模原市,236,南区東林間６丁目２番１３号相模緑道緑地（東林間6丁目2番地先）,相模緑道緑地（東林間6丁目2番地先）,35.5185907,139.4362618
神奈川県,相模原市,237,南区東林間６丁目８番相模緑道緑地（東林間6丁目8番地先）,相模緑道緑地（東林間6丁目8番地先）,35.5178111,139.4372278
神奈川県,相模原市,238,南区東林間６丁目１番横浜水道道緑道（東林間6丁目1番地先）,横浜水道道緑道（東林間6丁目1番地先）,35.5187604,139.4351032
神奈川県,相模原市,241,南区相南２丁目３番１号東林小学校北側,東林小学校北側,35.515959,139.432439
神奈川県,相模原市,242,南区相南２丁目３番１号東林小学校西側,東林小学校西側,35.515959,139.432439
神奈川県,相模原市,243,南区相南３丁目１８番１号相南ふれあい広場,相南ふれあい広場,35.5136919,139.4344428
神奈川県,相模原市,244,南区相南２丁目３番１号東林小学校南側,東林小学校南側,35.515959,139.432439
神奈川県,相模原市,245,南区相南３丁目４２番相模カンツリ－倶楽部北側,相模カンツリ－倶楽部北側,35.5105558,139.4345274
神奈川県,相模原市,246,南区相南３丁目４２番相模カンツリ－倶楽部北側,相模カンツリ－倶楽部北側,35.5105558,139.4345274
神奈川県,相模原市,247,南区相南３丁目４２番相模カンツリ－倶楽部北側,相模カンツリ－倶楽部北側,35.5105558,139.4345274
神奈川県,相模原市,251,南区東林間２丁目１１番林間第２公園,林間第２公園,35.5208897,139.4282174
神奈川県,相模原市,252,南区東林間２丁目１４番横浜水道道緑道（東林間2丁目14番地先）,横浜水道道緑道（東林間2丁目14番地先）,35.5202987,139.4299213
神奈川県,相模原市,253,南区東林間３丁目１５番横浜水道道緑道（東林間3丁目15番地先）,横浜水道道緑道（東林間3丁目15番地先）,35.5198541,139.430239
神奈川県,相模原市,254,南区東林間３丁目１３番林間第３公園,林間第３公園,35.5190595,139.4299859
神奈川県,相模原市,255,南区東林間４丁目４０番横浜水道道緑道（東林間4丁目40番地先）,横浜水道道緑道（東林間4丁目40番地先）,35.5195786,139.4330979
神奈川県,相模原市,256,南区東林間４丁目４１番林間第４公園,林間第４公園,35.5197526,139.4334727
神奈川県,相模原市,257,南区相南１丁目１３番１７号東林保育園前,東林保育園前,35.516887,139.432373
神奈川県,相模原市,261,南区松が枝町４番緑地,緑地,35.5176789,139.4276978
神奈川県,相模原市,262,南区松が枝町１１番松が枝公園北側,松が枝公園北側,35.5173335,139.4251027
神奈川県,相模原市,263,南区相南１丁目２４番コンフォールさがみ南集会所前,コンフォールさがみ南集会所前,35.514055,139.427873
神奈川県,相模原市,264,南区相南１丁目２４番コンフォールさがみ南７号棟前,コンフォールさがみ南７号棟前,35.5152067,139.4296434
神奈川県,相模原市,265,南区相南１丁目２４番さがみ南公園前,さがみ南公園前,35.5145121,139.4295421
神奈川県,相模原市,266,南区相南４丁目３番２６号小田急相模原駅南口自転車駐車場,小田急相模原駅南口自転車駐車場,35.514471,139.424846
神奈川県,相模原市,267,南区相南３丁目３３番１号東海大学附属相模高校北側,東海大学附属相模高校北側,35.5110191,139.4292417
神奈川県,相模原市,268,南区相南３丁目３３番１号東海大学附属相模高校東側,東海大学附属相模高校東側,35.5110191,139.4292417
神奈川県,相模原市,271,南区下溝５９４番地６麻溝まちづくりセンター前,麻溝まちづくりセンター前,35.531916,139.3765809
神奈川県,相模原市,272,南区当麻１１０２番地９横浜水道道緑道（当麻1102番地先）,横浜水道道緑道（当麻1102番地先）,35.534532,139.375517
神奈川県,相模原市,273,南区当麻１２９７番地３原当麻駅西口無料自転車駐車場,原当麻駅西口無料自転車駐車場,35.5287335,139.3753568
神奈川県,相模原市,274,南区当麻１１２３番地１薊ケ谷公園,薊ケ谷公園,35.5276566,139.3678533
神奈川県,相模原市,275,南区下溝２５６８番地下溝袋澤雨水調整池,下溝袋澤雨水調整池,35.5414835,139.3775377
神奈川県,相模原市,276,南区下溝５０２番地中丸第２雨水調整池前,中丸第２雨水調整池前,35.5281284,139.382627
神奈川県,相模原市,277,南区下溝３３３番地６上中丸第３雨水調整池前,上中丸第３雨水調整池前,35.5330155,139.3799598
神奈川県,相模原市,278,南区当麻１２８８番地1原当麻駅東側緑地帯,原当麻駅東側緑地帯,35.529185,139.3743989
神奈川県,相模原市,281,南区当麻４９０番地２夢の丘小学校東側,夢の丘小学校東側,35.5326001,139.3670119
神奈川県,相模原市,282,南区当麻８１４番地相模原支援学校正門横,相模原支援学校正門横,35.5276566,139.3678533
神奈川県,相模原市,283,南区当麻１３５７番地１麻溝保育園西側,麻溝保育園西側,35.5267485,139.3733692
神奈川県,相模原市,284,南区下溝１１００番地八景棚公園,八景棚公園,35.5281284,139.382627
神奈川県,相模原市,285,南区下溝１４７７番地下溝八幡宮横児童公園前,下溝八幡宮横児童公園前,35.5201511,139.3832896
神奈川県,相模原市,286,南区下溝７１３番地麻溝小学校西側,麻溝小学校西側,35.5281284,139.382627
神奈川県,相模原市,287,南区当麻８７９番地九坊院第１雨水調整池北側,九坊院第１雨水調整池北側,35.5276566,139.3678533
神奈川県,相模原市,288,南区当麻８４０番地当麻東原公園,当麻東原公園,35.5272043,139.3705921
神奈川県,相模原市,289,南区下溝７１３番地麻溝小学校正門横,麻溝小学校正門横,35.5281284,139.382627
神奈川県,相模原市,291,南区磯部９１６番地３新磯まちづくりセンター前,新磯まちづくりセンター前,35.5020417,139.3849425
神奈川県,相模原市,292,南区新戸２２６８番地１新磯ふれあいセンター前花壇,新磯ふれあいセンター前花壇,35.5000075,139.3851591
神奈川県,相模原市,293,南区新戸３０２５番地３梅沢宅裏道路フェンス,梅沢宅裏道路フェンス,35.4951093,139.3780083
神奈川県,相模原市,294,南区新戸２１９０番地１新戸河原バス停横（新戸2190番地先）,新戸河原バス停横（新戸2190番地先）,35.49639,139.3857
神奈川県,相模原市,295,南区新戸１８８２番地３２釣瓶下公園,釣瓶下公園,35.4940007,139.3880719
神奈川県,相模原市,296,南区新戸２６０７番地２旧新磯高校南側(さがみロボット産業特区プレ実証フィールド,旧新磯高校南側(さがみロボット産業特区プレ実証フィールド,35.5001769,139.3902723
神奈川県,相模原市,297,南区新戸３０１８番地７新戸第２雨水調整池前,新戸第２雨水調整池前,35.4954705,139.3916322
神奈川県,相模原市,301,南区磯部１５４０番地相陽中学校西側,相陽中学校西側,35.5149905,139.385692
神奈川県,相模原市,302,南区磯部１３３７番地野口宅向側,野口宅向側,35.5090764,139.3822168
神奈川県,相模原市,303,南区磯部１０２８番地５新磯小学校体育館横,新磯小学校体育館横,35.503311,139.3843869
神奈川県,相模原市,304,南区磯部１１４７番地１７根岸台公園西側,根岸台公園西側,35.5030564,139.3872665
神奈川県,相模原市,305,南区磯部４８６３番地勝坂歴史公園,勝坂歴史公園,35.5139785,139.3918547
神奈川県,相模原市,306,南区磯部１９６０番地２大久保宅横駐車場,大久保宅横駐車場,35.5105084,139.3853449
神奈川県,相模原市,307,南区磯部１３７６番地畑前歩道フェンス,畑前歩道フェンス,35.5105084,139.3853449
神奈川県,相模原市,308,南区磯部１０２８番地５新磯小学校正門横,新磯小学校正門横,35.503311,139.3843869
神奈川県,相模原市,311,南区北里１丁目８番三ノ原公園,三ノ原公園,35.5420826,139.3915517
神奈川県,相模原市,312,南区北里２丁目１１番１号麻溝台高校正門横,麻溝台高校正門横,35.5380989,139.398946
神奈川県,相模原市,313,南区麻溝台２丁目４番１８号さがみ緑風園東側,さがみ緑風園東側,35.5341663,139.4044749
神奈川県,相模原市,314,南区麻溝台２２８４番地１総合体育館駐車場西側,総合体育館駐車場西側,35.5291021,139.3934151
神奈川県,相模原市,315,南区麻溝台３丁目５番１５号(旧)南部粗大ごみ受入施設,(旧)南部粗大ごみ受入施設,35.5363907,139.4072478
神奈川県,相模原市,316,南区下溝３０４２番地２下溝防災消防訓練場,下溝防災消防訓練場,35.5399001,139.3874093
神奈川県,相模原市,317,南区麻溝台１丁目１３番２号バンテック前,バンテック前,35.5300526,139.3962487
神奈川県,相模原市,321,南区麻溝台８丁目６番横浜水道道緑道（麻溝台8丁目6番地先）,横浜水道道緑道（麻溝台8丁目6番地先）,35.5251559,139.4042074
神奈川県,相模原市,322,南区麻溝台４丁目１２番１号麻溝台中学校南側,麻溝台中学校南側,35.5316362,139.4086474
神奈川県,相模原市,323,南区麻溝台６丁目２３番３号麻溝台自治会館前,麻溝台自治会館前,35.5264947,139.4040551
神奈川県,相模原市,324,南区麻溝台５丁目１５番ホソヤファーム前,ホソヤファーム前,35.5259856,139.4088104
神奈川県,相模原市,325,南区麻溝台４丁目１２番１号麻溝台中学校北側,麻溝台中学校北側,35.5316362,139.4086474
神奈川県,相模原市,326,南区麻溝台８丁目２０番麻溝台公園,麻溝台公園,35.5242208,139.4001137
神奈川県,相模原市,327,南区麻溝台６丁目２５番３５号麻溝台保育園南側,麻溝台保育園南側,35.5262096,139.4042178
神奈川県,相模原市,328,南区麻溝台６丁目２６番横浜水道道緑道（麻溝台6丁目26番地先）,横浜水道道緑道（麻溝台6丁目26番地先）,35.5254968,139.4064991
神奈川県,相模原市,331,南区双葉２丁目１６番横浜水道道緑道（双葉2丁目16番地先）,横浜水道道緑道（双葉2丁目16番地先）,35.5246038,139.4080074
神奈川県,相模原市,332,南区新磯野２３２９番地若草小学校北側,若草小学校北側,35.5210255,139.399945
神奈川県,相模原市,333,南区双葉２丁目１０番横浜水道道緑道（双葉2丁目10番地先）,横浜水道道緑道（双葉2丁目10番地先）,35.5251185,139.4092775
神奈川県,相模原市,334,南区相模台７丁目７番１号桜台小学校正門横,桜台小学校正門横,35.523872,139.407341
神奈川県,相模原市,335,南区相模台７丁目７番１号桜台小学校西側,桜台小学校西側,35.5227114,139.4078852
神奈川県,相模原市,336,南区双葉２丁目４番横浜水道道緑道（双葉2丁目4番地先）,横浜水道道緑道（双葉2丁目4番地先）,35.5247152,139.4118179
神奈川県,相模原市,337,南区双葉１丁目２番１５号双葉小学校東側,双葉小学校東側,35.527167,139.412012
神奈川県,相模原市,342,南区桜台２１番相模台公園南側,相模台公園南側,35.5194494,139.4079196
神奈川県,相模原市,343,南区相模台団地６番相模台団地６－８号棟横,相模台団地６－８号棟横,35.5173034,139.4094363
神奈川県,相模原市,344,南区相模台団地４番相模台団地４－４号棟横,相模台団地４－４号棟横,35.5185694,139.4115004
神奈川県,相模原市,345,南区相模台団地５番相模台団地５－３号棟前,相模台団地５－３号棟前,35.517739,139.4108653
神奈川県,相模原市,346,南区桜台２０番１号相模台中学校西側,相模台中学校西側,35.521392,139.4076601
神奈川県,相模原市,347,南区相模台６丁目２０番若草公園,若草公園,35.5172428,139.4060166
神奈川県,相模原市,348,南区新磯野２０４６番地若草中学校南側,若草中学校南側,35.517515,139.40302
神奈川県,相模原市,351,南区相模台３丁目５番２３号さがみの仲よし小道（相模台3丁目5番地先）,さがみの仲よし小道（相模台3丁目5番地先）,35.5135908,139.4150739
神奈川県,相模原市,352,南区相模台３丁目２番１６号さがみの仲よし小道（相模台3丁目2番地先）,さがみの仲よし小道（相模台3丁目2番地先）,35.5130285,139.4157279
神奈川県,相模原市,353,南区相模台３丁目３番４号さがみの仲よし小道（相模台3丁目3番地先）,さがみの仲よし小道（相模台3丁目3番地先）,35.5120958,139.416631
神奈川県,相模原市,354,南区相模台４丁目１番２７号さがみの仲よし小道（相模台4丁目1番地先）,さがみの仲よし小道（相模台4丁目1番地先）,35.515497,139.4108888
神奈川県,相模原市,355,南区相模台４丁目６番２８号さがみの仲よし小道（相模台4丁目6番地先）,さがみの仲よし小道（相模台4丁目6番地先）,35.515497,139.4108888
神奈川県,相模原市,356,南区相模台４丁目１４番相模台４丁目公園前,相模台４丁目公園前,35.515497,139.4108888
神奈川県,相模原市,357,南区相模台４丁目６番１１号さがみの仲よし小道（相模台4丁目6番地先）,さがみの仲よし小道（相模台4丁目6番地先）,35.515497,139.4108888
神奈川県,相模原市,361,南区桜台１８番１号（独）国立病院機構相模原病院南側,（独）国立病院機構相模原病院南側,35.520731,139.410716
神奈川県,相模原市,362,南区南台６丁目５番１号相模台小学校南側,相模台小学校南側,35.5219972,139.4132749
神奈川県,相模原市,363,南区南台６丁目５番１号相模台小学校西側,相模台小学校西側,35.5219972,139.4132749
神奈川県,相模原市,364,南区桜台１３番１号神奈川障害者職業能力開発校南側,神奈川障害者職業能力開発校南側,35.5221615,139.4101508
神奈川県,相模原市,365,南区御園５丁目１４番御園第２雨水調整池,御園第２雨水調整池,35.5242621,139.413882
神奈川県,相模原市,366,南区桜台１８番１号（独）国立病院機構相模原病院東側,（独）国立病院機構相模原病院東側,35.520731,139.410716
神奈川県,相模原市,367,南区御園５丁目６番御園ふれあい広場,御園ふれあい広場,35.5265441,139.4162702
神奈川県,相模原市,371,南区相模台１丁目１６番相模台ふれあい広場北側,相模台ふれあい広場北側,35.5173372,139.4140405
神奈川県,相模原市,372,南区相模台１丁目１１番相模台まちづくりセンター第２駐車場　北側,相模台まちづくりセンター第２駐車場　北側,35.5181648,139.4154314
神奈川県,相模原市,373,南区相模台１丁目１３番５号相模台まちづくりセンター裏,相模台まちづくりセンター裏,35.5181648,139.4154314
神奈川県,相模原市,374,南区相模台１丁目１１番相模台まちづくりセンター第２駐車場　南側,相模台まちづくりセンター第２駐車場　南側,35.5181648,139.4154314
神奈川県,相模原市,375,南区相模台１丁目１６番相模台ふれあい広場南側,相模台ふれあい広場南側,35.5173372,139.4140405
神奈川県,相模原市,376,南区相模台２丁目３０番月極駐車場,月極駐車場,35.5139599,139.4157279
神奈川県,相模原市,377,南区相模台２丁目９番４号豊泉幼稚園,豊泉幼稚園,35.517231,139.416416
神奈川県,相模原市,378,南区相模台１丁目１１番相模台まちづくりセンター第２駐車場　西側,相模台まちづくりセンター第２駐車場　西側,35.5181648,139.4154314
神奈川県,相模原市,381,南区南台２丁目１番南台とんがり公園,南台とんがり公園,35.5234877,139.4265573
神奈川県,相模原市,382,南区南台２丁目８番鶴の台公園南側,鶴の台公園南側,35.5222927,139.4283871
神奈川県,相模原市,383,南区南台３丁目１番横浜水道道緑道（南台3丁目1番地先）,横浜水道道緑道（南台3丁目1番地先）,35.521409,139.4249129
神奈川県,相模原市,384,南区南台１丁目９番横浜水道道緑道（南台1丁目9番地先）,横浜水道道緑道（南台1丁目9番地先）,35.5220167,139.4233118
神奈川県,相模原市,385,南区南台４丁目１１番南台公園前,南台公園前,35.5207042,139.4235234
神奈川県,相模原市,386,南区南台５丁目２番鶴ヶ丘団地４号棟前,鶴ヶ丘団地４号棟前,35.5189498,139.4203938
神奈川県,相模原市,387,南区南台５丁目２番鶴ヶ丘団地第１公園前,鶴ヶ丘団地第１公園前,35.5188974,139.4204247
神奈川県,相模原市,388,南区南台５丁目２番鶴ヶ丘団地８号棟前,鶴ヶ丘団地８号棟前,35.5186525,139.4206586
神奈川県,相模原市,391,南区相武台団地１丁目６番相武台団地1604号棟前,相武台団地1604号棟前,35.5133589,139.4084851
神奈川県,相模原市,392,南区新磯野２丁目４１番１６号もえぎ台小学校南側,もえぎ台小学校南側,35.5131051,139.4041866
神奈川県,相模原市,393,南区新磯野５丁目１番１０号相武台中学校北側,相武台中学校北側,35.5115519,139.4003432
神奈川県,相模原市,394,南区新磯野５丁目１番１０号相武台中学校東側,相武台中学校東側,35.5115519,139.4003432
神奈川県,相模原市,395,南区相武台団地２丁目１番相武台団地中央公園,相武台団地中央公園,35.5115158,139.4092142
神奈川県,相模原市,396,南区新磯野２丁目４１番１６号もえぎ台小学校西側,もえぎ台小学校西側,35.5131051,139.4041866
神奈川県,相模原市,397,南区相武台団地２丁目７番相武台団地2704号棟横自転車置場前,相武台団地2704号棟横自転車置場前,35.5116791,139.4074347
神奈川県,相模原市,401,南区相武台３丁目３番相武台第３雨水調整池前,相武台第３雨水調整池前,35.5081084,139.4107289
神奈川県,相模原市,402,南区相武台団地１丁目５番相武台団地1502号棟横駐車場前,相武台団地1502号棟横駐車場前,35.5120267,139.4110896
神奈川県,相模原市,403,南区相武台団地２丁目６番相武台団地2602号棟横,相武台団地2602号棟横,35.5103163,139.4083233
神奈川県,相模原市,404,南区相武台団地２丁目３番７号相武台団地連合自治会館横,相武台団地連合自治会館横,35.5096875,139.4103539
神奈川県,相模原市,405,南区相武台団地２丁目３番相武台団地南公園,相武台団地南公園,35.5094793,139.4122688
神奈川県,相模原市,406,南区相武台団地２丁目５番１号相武台小学校北側,相武台小学校北側,35.5086299,139.4088707
神奈川県,相模原市,407,南区相武台団地２丁目５番１号相武台小学校西側,相武台小学校西側,35.5086299,139.4088707
神奈川県,相模原市,411,南区新磯野４丁目４番相武台グリーンパーク４－６号棟前,相武台グリーンパーク４－６号棟前,35.5095141,139.4043559
神奈川県,相模原市,412,南区新磯野４丁目１番１号相模原看護専門学校東側,相模原看護専門学校東側,35.510492,139.4040893
神奈川県,相模原市,413,南区新磯野４丁目２番新磯野西公園南側,新磯野西公園南側,35.5095811,139.4015964
神奈川県,相模原市,414,南区新磯野４丁目６番雨水調整池西側,雨水調整池西側,35.5069514,139.4040115
神奈川県,相模原市,415,南区新磯野４丁目１番１号旧磯野台小学校留保地北側,旧磯野台小学校留保地北側,35.5100637,139.4034922
神奈川県,相模原市,416,南区新磯野５丁目１１番新磯野南公園,新磯野南公園,35.5108818,139.4018093
神奈川県,相模原市,417,南区新磯野４丁目１番１号旧磯野台小学校留保地西側,旧磯野台小学校留保地西側,35.5100637,139.4034922
神奈川県,相模原市,421,南区新磯野３丁目１０番２３号緑台小学校西側,緑台小学校西側,35.5064649,139.4045312
神奈川県,相模原市,422,南区相武台１丁目１８番相武台駅前公園,相武台駅前公園,35.5004083,139.4073246
神奈川県,相模原市,423,南区相武台１丁目２番相武台１丁目公園,相武台１丁目公園,35.5030092,139.4082775
神奈川県,相模原市,424,南区新磯野３丁目１０番緑台小学校南側,緑台小学校南側,35.5064649,139.4045312
神奈川県,相模原市,425,南区新磯野３丁目１０番緑台小学校東側,緑台小学校東側,35.5064649,139.4045312
神奈川県,相模原市,426,南区相武台１丁目１番相武台第５雨水調整池前,相武台第５雨水調整池前,35.503243,139.4064495
神奈川県,相模原市,427,南区相武台２丁目２０番１７号相武台前駅北口自転車駐車場,相武台前駅北口自転車駐車場,35.5000671,139.4050207
神奈川県,相模原市,428,南区相武台３丁目２３番武台サンハイム23－2号棟前,武台サンハイム23－2号棟前,35.5039365,139.408026
