prefecture,city,number,address,name,lat,long,note
神奈川県,鎌倉市,1-1,十二所114番地,masked,35.3218603,139.5800409,緯度経度は怪しい
神奈川県,鎌倉市,1-2,十二所98番地1,masked,35.31989130000001,139.5799112,
神奈川県,鎌倉市,1-3,浄明寺六丁目2番,浄明寺六丁目7番9号脇緑地,35.3164438,139.5765431,
神奈川県,鎌倉市,1-4,十二所967番地,十二所公園フェンス,35.3163116,139.5780032,
神奈川県,鎌倉市,1-5,浄明寺六丁目18番,（仮称）浄明寺緑地前（浄明寺六丁目16番付近）,35.3136922,139.568264,
神奈川県,鎌倉市,1-6,浄明寺六丁目2番,（仮称）浄明寺緑地前[ハイランド坂下バス停前緑地],35.3164438,139.5765431,
神奈川県,鎌倉市,1-7,十二所943番地1,二ツ橋児童遊園フェンス,35.31944,139.5771361,
神奈川県,鎌倉市,2-1,二階堂792番地4,資材置場塀,35.3254193,139.5689307,
神奈川県,鎌倉市,2-2,二階堂878番地,第二小学校フェンス,35.3236629,139.5655039,
神奈川県,鎌倉市,2-3,二階堂878番地,第二小学校体育館前植込み,35.3236629,139.5655039,
神奈川県,鎌倉市,2-4,二階堂115番地,masked,35.3254728,139.5668441,
神奈川県,鎌倉市,2-5,二階堂321番地1,大塔宮バス停付近横断防止柵,35.3297193,139.5712889,緯度経度は怪しい
神奈川県,鎌倉市,2-6,浄明寺二丁目572-3地内,犬懸橋南滑川転落防止柵,35.3180229,139.5693784,
神奈川県,鎌倉市,2-7,二階堂257番地5,二階堂2号緑地,35.3305939,139.5676073,緯度経度は怪しい
神奈川県,鎌倉市,3-1,西御門一丁目8番,国大附属中西御門運動場前植込み,35.3276198,139.5599861,
神奈川県,鎌倉市,3-2,雪ノ下三丁目11番45号,清泉小学校北側倉庫前フェンス,35.3248514,139.561502,
神奈川県,鎌倉市,3-3,雪ノ下三丁目5番10号,masked,35.3243984,139.5581486,
神奈川県,鎌倉市,3-4,雪ノ下三丁目5番10号,国大附属小学校フェンス,35.3243984,139.5581486,
神奈川県,鎌倉市,3-5,雪ノ下三丁目5番10号,国大附属小学校石垣,35.3243984,139.5581486,
神奈川県,鎌倉市,3-6,雪ノ下二丁目2番12号,川喜多映画記念館,35.3242756,139.5524631,
神奈川県,鎌倉市,3-7,雪ノ下三丁目10番3号,清泉小学校ラファエラ広場フェンス,35.3236486,139.5612396,
神奈川県,鎌倉市,4-1,小町二丁目14番4号,カトリック雪ノ下教会フェンス,35.3206231,139.5536104,
神奈川県,鎌倉市,4-2,小町一丁目8番4号,小町サイクルパークフェンス,35.3192137,139.5525028,
神奈川県,鎌倉市,4-3,小町二丁目4番,JR柵,35.3222063,139.5509931,
神奈川県,鎌倉市,4-4,小町一丁目10番3号,鎌倉郵便局南側フェンス,35.3181385,139.5519458,
神奈川県,鎌倉市,4-5,小町二丁目23番12号,masked,35.3191524,139.5541159,
神奈川県,鎌倉市,4-6,小町一丁目12番7号,本覚寺塀,35.3174426,139.5531056,
神奈川県,鎌倉市,4-7,小町一丁目13番,本覚寺駐車場前転落防止柵,35.3173902,139.5517093,
神奈川県,鎌倉市,5-1,大町四丁目4-18,安国論寺横転落防止柵,35.3117158,139.5585578,
神奈川県,鎌倉市,5-2,大町二丁目5番,JRフェンス,35.3126943,139.5536192,
神奈川県,鎌倉市,5-3,大町五丁目14番6号,大町ふれあい広場フェンス,35.3101123,139.5613004,
神奈川県,鎌倉市,5-4,大町三丁目1番22号,安養院石垣,35.3141785,139.5552939,
神奈川県,鎌倉市,5-5,大町四丁目8番,逆川転落防止柵,35.3138478,139.5593493,
神奈川県,鎌倉市,5-6,大町三丁目19番,花咲橋転落防止柵,35.3148577,139.5619957,
神奈川県,鎌倉市,5-7,大町五丁目11番16号,名越クリーンセンターフェンス,35.3079732,139.5613636,
神奈川県,鎌倉市,6-1,材木座三丁目17番18号,masked,35.3076428,139.5523658,
神奈川県,鎌倉市,6-2,材木座五丁目13番14号,九品寺堺,35.3071189,139.5520202,
神奈川県,鎌倉市,6-3,材木座四丁目7番,材木座たぶのき公園,35.3066232,139.5542558,
神奈川県,鎌倉市,6-4,材木座六丁目13番29号,masked,35.3045741,139.5533063,
神奈川県,鎌倉市,6-5,材木座六丁目886番5,県営材木座駐車場,35.3035076,139.5547333,
神奈川県,鎌倉市,6-6,材木座六丁目15番,鎌倉ウィンドサーフスクール植込み,35.3026358,139.5527438,
神奈川県,鎌倉市,6-7,材木座六丁目7番7号,伊藤工務店ブロック堺,35.3059379,139.5537585,
神奈川県,鎌倉市,7-1,材木座三丁目5番8号,休日夜間急患診療所フェンス,35.3104364,139.5486717,
神奈川県,鎌倉市,7-2,材木座三丁目3番7号,鎌倉いずみ幼稚園フェンス,35.3108768,139.5504767,
神奈川県,鎌倉市,7-3,材木座一丁目1番,JRフェンス,35.3152808,139.5507543,
神奈川県,鎌倉市,7-4,材木座三丁目5番35号,材木座ポンプ場フェンス,35.3106391,139.5484951,
神奈川県,鎌倉市,7-5,材木座三丁目15番13号,向福寺,35.3094142,139.5524082,
神奈川県,鎌倉市,7-6,材木座三丁目9番23号,masked,35.3090369,139.550076,
神奈川県,鎌倉市,7-7,材木座五丁目1番7号,第二相羽荘堺,35.310101,139.5476747,
神奈川県,鎌倉市,8-1,扇ガ谷一丁目16番5号,英勝寺前JRフェンス,35.3247227,139.5501674,
神奈川県,鎌倉市,8-2,御成町18番10号,市役所東側フェンス,35.3196348,139.5463513,
神奈川県,鎌倉市,8-3,御成町12番18号,神奈川県企業庁鎌倉水道営業所,35.3196344,139.5492347,
神奈川県,鎌倉市,8-4,御成町20番21号,鎌倉市福祉センター植込み,35.3170594,139.5462249,
神奈川県,鎌倉市,8-5,御成町18番10号,市役所北側フェンス,35.3196348,139.5463513,
神奈川県,鎌倉市,8-6,佐助一丁目5番,鎌倉児童ホーム駐車場フェンス,35.3192061,139.5440702,
神奈川県,鎌倉市,8-7,佐助一丁目6番6号,鎌倉児童ホーム植込み,35.3196137,139.5449008,
神奈川県,鎌倉市,8-8,笹目町5番36号,masked,35.3149437,139.5436208,
神奈川県,鎌倉市,9-1,由比ガ浜二丁目1番15号,京浜急行鎌倉営業所車庫堺,35.3151217,139.5500512,
神奈川県,鎌倉市,9-2,由比ガ浜二丁目13番,若宮大路公園,35.3123402,139.5491628,
神奈川県,鎌倉市,9-3,由比ガ浜四丁目4番30号,特養鎌倉静養館堺,35.3103743,139.5444326,
神奈川県,鎌倉市,9-4,由比ガ浜三丁目9番12号,由比ガ浜はぜ公園堺,35.3133939,139.5426101,
神奈川県,鎌倉市,9-5,由比ガ浜四丁目9番,鎌倉海浜公園フェンス,35.3105461,139.5418423,
神奈川県,鎌倉市,9-6,由比ガ浜二丁目9番9号,鎌倉体育館フェンス,35.3141735,139.5486961,
神奈川県,鎌倉市,9-7,由比ガ浜四丁目9番,鎌倉海浜公園フェンス,35.3105461,139.5418423,
神奈川県,鎌倉市,10-1,長谷三丁目1番21号,駐車場ブロック堺,35.3152853,139.5346819,
神奈川県,鎌倉市,10-2,長谷二丁目22番31号,B.Bハウス堺,35.3100174,139.5362801,
神奈川県,鎌倉市,10-3,長谷四丁目2番27号,長谷四丁目2番27号付近転落防止柵及びガードレール,35.31564729999999,139.5355371,
神奈川県,鎌倉市,10-4,長谷五丁目311番地3,大仏大谷戸側石垣前,35.3195375,139.5388189,
神奈川県,鎌倉市,10-5,長谷二丁目115-5番先,稲瀬川新宿橋付近転落防止柵,35.3109744,139.5375459,
神奈川県,鎌倉市,10-6,長谷一丁目11番,長谷つくし公園フェンス,35.3136903,139.5378642,
神奈川県,鎌倉市,10-7,由比ガ浜三丁目11番,由比ガ浜たい公園フェンス,35.3132454,139.5410467,
神奈川県,鎌倉市,11-1,極楽寺二丁目10番,稲村ヶ崎小学校体育館前フェンス,35.31194139999999,139.5281587,
神奈川県,鎌倉市,11-2,坂ノ下18付近,極楽寺切通付近法下,35.3097087,139.5326135,
神奈川県,鎌倉市,11-3,坂ノ下31番5号,きしろホームフェンス,35.3066073,139.5322382,
神奈川県,鎌倉市,11-4,極楽寺三丁目7番,極楽寺駅駐輪所脇歩道フェンス,35.3097494,139.529578,
神奈川県,鎌倉市,11-5,極楽寺二丁目10番,稲村ヶ崎小学校正門向側フェンス,35.31194139999999,139.5281587,
神奈川県,鎌倉市,11-6,極楽寺三丁目7番,江ノ電所有地堺,35.3097494,139.529578,
神奈川県,鎌倉市,11-7,極楽寺三丁目11番,江ノ電フェンス,35.3072843,139.5271246,
神奈川県,鎌倉市,12-1,稲村ガ崎一丁目13番22号,masked,35.3041648,139.5236051,
神奈川県,鎌倉市,12-2,稲村ガ崎三丁目13番53号,鎌倉静養館堺,35.3042394,139.5186412,
神奈川県,鎌倉市,12-3,稲村ガ崎二丁目8番1号,江ノ電稲村ケ崎駅,35.3042928,139.5222141,
神奈川県,鎌倉市,12-4,稲村ガ崎二丁目6番,稲村ガ崎二丁目共同墓地堺,35.3035102,139.5220339,
神奈川県,鎌倉市,12-5,稲村ガ崎五丁目16番6号,masked,35.3089977,139.5213588,
神奈川県,鎌倉市,12-6,稲村ガ崎五丁目39番,正福寺公園フェンス,35.3128956,139.523386,
神奈川県,鎌倉市,12-7,稲村ガ崎一丁目15番32号,極楽寺ポンプ場フェンス,35.3034274,139.52397,
神奈川県,鎌倉市,13-1,七里ガ浜東二丁目35番,七里ガ浜東二丁目公園石垣,35.3094689,139.5141601,
神奈川県,鎌倉市,13-2,七里ガ浜東二丁目8番,田辺公園フェンス,35.3068232,139.5116948,
神奈川県,鎌倉市,13-3,七里ガ浜東二丁目2番7号,七里ガ浜ポンプ場堺,35.3059172,139.5109636,
神奈川県,鎌倉市,13-4,七里ガ浜二丁目12番,七里ガ浜かめ公園フェンス,35.3084953,139.5069235,
神奈川県,鎌倉市,13-5,七里ガ浜二丁目2番,七里ガ浜かもめ公園フェンス,35.308114,139.508832,
神奈川県,鎌倉市,13-6,七里ガ浜二丁目4番,広町緑地,35.30901619999999,139.5087524,
神奈川県,鎌倉市,13-7,七里ガ浜二丁目21番,七里ガ浜二丁目公園フェンス,35.3084836,139.5035043,
神奈川県,鎌倉市,14-1,七里ガ浜東三丁目13番,七里ガ浜東三丁目公園石垣,35.3114783,139.5193296,
神奈川県,鎌倉市,14-2,七里ガ浜東四丁目1番,七里ガ浜東いろは公園石垣,35.3099186,139.516705,
神奈川県,鎌倉市,14-3,七里ガ浜東五丁目1番,七里ガ浜東五丁目公園フェンス,35.3112251,139.5135239,
神奈川県,鎌倉市,14-4,七里ガ浜東四丁目35番,七里ガ浜東つつじ公園植込み,35.3139676,139.5169436,
神奈川県,鎌倉市,14-5,七里ガ浜東四丁目34番,七里ガ浜東四丁目公園フェンス,35.3134965,139.5170232,
神奈川県,鎌倉市,14-6,七里ガ浜東五丁目8番,七里ガ浜東あざらし公園石垣,35.3127593,139.5144782,
神奈川県,鎌倉市,14-7,七里ガ浜東三丁目6番3号,masked,35.3083866,139.5187216,
神奈川県,鎌倉市,15-1,腰越一丁目10番,腰越ふぐ公園フェンス,35.3074728,139.4992108,
神奈川県,鎌倉市,15-2,腰越二丁目10番7号,浄泉寺堺,35.30732649999999,139.493516,
神奈川県,鎌倉市,15-3,腰越三丁目5番,腰越ちどり公園フェンス,35.3087717,139.4903066,
神奈川県,鎌倉市,15-4,腰越二丁目26番,神戸川転落防止柵,35.3094158,139.4947585,
神奈川県,鎌倉市,15-5,腰越五丁目7番1号,腰越小学校西側フェンス,35.3126797,139.4925822,
神奈川県,鎌倉市,15-6,腰越五丁目7番1号,腰越小学校フェンス,35.3126797,139.4925822,
神奈川県,鎌倉市,15-7,腰越五丁目6番5号,masked,35.31157450000001,139.4929073,
神奈川県,鎌倉市,16-1,腰越四丁目11番20号,腰越中学校正門脇フェンス,35.3128131,139.4980182,
神奈川県,鎌倉市,16-2,津460番地2,津2−2号緑地,35.3126737,139.5089115,緯度経度は怪しい
神奈川県,鎌倉市,16-3,津西一丁目12番,津西まつむし公園フェンス,35.3186863,139.5020731,
神奈川県,鎌倉市,16-4,腰越864番地,腰越行政センター植込み,35.3133521,139.5006819,緯度経度は怪しい
神奈川県,鎌倉市,16-5,津西一丁目9番,白山橋付近神戸川転落防止柵,35.3169305,139.5027092,
神奈川県,鎌倉市,16-6,津601番地86,丹後ガ谷やまばと公園脇転落防止柵,35.3136915,139.504691,
神奈川県,鎌倉市,16-7,津西二丁目16番,諏訪ヶ谷青少年広場,35.3159245,139.49611,
神奈川県,鎌倉市,16-8,腰越1677番地22,御所たぬき公園フェンス,35.31438139999999,139.505501,緯度経度は怪しい
神奈川県,鎌倉市,17-1,西鎌倉二丁目17番,西鎌倉二丁目公園フェンス,35.324916,139.5039814,
神奈川県,鎌倉市,17-2,西鎌倉三丁目10番,(有)中央地所管理駐車場,35.320577,139.5008804,
神奈川県,鎌倉市,17-3,西鎌倉二丁目13番2号,masked,35.3210965,139.501278,緯度経度は怪しい
神奈川県,鎌倉市,17-4,西鎌倉三丁目5番,西鎌倉三丁目公園フェンス北,35.3191537,139.4991312,
神奈川県,鎌倉市,17-5,西鎌倉四丁目17番地,腰越配水地フェンス,35.3204609,139.4973821,
神奈川県,鎌倉市,17-6,西鎌倉四丁目20番,西鎌倉すずめ公園フェンス,35.3172975,139.495951,
神奈川県,鎌倉市,17-7,西鎌倉一丁目16番,西鎌倉下水処理場上万年堺,35.3218445,139.5058103,
神奈川県,鎌倉市,18-1,腰越1330番地241,猫池住宅入口調整池フェンス,35.32127970000001,139.5088168,緯度経度は怪しい
神奈川県,鎌倉市,18-2,西鎌倉一丁目20番,モノレール西鎌倉駅フェンス,35.3194131,139.504383,
神奈川県,鎌倉市,18-3,津1037番地31,がんだがや南公園フェンス,35.3175772,139.5062259,
神奈川県,鎌倉市,18-4,腰越1525番地9,西鎌倉山南公園フェンス,35.3181865,139.5117042,緯度経度は怪しい
神奈川県,鎌倉市,18-5,津1069番地224,鎌倉山西公園フェンス,35.3241207,139.5066141,緯度経度は怪しい
神奈川県,鎌倉市,18-6,腰越1330番地付近,西鎌倉山づくいす公園フェンス,35.32127970000001,139.5088168,緯度経度は怪しい
神奈川県,鎌倉市,18-7,津1039番地30,津1号緑地(新鎌倉山バス停付近),35.3190865,139.5089733,
神奈川県,鎌倉市,19-1,鎌倉山三丁目614番地1,鎌倉山材料倉庫,35.3201538,139.5146373,
神奈川県,鎌倉市,19-2,鎌倉山四丁目8番,グランダ鎌倉山前歩道フェンス,35.324895,139.5132058,
神奈川県,鎌倉市,19-3,笛田二丁目38番20号,あおぞら園フェンス,35.3212851,139.5175138,
神奈川県,鎌倉市,19-4,鎌倉山三丁目22番,鎌倉山かりん公園フェンス,35.3192742,139.5135239,
神奈川県,鎌倉市,19-5,鎌倉山三丁目1番,鎌倉山石碑正面歩道フェンス,35.3166245,139.5147963,
神奈川県,鎌倉市,19-6,鎌倉山一丁目15番13号,鎌倉山集会所フェンス,35.3185112,139.5197682,
神奈川県,鎌倉市,19-7,鎌倉山一丁目6番29号,笛田公園入口横法地,35.3199335,139.521296,
神奈川県,鎌倉市,20-1,手広一丁目16番12号,鎌倉消防署深沢出張所フェンス,35.3277214,139.5095997,
神奈川県,鎌倉市,20-2,手広一丁目23番,谷際運動広場フェンス,35.3289641,139.51082,
神奈川県,鎌倉市,20-3,手広一丁目5番,手広なのはな公園フェンス,35.3302904,139.5116152,
神奈川県,鎌倉市,20-4,手広四丁目35番,西ガ谷わらび公園勧禁転落防止柵,35.3277867,139.5044187,
神奈川県,鎌倉市,20-5,手広一丁目16番12号,鎌倉消防署深沢出張所隣場,35.3277214,139.5095997,
神奈川県,鎌倉市,20-6,笛田一丁目2番23号,笛田ポール管理所フェンス,35.3303826,139.5131908,
神奈川県,鎌倉市,20-7,手広四丁目38番,西ガ谷あやめ公園フェンス,35.326618,139.5051741,
神奈川県,鎌倉市,21-1,笛田二丁目17番1号,教養センター植込み,35.3245337,139.516022,
神奈川県,鎌倉市,21-2,笛田三丁目1番33号,神奈川スバルフェンス,35.3299761,139.5179263,
神奈川県,鎌倉市,21-3,梶原630番地,深沢小学校入口交差点横フェンス,35.33306049999999,139.5164131,
神奈川県,鎌倉市,21-4,梶原一丁目11番1号,深沢小学校フェンス,35.3308878,139.5205455,
神奈川県,鎌倉市,21-5,常盤111番地3,深沢行政センターフェンス,35.3310744,139.5187517,
神奈川県,鎌倉市,21-6,笛田四丁目14番,上関公園フェンス,35.3257425,139.5215566,
神奈川県,鎌倉市,21-7,笛田四丁目4番,上関きりん公園フェンス,35.3273407,139.5226702,
神奈川県,鎌倉市,22-1,笛田五丁目32番,びわだ南公園柵,35.3199647,139.5250564,
神奈川県,鎌倉市,22-2,常盤937番地224,（仮称）常盤緑地[仲ノ坂交差点付近掲示板脇植込み],35.3217604,139.5313728,
神奈川県,鎌倉市,22-3,笛田五丁目38番30号,鎌倉ポンプ場フェンス,35.3206317,139.5276318,
神奈川県,鎌倉市,22-4,笛田五丁目10番,びわだ北公園フェンス,35.3214662,139.5252155,
神奈川県,鎌倉市,22-5,常盤947番地,常盤緑地前転落防止柵,35.3220469,139.5329952,
神奈川県,鎌倉市,22-6,常盤386番地,東京電力パワーグリッド鎌倉変電所フェンス,35.32317099999999,139.5292723,緯度経度は怪しい
神奈川県,鎌倉市,22-7,常盤922番地2,（仮称）常盤緑地[常盤922番地15付近掲示板脇植込み],35.3207971,139.5341198,
神奈川県,鎌倉市,23-1,梶原二丁目26番,梶原やまぼうし公園植込み,35.3283285,139.5281587,
神奈川県,鎌倉市,23-2,梶原四丁目2番8号,市営梶原東団地フェンス,35.3275482,139.5285504,
神奈川県,鎌倉市,23-3,梶原四丁目7番,梶原9号緑地(梶原バス停付近),35.3266888,139.5337272,
神奈川県,鎌倉市,23-4,梶原五丁目2番,ききょうやま公園植込み,35.3249775,139.5365079,緯度経度は怪しい
神奈川県,鎌倉市,23-5,梶原二丁目24番,みずの動物病院脇転落防止柵,35.3282857,139.5253746,
神奈川県,鎌倉市,23-6,梶原三丁目23番,日当公園植込み,35.3308985,139.5350796,
神奈川県,鎌倉市,23-7,梶原二丁目6番,（仮称）梶原4号緑地前[梶原二丁目6番付近],35.3313625,139.5278405,
神奈川県,鎌倉市,24-1,寺分字陣出８番地８の一部,深沢多目的スポーツ広場フェンス,35.3349197,139.5241814,緯度経度は怪しい
神奈川県,鎌倉市,24-2,上町屋550番地5,長島ふな公園フェンス,35.3398252,139.5160248,
神奈川県,鎌倉市,24-3,寺分三丁目15番,寺分こまどり公園フェンス,35.33165400000001,139.5241019,
神奈川県,鎌倉市,24-4,上町屋810番地1,富士塚小学校フェンス,35.33710689999999,139.5203532,
神奈川県,鎌倉市,24-5,寺分三丁目24番,大平山公園フェンス,35.3331184,139.5272041,
神奈川県,鎌倉市,24-6,上町屋325番地,三菱電機鎌倉製作所フェンス,35.3431347,139.5195615,
神奈川県,鎌倉市,24-7,寺分二丁目904番地7,富士塚公園除法地,35.3362631,139.5260905,
神奈川県,鎌倉市,25-1,山崎781番地,masked,35.3411017,139.525258,
神奈川県,鎌倉市,25-2,山崎2289番地44,山崎ひめしゃら公園フェンス,35.3399658,139.5310346,
神奈川県,鎌倉市,25-3,山崎1390番地56,山崎打越公園柵,35.3408351,139.5279644,
神奈川県,鎌倉市,25-4,山崎2500番地,山崎小学校フェンス,35.3386537,139.5336192,緯度経度は怪しい
神奈川県,鎌倉市,25-5,山崎1390番地55,山崎打越公園柵,35.3408351,139.5279644,
神奈川県,鎌倉市,25-6,山崎919番地,湘南町屋駅前歩道フェンス,35.3385341,139.522725,
神奈川県,鎌倉市,25-7,山崎1390番地,レーベンスガルテン集会所前植込み,35.3408351,139.5279644,
神奈川県,鎌倉市,26-1,山ノ内字東瓜ヶ谷1236番地 外,山ノ内東瓜ヶ谷緑地,35.3301852,139.5431725,緯度経度は怪しい
神奈川県,鎌倉市,26-2,山ノ内392番地,線路転落防止柵,35.3363442,139.5466718,
神奈川県,鎌倉市,26-3,山ノ内1492番地3,建長寺檀信徒駐車場フェンス,35.332819,139.5497254,
神奈川県,鎌倉市,26-4,山ノ内333番地,北鎌倉踏切横空地フェンス,35.3346258,139.5478173,
神奈川県,鎌倉市,26-5,山ノ内180番地10,山ノ内ポケットパーク,35.3342493,139.5486197,緯度経度は怪しい
神奈川県,鎌倉市,26-6,山ノ内1329番地,東瓜ガ谷子どもの遊び場フェンス,35.3370466,139.5434981,
神奈川県,鎌倉市,26-7,山ノ内634番地3,JRフェンス,35.3407249,139.5418622,
神奈川県,鎌倉市,27-1,台五丁目４番,台くすのき公園柵,35.3425789,139.5335681,
神奈川県,鎌倉市,27-2,台1481番地,島森書店所有地,35.3401341,139.5361071,
神奈川県,鎌倉市,27-3,台五丁目9番,台五丁目公園入口脇柵,35.3412072,139.5351592,
神奈川県,鎌倉市,27-4,台五丁目550番62,台すずき公園,35.3427866,139.5337272,
神奈川県,鎌倉市,27-5,台五丁目9番59号,文化財課分室フェンス 南側,35.3412274,139.5359274,
神奈川県,鎌倉市,27-6,台1882番地5,台やまもみじ公園柵,35.3410721,139.5397339,
神奈川県,鎌倉市,27-7,台五丁目9番59号,文化財課分室フェンス 北側,35.3412274,139.5359274,
神奈川県,鎌倉市,27-8,台1656番地,さくら青少年広場前フェンス,35.3397891,139.5348393,
神奈川県,鎌倉市,28-1,大船四丁目1番25号,大船中学校フェンス,35.3472857,139.5368673,
神奈川県,鎌倉市,28-2,小袋谷二丁目13番,成福寺前JRフェンス,35.3437004,139.5370686,
神奈川県,鎌倉市,28-3,大船四丁目4番,栄町公園植込み,35.34663,139.5383217,
神奈川県,鎌倉市,28-4,大船五丁目2番,大船ライラック公園フェンス,35.3481259,139.5391372,
神奈川県,鎌倉市,28-5,大船四丁目16番,大船中学校プール裏転落防止柵,35.3455445,139.5368299,
神奈川県,鎌倉市,28-6,小袋谷二丁目10番,小袋谷二丁目10番JRフェンス,35.3439777,139.5350796,
神奈川県,鎌倉市,28-7,大船五丁目15番,大船ほたる公園石垣,35.3482812,139.5425584,
神奈川県,鎌倉市,28-8,大船四丁目9番6号,大船4丁目9番転落防止柵,35.3457113,139.5388289,
神奈川県,鎌倉市,29-1,大船2135番地4,小坂小学校校門横フェンス,35.3435731,139.5414843,
神奈川県,鎌倉市,29-2,高野2番地2,大船高校入口転落防止柵,35.3433105,139.5464573,緯度経度は怪しい
神奈川県,鎌倉市,29-3,台1980番地3,高野台自治会館脇転落防止柵,35.3424382,139.5423157,
神奈川県,鎌倉市,29-4,高野10番地,天ケ谷戸遊水池フェンス,35.3433105,139.5464573,緯度経度は怪しい
神奈川県,鎌倉市,29-5,大船1780番地9,やとのまえぞう公園石垣,35.3512705,139.5436922,
神奈川県,鎌倉市,29-6,大船1806番地128,やとのまえ公園北側,35.3508756,139.5449722,緯度経度は怪しい
神奈川県,鎌倉市,29-7,大船1820番地82,やとのまえ公園南側,35.3493409,139.546142,
神奈川県,鎌倉市,30-1,今泉二丁目14番,今泉りす公園フェンス,35.3453365,139.5527438,
神奈川県,鎌倉市,30-2,今泉二丁目13番1号,今泉小学校正門脇フェンス,35.3444073,139.5517292,
神奈川県,鎌倉市,30-3,今泉二丁目30番,今泉公園石垣,35.3429629,139.5505952,
神奈川県,鎌倉市,30-4,今泉三丁目9番,白山神社前交差点横法面,35.3454441,139.5571209,
神奈川県,鎌倉市,30-5,今泉三丁目21番23号,今泉さわやかセンターフェンス,35.3439923,139.5619263,
神奈川県,鎌倉市,30-6,今泉台一丁目2番,柳谷戸つばめ公園脇,35.3428289,139.5525846,
神奈川県,鎌倉市,30-7,今泉二丁目4番25号,大船消防署今泉出張所塀,35.3467213,139.5519878,
神奈川県,鎌倉市,31-1,今泉台三丁目18番,吉ガ沢かえで公園フェンス,35.3402944,139.5587922,
神奈川県,鎌倉市,31-2,今泉台二丁目6番,地蔵前バス停前転落防止柵,35.34170659999999,139.5571209,
神奈川県,鎌倉市,31-3,今泉台四丁目6番,吉ガ沢公園西側フェンス,35.3386805,139.5579963,
神奈川県,鎌倉市,31-4,今泉台六丁目1番,滝ノ入北公園石垣,35.3391884,139.5644433,
神奈川県,鎌倉市,31-5,今泉台五丁目12番,半僧坊下バス停脇,35.336544,139.5634085,
神奈川県,鎌倉市,31-6,今泉台六丁目19番,遊歩道石垣,35.3376163,139.5664332,
神奈川県,鎌倉市,31-7,今泉台七丁目17番,滝ノ入うさぎ公園石垣,35.3397923,139.565677,
神奈川県,鎌倉市,32-1,岩瀬663番地,岩瀬あゆ公園前転落防止柵,35.35174,139.5474944,
神奈川県,鎌倉市,32-2,岩瀬574番地,砂押橋バス停前転落防止柵,35.3538509,139.5444613,
神奈川県,鎌倉市,32-3,岩瀬856番地2,レーベンハイム前転落防止柵,35.35334,139.5470939,緯度経度は怪しい
神奈川県,鎌倉市,32-4,岩瀬820番地,masked,35.348853,139.5504536,
神奈川県,鎌倉市,32-5,岩瀬1526番地,岩瀬保育園フェンス,35.3525136,139.5490322,緯度経度は怪しい
神奈川県,鎌倉市,32-6,岩瀬630番地1,岩瀬下関防災公園フェンス,35.35334,139.5470939,
神奈川県,鎌倉市,32-7,岩瀬546番地,下水路転落防止柵,35.35493659999999,139.5456745,
神奈川県,鎌倉市,33-1,岩瀬一丁目12番,岩瀬住宅前交差点転落防止柵,35.3541165,139.5415241,
神奈川県,鎌倉市,33-2,岩瀬一丁目16番18号,masked,35.3541757,139.5426977,
神奈川県,鎌倉市,33-3,岩瀬1304番地,岩瀬保育園分園オランジェ塀,35.3627034,139.5452844,
神奈川県,鎌倉市,33-4,岩瀬一丁目6番,いわせ第二児童遊園フェンス,35.3553356,139.5393758,
神奈川県,鎌倉市,33-5,岩瀬一丁目8番,岩瀬げんころう公園フェンス,35.3562221,139.5396145,
神奈川県,鎌倉市,33-6,岩瀬一丁目1番,岩瀬めだか公園柵,35.355038,139.5373868,
神奈川県,鎌倉市,33-7,大船六丁目1番,大船りんご公園塀,35.352884,139.5388189,
神奈川県,鎌倉市,33-8,岩瀬一丁目3番1号,岩瀬一丁目公園北側植え込み,35.3566281,139.5390193,
神奈川県,鎌倉市,34-1,大船二丁目1番26号,大船行政センター植込み,35.3499224,139.5334663,
神奈川県,鎌倉市,34-2,大船五丁目1番1号,三菱電機情報技術総合研究所塀,35.3495542,139.5364285,
神奈川県,鎌倉市,34-3,大船二丁目7番8号,教育支援教室「ひだまり」フェンス,35.3520009,139.5350503,
神奈川県,鎌倉市,34-4,大船二丁目8番1号,大船小学校東側フェンス,35.3515854,139.5343731,
神奈川県,鎌倉市,34-5,大船三丁目5番10号,大船消防署フェンス,35.3489775,139.5330681,
神奈川県,鎌倉市,34-6,大船二丁目19番,砂押川転落防止柵,35.354088,139.535577,
神奈川県,鎌倉市,34-7,大船二丁目8番1号,大船小学校南側フェンス,35.3515854,139.5343731,
神奈川県,鎌倉市,35-1,山崎1090番地,東京スリープ前,35.3430634,139.5277212,
神奈川県,鎌倉市,35-2,台三丁目13番1号,デンカフェンス,35.345211,139.5311815,
神奈川県,鎌倉市,35-3,山崎452番地2,山崎浄化センターフェンス,35.3452214,139.523437,
神奈川県,鎌倉市,35-4,台三丁目2番5号,大船体育館駐車場フェンス,35.3465017,139.5313124,
神奈川県,鎌倉市,35-5,山崎1140番地,セブンイレブン前転落防止柵,35.343348,139.5270454,
神奈川県,鎌倉市,35-6,台三丁目1番,台いちご公園フェンス,35.3467364,139.5315793,
神奈川県,鎌倉市,35-7,山崎291番地,三菱電機鎌倉製作所フェンス,35.344091,139.5224846,
神奈川県,鎌倉市,36-1,岡本1100番地,玉縄中学校北側フェンス,35.3479593,139.5188027,
神奈川県,鎌倉市,36-2,植木484番地5,相模陣ふき公園フェンス,35.3509231,139.5102714,
神奈川県,鎌倉市,36-3,植木19番地,植木谷戸公園フェンス,35.3551743,139.5163919,緯度経度は怪しい
神奈川県,鎌倉市,36-4,岡本1018番地,フラワーセンターフェンス,35.3487787,139.5209154,
神奈川県,鎌倉市,36-5,岡本1018番地,フラワーセンター第二駐車場フェンス,35.3487787,139.5209154,
神奈川県,鎌倉市,36-6,岡本1100番地,玉縄中学校正門横フェンス,35.3479593,139.5188027,
神奈川県,鎌倉市,36-7,植木135番地1,玉縄幼稚園・龍寶寺駐車場フェンス,35.35253720000001,139.516546,緯度経度は怪しい
神奈川県,鎌倉市,37-1,植木598番地5,相模陣あひる公園転落防止柵,35.3484555,139.5144477,
神奈川県,鎌倉市,37-2,岡本1324番地,市営岡本住宅フェンス,35.344584,139.518405,
神奈川県,鎌倉市,37-3,岡本1500番地,岡本外耕地公園,35.3443599,139.516541,
神奈川県,鎌倉市,37-4,植木624-1,相模陣あんず公園,35.3473191,139.5140526,緯度経度は怪しい
神奈川県,鎌倉市,37-5,植木676番地1,グリーンズ湘南・鎌倉堺,35.3469168,139.5144571,緯度経度は怪しい
神奈川県,鎌倉市,37-6,岡本1500番地29,岡本むくげ公園柵,35.3443599,139.516541,
神奈川県,鎌倉市,37-7,岡本1500番地30,岡本けやき公園柵,35.3443599,139.516541,
神奈川県,鎌倉市,38-1,玉縄一丁目860番地,玉縄小学校フェンス,35.3511614,139.5229828,
神奈川県,鎌倉市,38-2,台一丁目2番,柏尾川転落防止柵,35.3518595,139.5296701,
神奈川県,鎌倉市,38-3,台一丁目2番25号,台調整池管理棟植込み,35.3512007,139.5293135,
神奈川県,鎌倉市,38-4,玉縄一丁目4番地,たまなわ児童遊園フェンス,35.3514923,139.523227,
神奈川県,鎌倉市,38-5,玉縄一丁目860番地,玉縄小学校体育館横フェンス,35.3511614,139.5229828,
神奈川県,鎌倉市,38-6,玉縄一丁目14番地6,やまかストアー玉縄店フェンス,35.3498347,139.5220771,
神奈川県,鎌倉市,38-7,岡本二丁目16番3号,玉縄行政センター前,35.3494947,139.5233231,
神奈川県,鎌倉市,39-1,岡本一丁目120番地65,戸部みつばち公園フェンス,35.3556821,139.5286359,
神奈川県,鎌倉市,39-2,玉縄二丁目13番地1,城山児童遊園フェンス,35.3579148,139.5205395,
神奈川県,鎌倉市,39-3,玉縄二丁目7番地,やと池児童遊園フェンス,35.3570805,139.5235451,
神奈川県,鎌倉市,39-4,玉縄一丁目2番地1,玉縄青少年会館フェンス,35.3539743,139.5245336,
神奈川県,鎌倉市,39-5,玉縄五丁目21番地1,玉縄1-2号緑地フェンス,35.3596164,139.5207405,
神奈川県,鎌倉市,39-6,玉縄五丁目26番地,山百合児童遊園フェンス,35.3596628,139.5206817,
神奈川県,鎌倉市,39-7,玉縄五丁目9番地1,玉縄すこやかセンター柵,35.3589531,139.5200278,
神奈川県,鎌倉市,40-1,城廻396番地,masked,35.3528857,139.5112616,緯度経度は怪しい
神奈川県,鎌倉市,40-2,城廻516番地3,関谷中継室フェンス,35.35572090000001,139.5101838,緯度経度は怪しい
神奈川県,鎌倉市,40-3,城廻100番地77,打越東公園フェンス,35.3562812,139.513485,
神奈川県,鎌倉市,40-4,関谷468番地1,関谷小学校正門脇フェンス,35.3610373,139.5134841,
神奈川県,鎌倉市,40-5,関谷351番地27,下坪かえる公園脇,35.359777,139.5181565,
神奈川県,鎌倉市,40-6,城廻481番地3,中村公園フェンス,35.3558584,139.5057756,
神奈川県,鎌倉市,40-7,関谷633番地22,石原谷戸とび公園脇,35.3622323,139.5120194,緯度経度は怪しい
