prefecture,city,number,address,name,lat,long
兵庫県,丹波市,管理番号1柏原1,国道176号,NPO法人かたくり「きらめきワーク」　植込,35.1261026,135.0800544
兵庫県,丹波市,管理番号2柏原2,柏原町柏原,丹波県民局北側　フェンス,35.1299307,135.0821025
兵庫県,丹波市,管理番号3柏原3,柏原町見長,見長公民館西側　路肩,35.1233439,135.0866972
兵庫県,丹波市,管理番号4柏原4,柏原町柏原,旧柏原保育所跡地　フェンス,35.1276098,135.0819262
兵庫県,丹波市,管理番号5柏原5,柏原町柏原,職員駐車場（旧郵便局跡地）フェンス,35.1311305,135.0766102
兵庫県,丹波市,管理番号6柏原6,国道176号,西市庭駐車場南側　柵,35.1304283,135.0786632
兵庫県,丹波市,管理番号7柏原7,柏原町柏原,消防団詰所側　空地(柏原888番地),35.1250449,135.083243
兵庫県,丹波市,管理番号8柏原8,柏原町柏原,masked,35.1286241,135.0778927
兵庫県,丹波市,管理番号9柏原9,柏原町南多田,㈱NTT西日本兵庫支店跡地内,35.1346405,135.0756628
兵庫県,丹波市,管理番号10柏原10,柏原町小南,室谷公民館（旧柏原人権啓発センター）東側　路肩,35.1248974,135.0688661
兵庫県,丹波市,管理番号11柏原11,柏原町小南,個人所有地　路肩,35.126887,135.0710219
兵庫県,丹波市,管理番号12柏原12,柏原町柏原,㈱クレハ駐車場向いガードレール,35.1239569,135.0810132
兵庫県,丹波市,管理番号13柏原13,柏原町柏原,㈱クレハ横市道転落防止柵,35.1241408,135.0772741
兵庫県,丹波市,管理番号14柏原14,柏原町小南,市道第４０号線植込（ハローワーク柏原東側）,35.1336462,135.0710241
兵庫県,丹波市,管理番号15柏原15,稲畑柏原線,認定こども園ミライズにじ　フェンス,35.1347117,135.0596258
兵庫県,丹波市,管理番号16柏原16,柏原町南多田,木の根センター入口　植込,35.1375231,135.0648979
兵庫県,丹波市,管理番号17柏原17,柏原町田路,丹波ひかみ農協柏原営農経済センター　フェンス,35.1377841,135.0574872
兵庫県,丹波市,管理番号18柏原18,国道176号,国道176号線歩道　転落防止柵(㈱デンテックス西側),35.1435153,135.0571451
兵庫県,丹波市,管理番号19柏原19,柏原町南多田,南多田公民館グラウンド　フェンス,35.1400372,135.0710016
兵庫県,丹波市,管理番号20柏原20,柏原町南多田,masked,35.1377588,135.0701466
兵庫県,丹波市,管理番号21柏原21,柏原町南多田,市道南多田第５号線　柏原中学校前　ガードレール,35.1378257,135.0746496
兵庫県,丹波市,管理番号22柏原22,下立杭柏原線,ゆめわあく柏原　植込,35.1160545,135.0899563
兵庫県,丹波市,管理番号23柏原23,柏原町下小倉,下小倉公民館北側　フェンス,35.1173908,135.0874921
兵庫県,丹波市,管理番号24柏原24,柏原町上小倉,上小倉グラウンド前ガードレール,35.1171549,135.0963032
兵庫県,丹波市,管理番号25柏原25,,市道上小倉第７号線　ガードレール,35.1156849,135.0944261
兵庫県,丹波市,管理番号26柏原26,柏原町下小倉,下小倉農事センター付近ガードレール,35.1162054,135.0854828
兵庫県,丹波市,管理番号27柏原27,柏原町挙田,挙田公民館前広場,35.1297498,135.0550029
兵庫県,丹波市,管理番号28柏原28,奥野々氷上線,ふれあい会館東側,35.1337741,135.0483001
兵庫県,丹波市,管理番号29柏原29,柏原町鴨野,鴨野公民館　フェンス,35.1352482,135.0388446
兵庫県,丹波市,管理番号30柏原30,稲畑柏原線,新井小学校駐車場　フェンス,35.1345644,135.0458871
兵庫県,丹波市,管理番号31柏原31,柏原町北山,北山公民館横グラウンドフェンス,35.1372906,135.0447003
兵庫県,丹波市,管理番号32柏原32,奥野々氷上線,田路公民館グラウンドフェンス,35.1432555,135.0444162
兵庫県,丹波市,管理番号33柏原33,奥野々氷上線,母坪グラウンドフェンス,35.1480722,135.0419212
兵庫県,丹波市,管理番号34柏原34,稲畑柏原線,masked,35.1346756,135.0561702
兵庫県,丹波市,管理番号35柏原35,国道176号,国道176号線歩道　転落防止柵(丹波総合石材付近),35.1467597,135.0517218
兵庫県,丹波市,管理番号36氷上1,氷上町上成松,葛野川（成松橋西）,35.1711823,135.0305724
兵庫県,丹波市,管理番号37氷上2,氷上町黒田,市道特27号線と福知山山南線（109号線）の交差点付近転落防止柵,35.1643816,135.0296125
兵庫県,丹波市,管理番号38氷上3,氷上町西中,氷上文化センター　植栽地,35.1711674,135.0373064
兵庫県,丹波市,管理番号39氷上4,氷上町犬岡,市道特27号線　転落防止柵(犬岡橋西100m付近）,35.1642947,135.0409057
兵庫県,丹波市,管理番号40氷上5,丹波加美線,中央小学校　フェンス,35.1732364,135.0323341
兵庫県,丹波市,管理番号41氷上6,丹波加美線,わく歯科医院第2駐車場フェンス,35.1735174,135.0286783
兵庫県,丹波市,管理番号42氷上7,氷上町成松,甲賀山公園前　フェンス,35.1752075,135.0330875
兵庫県,丹波市,管理番号43氷上8,北近畿豊岡自動車道,氷上中学校フェンス（バス停付近）,35.1768116,135.0362051
兵庫県,丹波市,管理番号44氷上9,丹波加美線,masked,35.1752358,135.0274886
兵庫県,丹波市,管理番号45氷上10,氷上町常楽,個人所有植樹地（常楽交差点付近）,35.1801013,135.028798
兵庫県,丹波市,管理番号46氷上11,氷上町常楽,フレッシュさとう前空き地,35.1801496,135.0327539
兵庫県,丹波市,管理番号47氷上12,氷上町成松,常楽南集会所防火水槽　フェンス,35.1779962,135.0335238
兵庫県,丹波市,管理番号48氷上13,氷上町新郷,個人所有地,35.1509171,135.0275447
兵庫県,丹波市,管理番号49氷上14,氷上町谷村,谷村公民館前広場　空き地,35.1458762,135.0230541
兵庫県,丹波市,管理番号50氷上15,氷上町谷村,谷村地内三叉路（㈱双葉先）,35.1414224,135.0203765
兵庫県,丹波市,管理番号51氷上16,福知山山南線,県道福知山山南線（南地区下水道処理場横）,35.1381779,135.0154383
兵庫県,丹波市,管理番号52氷上17,氷上町稲畑,稲畑公民館裏ふれあい広場　フェンス,35.1429562,135.035362
兵庫県,丹波市,管理番号53氷上18,氷上町稲畑,稲畑消防詰所跡地下　ガードレール,35.1422772,135.0293118
兵庫県,丹波市,管理番号54氷上19,氷上町佐野,沼貫交流館前　転落防止柵,35.1352331,135.0185886
兵庫県,丹波市,管理番号55氷上20,氷上町油利,上油利公民館跡地　空き地,35.1322567,135.0070631
兵庫県,丹波市,管理番号56氷上21,氷上町油利,下油利公民館前　空き地,35.1280934,135.0045416
兵庫県,丹波市,管理番号57氷上22,福知山山南線,朝阪公民館横グラウンドフェンス,35.123322,135.002512
兵庫県,丹波市,管理番号58氷上23,氷上町朝阪,市道特16号線　ガードレール,35.1208139,135.0071094
兵庫県,丹波市,管理番号59氷上24,氷上町小野,小野自治会広場,35.1160584,134.9943952
兵庫県,丹波市,管理番号60氷上25,氷上町福田,福田自治会公民館前市道フェンス,35.1170322,135.0140021
兵庫県,丹波市,管理番号61氷上26,丹波加美線,下新庄生きがいセンター前,35.1814091,135.0153184
兵庫県,丹波市,管理番号62氷上27,氷上町柿柴,柿柴東自治会管理地植え込み(鹿乃川橋付近),35.1749262,135.0228997
兵庫県,丹波市,管理番号63氷上28,氷上町柿柴,個人所有地,35.1761527,135.0163437
兵庫県,丹波市,管理番号64氷上29,氷上町長野,旧長野消防詰所前　広場,35.1777512,135.0076589
兵庫県,丹波市,管理番号65氷上30,氷上町大谷,大谷グラウンド前　フェンス,35.177648,134.996609
兵庫県,丹波市,管理番号66氷上31,氷上町上新庄,西山センター西側　駐車場,35.1866788,135.0025454
兵庫県,丹波市,管理番号67氷上32,氷上町大谷,西小学校プールフェンス,35.1809643,135.0019004
兵庫県,丹波市,管理番号68氷上33,丹波加美線,三原公民館道向かい自治会所有地,35.1734205,134.9851452
兵庫県,丹波市,管理番号69氷上34,丹波加美線,中野地内三叉路,35.1829352,134.9897439
兵庫県,丹波市,管理番号70氷上35,氷上町三方,三方消防詰所横　空き地,35.189594,134.9801823
兵庫県,丹波市,管理番号71氷上36,氷上町中,中公民館敷地,35.1896749,134.9858014
兵庫県,丹波市,管理番号72氷上37,氷上町清住,市道特31号線　ガードレール（清住公民館前）,35.1905768,134.9916782
兵庫県,丹波市,管理番号73氷上38,青垣柏原線,北小学校前　植栽地,35.2001363,135.0459902
兵庫県,丹波市,管理番号74氷上39,青垣柏原線,県道青垣柏原線歩道　転落防止柵(香良口バス停北側),35.2051251,135.0439705
兵庫県,丹波市,管理番号75氷上40,氷上町香良,香良公民館前　空き地,35.209455,135.051855
兵庫県,丹波市,管理番号76氷上41,氷上町伊佐口,伊佐口公民館前,35.2105362,135.0435969
兵庫県,丹波市,管理番号77氷上42,氷上町日比宇,日比宇公民館前,35.2171768,135.0381769
兵庫県,丹波市,管理番号78氷上43,氷上町鴨内,鴨内公民館前駐車場,35.2209439,135.0437392
兵庫県,丹波市,管理番号79氷上44,氷上町小谷,小谷公民館前広場　空き地,35.2280008,135.0408211
兵庫県,丹波市,管理番号80氷上45,青垣柏原線,桟敷公民館　フェンス,35.191314,135.0454529
兵庫県,丹波市,管理番号81氷上46,氷上町北油良,日吉神社前ガードレール,35.1920951,135.053743
兵庫県,丹波市,管理番号82氷上47,氷上町南油良,南油良公民館前,35.1872474,135.0597923
兵庫県,丹波市,管理番号83氷上48,氷上町氷上,市道北335号線沿い,35.1840419,135.0489896
兵庫県,丹波市,管理番号84氷上49,青垣柏原線,県道青垣柏原線　植栽地（氷上北交差点ローソン前）,35.1792992,135.0431449
兵庫県,丹波市,管理番号85氷上50,北近畿豊岡自動車道,京橋東交差点付近 北近畿豊岡自動車道フェンス,35.173191,135.041987
兵庫県,丹波市,管理番号86氷上51,青垣柏原線,沼公民館植え込み,35.2224375,135.0321457
兵庫県,丹波市,管理番号87氷上52,氷上町沼,市道北112号線　ガードレール（沼１組入口交差点付近）,35.2206435,135.0274679
兵庫県,丹波市,管理番号88氷上53,氷上町御油,市道北115号線　ガードレール（北御油運動場付近）,35.215628,135.0283939
兵庫県,丹波市,管理番号89氷上54,氷上町井中,南御油公民館横広場,35.2094559,135.0292202
兵庫県,丹波市,管理番号90氷上55,氷上町井中,井中公民館前広場,35.2068556,135.025987
兵庫県,丹波市,管理番号91氷上56,,市道北118号　ガードレール（北112号交差点付近）,35.2067829,135.0321455
兵庫県,丹波市,管理番号92氷上57,福知山山南線,北田井消防班詰所横,35.1971059,135.0355432
兵庫県,丹波市,管理番号93氷上58,氷上町賀茂,南田井公民館敷地内フェンス,35.1930208,135.0359299
兵庫県,丹波市,管理番号94氷上59,福知山山南線,個人所有地,35.1895854,135.0360451
兵庫県,丹波市,管理番号95氷上60,賀茂春日線,田中バス停付近ゲートボール場県道側,35.1890352,135.0399002
兵庫県,丹波市,管理番号96氷上61,氷上町北野,サン・コーポ入口付近　フェンス前法面,35.1582194,135.061224
兵庫県,丹波市,管理番号97氷上62,氷上町石生,玉ノ池下消防分団庫前　転落防止柵,35.151602,135.0663143
兵庫県,丹波市,管理番号98氷上63,石生停車場線,アパート「クラヴィエ颯士」横,35.1558791,135.0651089
兵庫県,丹波市,管理番号99氷上64,氷上町大崎,市道特28号線　ガードレール,35.1595632,135.0600244
兵庫県,丹波市,管理番号100氷上65,青垣柏原線,市立東小学校プール前フェンス,35.1501265,135.0577389
兵庫県,丹波市,管理番号101氷上66,氷上町石生,石生駅南駐車場フェンス,35.1527759,135.0630204
兵庫県,丹波市,管理番号102氷上67,氷上町石生,個人所有　畑,35.1484353,135.0654607
兵庫県,丹波市,管理番号103氷上68,柏原町南多田,石生第１公園,35.1437675,135.0671008
兵庫県,丹波市,管理番号104氷上69,国道175号,横田交差点高架下　転落防止柵,35.1524797,135.0529883
兵庫県,丹波市,管理番号105氷上70,氷上町横田,横田公民館前グラウンド,35.1557194,135.0537612
兵庫県,丹波市,管理番号106氷上71,北近畿豊岡自動車道,氷上インター正面　転落防止柵,35.1604472,135.0479687
兵庫県,丹波市,管理番号107氷上72,氷上町市辺,市辺公民館　フェンス,35.1677412,135.048864
兵庫県,丹波市,管理番号108氷上73,氷上町稲継,本郷橋付近 ガードレール,35.1566291,135.0386703
兵庫県,丹波市,管理番号109氷上74,氷上町稲継,masked,35.1532843,135.0397835
兵庫県,丹波市,管理番号110氷上75,青垣柏原線,稲継交差点　転落防止柵,35.1528764,135.0479508
兵庫県,丹波市,管理番号111青垣1,青垣町市原,市原集会所前　フェンス,35.2519647,134.9826836
兵庫県,丹波市,管理番号112青垣2,青垣町市原,岩本公民館,35.2513466,134.9920435
兵庫県,丹波市,管理番号113青垣3,青垣柏原線,県道青垣柏原線歩道　転落防止柵(大森医院前),35.2498295,134.9985213
兵庫県,丹波市,管理番号114青垣4,青垣柏原線,青垣住民センター前　ガードレール,35.2489592,135.0018781
兵庫県,丹波市,管理番号115青垣5,国道427号,国道427号歩道　転落防止柵（佐治大橋々詰）,35.2494137,134.9899269
兵庫県,丹波市,管理番号116青垣6,青垣町小倉,青垣中学校前バス停付近　転落防止柵,35.246375,134.9945586
兵庫県,丹波市,管理番号117青垣7,青垣柏原線,佐治地域自治協議会　佐治来楽館　植込み,35.2456959,135.0006499
兵庫県,丹波市,管理番号118青垣8,青垣柏原線,青垣小学校フェンス（小学校前バス停付近）,35.2442097,135.004433
兵庫県,丹波市,管理番号119青垣9,青垣町沢野,市道寺内平野線（寺内公民館　東側）,35.2526989,135.0042945
兵庫県,丹波市,管理番号120青垣10,青垣町沢野,市道遠阪川幹線　ガードレール（沢野橋付近）,35.2498812,135.0084475
兵庫県,丹波市,管理番号121青垣11,青垣町沢野,沢野公民館前駐車場　植込,35.2487926,135.0083846
兵庫県,丹波市,管理番号122青垣12,青垣町沢野,市道佐治奥塩久線（矢の内入口三叉路）,35.2499973,135.0172923
兵庫県,丹波市,管理番号123青垣13,青垣町口塩久,市道西芦田口塩久線　ガードレール付近,35.2458948,135.0198102
兵庫県,丹波市,管理番号124青垣14,青垣町奥塩久,奥塩久公民館前　ガードレール,35.254603,135.0253991
兵庫県,丹波市,管理番号125青垣15,福知山山南線,masked,35.2474132,135.0451687
兵庫県,丹波市,管理番号126青垣16,,東芦田体育館前,35.2406745,135.0431423
兵庫県,丹波市,管理番号127青垣17,,市道芦田中央線（堂橋々詰）,35.2367028,135.0405824
兵庫県,丹波市,管理番号128青垣18,氷上町小谷,東芦田集会所裏　植込,35.2315892,135.0357263
兵庫県,丹波市,管理番号129青垣19,青垣町田井縄,市道丸町線歩道　転落防止柵（旧芦田小学校前）,35.2353074,135.025237
兵庫県,丹波市,管理番号130青垣20,青垣町田井縄,芦田中央線三叉路(グリーンベル青垣付近),35.2352724,135.0213197
兵庫県,丹波市,管理番号131青垣21,青垣柏原線,県道青垣柏原線歩道　転落防止柵（丹波ひかみ農協青垣GS前）,35.2309152,135.0260761
兵庫県,丹波市,管理番号132青垣22,青垣町栗住野,栗住野運動場　フェンス,35.2280231,135.0192088
兵庫県,丹波市,管理番号133青垣23,青垣柏原線,県道青垣柏原線歩道　転落防止柵(栗住野バス停付近),35.2321177,135.0185775
兵庫県,丹波市,管理番号134青垣24,青垣柏原線,県道青垣柏原線歩道　転落防止柵(西芦田交差点付近),35.238936,135.0089749
兵庫県,丹波市,管理番号135青垣25,,衣川瓦店上,35.2421401,134.9511409
兵庫県,丹波市,管理番号136青垣26,青垣町大名草,大名草公民館前　植え込み,35.2393452,134.9468616
兵庫県,丹波市,管理番号137青垣27,国道429号,国道427号線（昭光繊維入口付近）,35.2362773,134.9417182
兵庫県,丹波市,管理番号138青垣28,檜倉山東線,県道桧倉山東線（大稗口バス停付近）,35.2479623,134.9443463
兵庫県,丹波市,管理番号139青垣29,青垣町小稗,市道小稗道ノ下線１号　ガードレール（小稗公民館前）,35.2525059,134.942633
兵庫県,丹波市,管理番号140青垣30,青垣町大稗,大稗運動場,35.2496832,134.9339433
兵庫県,丹波市,管理番号141青垣31,檜倉山東線,惣持公民館付近　ガードレール,35.2521953,134.9536907
兵庫県,丹波市,管理番号142青垣32,青垣町文室,masked,35.2527014,134.9656651
兵庫県,丹波市,管理番号143青垣33,国道427号,バイカモ群生地駐車場付近　国道沿い転落防止柵,35.2492152,134.9684395
兵庫県,丹波市,管理番号144青垣34,青垣町文室,市道水座明号線（水座三叉路付近）,35.2529232,134.972561
兵庫県,丹波市,管理番号145青垣35,青垣町文室,菅原公民館前　ガードレール,35.258938,134.9725127
兵庫県,丹波市,管理番号146青垣36,青垣町稲土,市道水座明号線　ガードレール（稲土公民館横）,35.2670447,134.9669952
兵庫県,丹波市,管理番号147青垣37,青垣町稲土,日向橋付近　ガードレール,35.2711249,134.964285
兵庫県,丹波市,管理番号148青垣38,国道427号,杉谷構造改善センター横　畑,35.2570297,134.9981665
兵庫県,丹波市,管理番号149青垣39,国道429号,平野公民館前,35.2634554,135.0064955
兵庫県,丹波市,管理番号150青垣40,青垣町中佐治,サンキン㈱テニスコート跡地(中佐治公民館前),35.2634396,134.9968245
兵庫県,丹波市,管理番号151青垣41,青垣町中佐治,遠阪川幹線　岡見橋付近ガードレール,35.2650355,134.9977175
兵庫県,丹波市,管理番号152青垣42,国道427号,下地公民館前 敷地内,35.2713521,134.989746
兵庫県,丹波市,管理番号153青垣43,青垣町山垣,向地下式防火水槽　フェンス,35.2738596,134.9916196
兵庫県,丹波市,管理番号154青垣44,国道427号,旧遠阪小学校前　市有地（旧山垣駐在所跡地）,35.2745583,134.9859096
兵庫県,丹波市,管理番号155青垣45,国道427号,masked,35.2795146,134.9836699
兵庫県,丹波市,管理番号156青垣46,,市道遠阪川幹線　転落防止柵（徳畑橋々詰付近）,35.2830023,134.9827568
兵庫県,丹波市,管理番号157青垣47,国道427号,国道427号線沿い和田橋付近,35.2865314,134.9751712
兵庫県,丹波市,管理番号158青垣48,国道427号,遠阪公民館横　防火水槽フェンス,35.2929432,134.9643001
兵庫県,丹波市,管理番号159青垣49,青垣町遠阪,今出公民館前　ガードレール,35.2900791,134.9544219
兵庫県,丹波市,管理番号160春日1,春日町七日市,旧国道175号線　転落防止柵（黒井東交差点付近）,35.1697838,135.1044638
兵庫県,丹波市,管理番号161春日2,春日町七日市,丹波ひかみ農協春日支店前　転落防止柵,35.1708382,135.099785
兵庫県,丹波市,管理番号162春日3,春日町黒井,市道駅前線歩道　転落防止柵,35.1689842,135.0977437
兵庫県,丹波市,管理番号163春日4,春日町黒井,masked,35.1737586,135.0967341
兵庫県,丹波市,管理番号164春日5,春日町黒井,旧黒井幼稚園フェンス下　ブロック垣,35.1733437,135.1004109
兵庫県,丹波市,管理番号165春日6,春日町黒井,春日文化ホール横ガードレール,35.1689078,135.1020611
兵庫県,丹波市,管理番号166春日7,春日町黒井,キリン堂横　転落防止柵,35.1663977,135.1004974
兵庫県,丹波市,管理番号167春日8,春日町山田,masked,35.1832286,135.0872042
兵庫県,丹波市,管理番号168春日9,春日町稲塚,稲塚交流センター　フェンス,35.1780766,135.0921856
兵庫県,丹波市,管理番号169春日10,賀茂春日線,古河公民館前　ガードレール,35.1777654,135.0873359
兵庫県,丹波市,管理番号170春日11,春日町平松,平松公民館前　ガードレール,35.1644384,135.0934678
兵庫県,丹波市,管理番号171春日12,国道175号,国道175号線歩道　転落防止柵（下野村交差点付近）,35.166264,135.1117836
兵庫県,丹波市,管理番号172春日13,北近畿豊岡自動車道,北近畿豊岡道高架下グラウンドフェンス,35.1637757,135.1098018
兵庫県,丹波市,管理番号173春日14,春日栗柄線,県道春日栗柄線歩道　転落防止柵（春日中学校前）,35.1604196,135.1128568
兵庫県,丹波市,管理番号174春日15,春日町野村,野村コミュニティセンター　フェンス,35.1580279,135.1078177
兵庫県,丹波市,管理番号175春日16,春日町野村,奥野村地内　ガードレール,35.1585937,135.1044972
兵庫県,丹波市,管理番号176春日17,春日町野村,masked,35.1624196,135.1001402
兵庫県,丹波市,管理番号177春日18,春日町野上野,山東駐在所　東側空地,35.1652379,135.1257924
兵庫県,丹波市,管理番号178春日19,春日町野上野,masked,35.1703329,135.1271855
兵庫県,丹波市,管理番号179春日20,春日町池尾,masked,35.1910439,135.1238302
兵庫県,丹波市,管理番号180春日21,春日町多利,丹波ひかみ農協春日支店春日部店前　雑種地,35.1783447,135.1264462
兵庫県,丹波市,管理番号181春日22,春日町多利,masked,35.1812153,135.127523
兵庫県,丹波市,管理番号182春日23,追入市島線,小多利公民館後ろ　転落防止柵,35.1870936,135.1324936
兵庫県,丹波市,管理番号183春日24,国道175号,国道175号線歩道　転落防止柵（かわも広場付近）,35.179142,135.1199666
兵庫県,丹波市,管理番号184春日25,春日町多田,多田地内広場前,35.177711,135.1149739
兵庫県,丹波市,管理番号185春日26,春日町七日市,七日市隣保館　フェンス,35.1701015,135.1161744
兵庫県,丹波市,管理番号186春日27,春日町下三井庄,大路小学校北側校門横　フェンス,35.1481156,135.1646808
兵庫県,丹波市,管理番号187春日28,,鹿場公民館　グラウンド,35.1492415,135.1535749
兵庫県,丹波市,管理番号188春日29,中山綾部線旧道,県道中山綾部線　歩道（上三井庄入口三叉路）,35.1491948,135.1712075
兵庫県,丹波市,管理番号189春日30,中山綾部線旧道,細見酒店付近　ガードレール,35.1521806,135.1784612
兵庫県,丹波市,管理番号190春日31,中山綾部線,細見化成㈱手前　転落防止柵,35.1569967,135.1858804
兵庫県,丹波市,管理番号191春日32,春日町中山,中山公民館付近　ガードレール,35.1421804,135.1561814
兵庫県,丹波市,管理番号192春日33,春日町松森,県住春日中山団地横　転落防止柵,35.1420896,135.1627891
兵庫県,丹波市,管理番号193春日34,春日町松森,松森広場付近　ガードレール,35.1414516,135.1704172
兵庫県,丹波市,管理番号194春日35,春日栗柄線,広瀬自治会館,35.1397426,135.1778563
兵庫県,丹波市,管理番号195春日36,春日町栢野,栢野公民館前広場　フェンス,35.1376632,135.1937189
兵庫県,丹波市,管理番号196春日37,春日町広瀬,栢野口バス停付近　ガードレール,35.1365284,135.1854878
兵庫県,丹波市,管理番号197春日38,春日町野瀬,野瀬公民館前 個人管理地,35.1428872,135.2061421
兵庫県,丹波市,管理番号198春日39,春日町野瀬,masked,35.1474606,135.2126567
兵庫県,丹波市,管理番号199春日40,春日町国領,丹波ひかみ農協春日支店国領店東側　雑種地,35.1482336,135.1265606
兵庫県,丹波市,管理番号200春日41,追入市島線,市道側Ｕ６号線　路肩,35.1440753,135.1272204
兵庫県,丹波市,管理番号201春日42,春日町国領,進修小学校フェンス,35.1452768,135.1288629
兵庫県,丹波市,管理番号202春日43,春日栗柄線,貝市会館　記念碑前,35.1462412,135.1244036
兵庫県,丹波市,管理番号203春日44,春日町東中,東中グラウンド　フェンス,35.142642,135.1391866
兵庫県,丹波市,管理番号204春日45,春日町東中,masked,35.1475481,135.1412004
兵庫県,丹波市,管理番号205春日46,春日町柚津,masked,35.1499424,135.1417011
兵庫県,丹波市,管理番号206春日47,春日町棚原,個人所有地,35.1541728,135.119546
兵庫県,丹波市,管理番号207春日48,春日町棚原,棚原ふれあい広場　フェンス,35.1523413,135.1170569
兵庫県,丹波市,管理番号208春日49,春日町棚原,市道南山根線　路肩,35.1472748,135.1201861
兵庫県,丹波市,管理番号209春日50,国道175号,消防詰所横,35.1686987,135.0831133
兵庫県,丹波市,管理番号210春日51,春日町園部,masked,35.1679502,135.0802182
兵庫県,丹波市,管理番号211春日52,国道175号,国道175号線歩道　転落防止柵(石才バス停付近),35.1687418,135.0771793
兵庫県,丹波市,管理番号212春日53,春日町歌道谷,芦田自動車上　ガードレール,35.1671216,135.0711976
兵庫県,丹波市,管理番号213春日54,春日町野山,市道天王線歩道　転落防止柵(野山消防詰所横),35.1692691,135.0655408
兵庫県,丹波市,管理番号214春日55,賀茂春日線,天王児童公園前　雑種地,35.1736943,135.0658777
兵庫県,丹波市,管理番号215春日56,賀茂春日線,県道賀茂春日線　ガードレール（長見区内）,35.1754613,135.0695588
兵庫県,丹波市,管理番号216春日57,春日町新才,市道新石線歩道　転落防止柵(丹波ひかみ農協春日支店船城店前),35.1759769,135.0784701
兵庫県,丹波市,管理番号217春日58,春日町山田,山田公会堂前　ガードレール,35.1817669,135.0805817
兵庫県,丹波市,管理番号218春日59,春日町牛河内,牛河内防火用水池横,35.1835476,135.0735159
兵庫県,丹波市,管理番号219山南1,山南町阿草,阿草入口　ごみ集積場横,35.0770764,135.1107422
兵庫県,丹波市,管理番号220山南2,下立杭柏原線,上滝グラウンド前　ガードパイプ,35.0894989,135.1061408
兵庫県,丹波市,管理番号221山南3,篠山山南線,個人所有　田(畦),35.0866714,135.1015177
兵庫県,丹波市,管理番号222山南4,篠山山南線,下滝駅前広場（県道篠山山南線沿）,35.0880689,135.0942222
兵庫県,丹波市,管理番号223山南5,山南町青田,上久下小学校　フェンス,35.087237,135.0883458
兵庫県,丹波市,管理番号224山南6,山南町篠場,ふるさと文化財の森センター　フェンス,35.0878728,135.0840793
兵庫県,丹波市,管理番号225山南7,山南町畑内,masked,35.0858985,135.0693232
兵庫県,丹波市,管理番号226山南8,山南町北太田,北太田コミュニティセンター向かいの畑,35.0924081,135.0647097
兵庫県,丹波市,管理番号227山南9,山南町太田,市道谷川青田線　転落防止柵（太田小河川）,35.0811357,135.0721526
兵庫県,丹波市,管理番号228山南10,山南町池谷,masked,35.083724,135.0588614
兵庫県,丹波市,管理番号229山南11,谷川大橋,JR谷川駅前駐車場　フェンス,35.0817174,135.0509341
兵庫県,丹波市,管理番号230山南12,山南町長野,久下アフタースクール　フェンス,35.080345,135.0478779
兵庫県,丹波市,管理番号231山南13,多可柏原線,市道長野北線　転落防止柵（玉巻踏切付近）,35.0838256,135.0469419
兵庫県,丹波市,管理番号232山南14,山南町岡本,岡本公民館横　グラウンド敷地,35.0838431,135.0421453
兵庫県,丹波市,管理番号233山南15,多可柏原線,県道多可柏原線　転落防止柵（谷川の郷入口南）,35.0946773,135.053615
兵庫県,丹波市,管理番号234山南16,山南町金屋,金屋グラウンド　フェンス,35.0854554,135.0341672
兵庫県,丹波市,管理番号235山南17,多可柏原線,masked,35.0871881,135.0489719
兵庫県,丹波市,管理番号236山南18,山南多可線,丹波市役所山南支所駐車場　植栽地,35.0735282,135.0358472
兵庫県,丹波市,管理番号237山南19,山南町谷川,masked,35.0761483,135.0336925
兵庫県,丹波市,管理番号238山南20,篠山山南線,県道篠山山南線歩道　転落防止柵,35.0790504,135.0358544
兵庫県,丹波市,管理番号240山南22,篠山山南線,久下小学校　フェンス,35.0796087,135.0420844
兵庫県,丹波市,管理番号241山南23,山南町谷川,谷川７区公民館前駐車場　フェンス,35.077569,135.041906
兵庫県,丹波市,管理番号242山南24,山南町谷川,久下自治会館　フェンス,35.0762277,135.0394756
兵庫県,丹波市,管理番号243山南25,山南町谷川,masked,35.0717902,135.0423539
兵庫県,丹波市,管理番号244山南26,,兵庫パルプ㈱敷地（谷川10区公民館横）,35.0713854,135.0471454
兵庫県,丹波市,管理番号245山南27,,市道山田線　谷川11区公民館前,35.0662688,135.0568105
兵庫県,丹波市,管理番号246山南28,山南町池谷,市道大谷３号線　ガードレール（大谷橋付近）,35.0814421,135.0558433
兵庫県,丹波市,管理番号247山南29,山南町岩屋,masked,35.0848291,135.0123035
兵庫県,丹波市,管理番号248山南30,山南町奥,小川地域づくりセンター　自転車置場,35.08246,135.0082472
兵庫県,丹波市,管理番号249山南31,山南町野坂,masked,35.0846004,135.0023203
兵庫県,丹波市,管理番号250山南32,国道175号,南中公民館　敷地,35.0933369,134.9979421
兵庫県,丹波市,管理番号251山南33,山南町井原,日吉神社　玉垣,35.0784795,135.0095694
兵庫県,丹波市,管理番号252山南34,山南町村森,村森公民館　敷地,35.0765913,135.0165462
兵庫県,丹波市,管理番号253山南35,篠山山南線,県道篠山山南線歩道　転落防止柵(ﾐﾆｽﾄｯﾌﾟ山南町村森店付近),35.0751378,135.0195591
兵庫県,丹波市,管理番号254山南36,山南町奥,丹波ひかみ農協山南支店　営農経済センターフェンス,35.0805584,135.0049554
兵庫県,丹波市,管理番号255山南37,多可柏原線,さんなん桜の里　敷地,35.0843691,134.9992762
兵庫県,丹波市,管理番号256山南38,多可柏原線,県道多可柏原線　ガードレール（和田中学校前）,35.0913544,134.9738793
兵庫県,丹波市,管理番号257山南39,多可柏原線,県道多可柏原線　富田橋　西側転落防止柵,35.0933502,134.9659792
兵庫県,丹波市,管理番号258山南40,山南町小野尻,masked,35.0840718,134.9593586
兵庫県,丹波市,管理番号259山南41,山南町和田,和田小学校　フェンス,35.0927138,134.9745991
兵庫県,丹波市,管理番号260山南42,山南町和田,masked,35.0922079,134.9813611
兵庫県,丹波市,管理番号261山南43,山南町北和田,和田ミニ公園　敷地,35.0922694,134.9867236
兵庫県,丹波市,管理番号262山南44,山南町小新屋,くらかけ公園　敷地,35.0833158,134.9802482
兵庫県,丹波市,管理番号263山南45,山南町和田,金倉会館　敷地,35.0898881,134.9858773
兵庫県,丹波市,管理番号264山南46,山南町坂尻,坂尻公民館前公園フェンス,35.1080766,134.9721483
兵庫県,丹波市,管理番号265山南47,山南町山本,道路公園前　ガードレール,35.1058137,134.9674054
兵庫県,丹波市,管理番号266山南48,山南町山本,山本グラウンド　フェンス,35.1023689,134.9647626
兵庫県,丹波市,管理番号267山南49,山南町五ケ野,五ケ野グランド　フェンス,35.1084795,134.967306
兵庫県,丹波市,管理番号268山南50,門村山南線,西谷生活改善センター前広場,35.1027601,134.9522723
兵庫県,丹波市,管理番号269山南51,門村山南線,県道門村山南線　ガードレール,35.0976538,134.9593414
兵庫県,丹波市,管理番号270山南52,門村山南線,個人所有　畑,35.0962826,134.9634917
兵庫県,丹波市,管理番号271山南53,山南町前川,梶グラウンド　フェンス,35.0864098,134.9903133
兵庫県,丹波市,管理番号272山南54,山南町前川,前川公民館　花壇,35.0886227,134.9916902
兵庫県,丹波市,管理番号273山南55,山南町北和田,市道北和田中央線　転落防止柵(北和田公民館付近),35.0953014,134.9900107
兵庫県,丹波市,管理番号274山南56,朝阪山南線,masked,35.1055538,134.9854122
兵庫県,丹波市,管理番号275山南57,山南町草部,兵庫絹糸㈱横　転落防止柵,35.1036756,134.995279
兵庫県,丹波市,管理番号276山南58,福知山山南線,県道福知山山南線歩道　転落防止柵(理容藤原付近),35.1010062,134.9955465
兵庫県,丹波市,管理番号277山南59,奥野々氷上線,masked,35.1013996,135.0576389
兵庫県,丹波市,管理番号278市島1,,友政公民館西側　ガードレール,35.2372896,135.1382891
兵庫県,丹波市,管理番号279市島2,国道175号,スポーツピアいちじま,35.2376624,135.1248601
兵庫県,丹波市,管理番号280市島3,,岩倉公民館前,35.2407033,135.1210309
兵庫県,丹波市,管理番号281市島4,,masked,35.2407708,135.128888
兵庫県,丹波市,管理番号282市島5,,個人所有地,35.2437108,135.131034
兵庫県,丹波市,管理番号283市島6,岩崎市島線,竹田小学校　フェンス,35.2461077,135.1368855
兵庫県,丹波市,管理番号284市島7,,丹波竹田駅前駐車場　フェンス,35.2440692,135.1340678
兵庫県,丹波市,管理番号285市島8,市島町中竹田,市道新道貝市の貝線（市の貝公民館前）,35.2572577,135.113803
兵庫県,丹波市,管理番号286市島9,市島町下竹田,市道表上砂１線　転落防止柵,35.2452352,135.1508945
兵庫県,丹波市,管理番号287市島10,市島町下竹田,市道森中央線　ガードレール（森消防詰所前）,35.2469287,135.1554149
兵庫県,丹波市,管理番号288市島11,,masked,35.2492258,135.1601002
兵庫県,丹波市,管理番号289市島12,,清薗寺付近　ガードレール,35.2484946,135.1400245
兵庫県,丹波市,管理番号290市島13,,才田グラウンド　フェンス,35.2501392,135.142654
兵庫県,丹波市,管理番号291市島14,市島町下竹田,市道中村中央線　ガードレール（中村公民館前）,35.2496748,135.1446012
兵庫県,丹波市,管理番号292市島15,市島町下竹田,樽井グラウンド　フェンス,35.2535413,135.1491267
兵庫県,丹波市,管理番号293市島16,市島町上竹田,masked,35.2352222,135.1284712
兵庫県,丹波市,管理番号294市島17,丹波市,市道十市倉崎線　十市農業改善センター前,35.231333,135.129585
兵庫県,丹波市,管理番号295市島18,市島町上竹田,段宿グラウンド　フェンス,35.2318927,135.1254392
兵庫県,丹波市,管理番号296市島19,市島町上竹田,県道沼市島線(STYLE BOXS Kips美容室横),35.2278951,135.1250232
兵庫県,丹波市,管理番号297市島20,市島町矢代,市道矢代上鴨阪線（㈱サンパック横）,35.2244567,135.1294356
兵庫県,丹波市,管理番号298市島21,沼市島線,masked,35.2264169,135.1161853
兵庫県,丹波市,管理番号299市島22,沼市島線,前山小学校第2駐車場前　フェンス,35.2258043,135.1119866
兵庫県,丹波市,管理番号300市島23,市島町下鴨阪,市道徳尾下鴨阪線　ガードレール（下鴨阪公民館前）,35.2242205,135.1053476
兵庫県,丹波市,管理番号301市島24,市島町下鴨阪,県道沼市島線から徳尾丁田線へ入る交差点付近,35.2300032,135.1024108
兵庫県,丹波市,管理番号302市島25,沼市島線,masked,35.231944,135.0975753
兵庫県,丹波市,管理番号303市島26,市島町徳尾,市道下河原上野線（大杉ダム入口）,35.236223,135.098981
兵庫県,丹波市,管理番号304市島27,市島町徳尾,masked,35.2437861,135.0947673
兵庫県,丹波市,管理番号305市島28,国道175号,市島駅前駐車場　フェンス,35.2074863,135.1302702
兵庫県,丹波市,管理番号306市島29,市島町上田,吉見友愛センター駐車場付近　市所有地,35.2090449,135.134524
兵庫県,丹波市,管理番号307市島30,市島和知線,市島支所南交差点　転落防止柵,35.2080693,135.1364301
兵庫県,丹波市,管理番号308市島31,国道175号,ライフピアいちじま前,35.2105607,135.1440984
兵庫県,丹波市,管理番号309市島32,市島町梶原,吉見小学校グラウンド　フェンス,35.2057663,135.1331029
兵庫県,丹波市,管理番号310市島33,市島町梶原,市道梶原線　ガードパイプ（梶原公民館前）,35.1998537,135.1319403
兵庫県,丹波市,管理番号311市島34,市島町上垣,masked,35.2152693,135.1400425
兵庫県,丹波市,管理番号312市島35,市島町上垣,くらべふれあいセンター　フェンス,35.2195678,135.1376498
兵庫県,丹波市,管理番号313市島36,市島町南,南自治会館　転落防止柵,35.1973271,135.145807
兵庫県,丹波市,管理番号314市島37,舞鶴若狭自動車道,端地内高速ガード下　ガードレール,35.1980914,135.1545182
兵庫県,丹波市,管理番号315市島38,市島和知線,尾ドノ橋付近　転落防止柵,35.1998481,135.1587193
兵庫県,丹波市,管理番号316市島39,市島和知線,阪谷工務店前　転落防止柵,35.2014239,135.1539835
兵庫県,丹波市,管理番号317市島40,市島町岩戸,市道岩戸西線　ガードレール（岩戸公民館前）,35.213316,135.1557693
兵庫県,丹波市,管理番号318市島41,市島町上牧,後地公民館　フェンス,35.2002059,135.1719364
兵庫県,丹波市,管理番号319市島42,市島町北奥,前地公民館グラウンド入口付近,35.1978309,135.171193
兵庫県,丹波市,管理番号320市島43,県道神池寺線,神池寺線,35.1956798,135.1713951
兵庫県,丹波市,管理番号321市島44,市島和知線,県道市島和知線(戸平生活改善センター前),35.2019705,135.1884291
兵庫県,丹波市,管理番号322市島45,国道175号,masked,35.199381,135.1236969
兵庫県,丹波市,管理番号323市島46,市島町酒梨,市道長者台線歩道　転落防止柵,35.1939133,135.1135143
兵庫県,丹波市,管理番号324市島47,絹山市島線,勅使ふれあい広場下　ガードレール,35.1978074,135.1190117
兵庫県,丹波市,管理番号325市島48,市島町酒梨,酒梨広場　フェンス,35.202188,135.1114819
兵庫県,丹波市,管理番号326市島49,市島町酒梨,三輪小学校　フェンス,35.1986987,135.110934
兵庫県,丹波市,管理番号327市島50,市島町酒梨,masked,35.1956545,135.1138035
兵庫県,丹波市,管理番号328市島51,絹山市島線,市道戸坂白毫寺線　道路残地（植え込み）,35.1957905,135.1054243
兵庫県,丹波市,管理番号329市島52,市島町与戸,与戸ふれあい広場　フェンス,35.1991286,135.1032808
兵庫県,丹波市,管理番号330市島53,市島町戸坂,白毫寺グラウンド　フェンス,35.1944838,135.0985994
兵庫県,丹波市,管理番号331市島54,市島町乙河内,乙河内公民館前　ガードレール,35.2111175,135.0988636
